{"locations":[{"id":"AT-612","name":"Schaerding, Linzerstr","lat":48.4512,"lng":13.436,"site_brand":"bp","country_code":"AT","address":"Linzer Straße 52","city":"Schärding","state":null,"postcode":"4780","telephone":"+43 7712 29577","facilities":["tobacco","car_wash","toilet","shop","bakery_bistro","accepts_routex_cards","accepts_toll_payments","reminder_service","open_saturday","open_sunday"],"products":["ad_blue_cannister","ad_blue_pump","diesel_on","ultimate","ultimate_diesel","ultimate_unleaded","unleaded_95","ad_blue"],"website":null,"watchlist_id":null,"formatted_address":"Linzer Straße 52\n4780\nSchärding","channel_of_trade":null},{"id":"AT-615","name":"Hochburg-Ach, Braunauer Str. 1","lat":48.1570682,"lng":12.8402924,"site_brand":"bp","country_code":"AT","address":"Braunauer Straße 1","city":"Ach","state":null,"postcode":"5122","telephone":"+43 7727 4018","facilities":["high_speed_pump","truck_suitable_site","toilet","accepts_routex_cards","accepts_toll_payments","reminder_service","open_saturday","open_sunday"],"products":["ad_blue_cannister","diesel_on","ultimate","ultimate_unleaded","unleaded_95"],"website":null,"watchlist_id":null,"formatted_address":"Braunauer Straße 1\n5122\nAch","channel_of_trade":null},{"id":"AT-3567","name":"Salzburg, Aiglhofstr. 20","lat":47.8034111,"lng":13.0286574,"site_brand":"bp","country_code":"AT","address":"Aiglhofstraße 20","city":"Salzburg","state":null,"postcode":"5020","telephone":"+43 50 8300 3000","facilities":["tobacco","high_speed_pump","truck_suitable_site","toilet","bakery_bistro","accepts_routex_cards","accepts_toll_payments","reminder_service","open_saturday","open_sunday"],"products":["ad_blue_cannister","ad_blue_pump","diesel_on","ultimate","ultimate_diesel","ultimate_unleaded","unleaded_95","ad_blue"],"website":null,"watchlist_id":null,"formatted_address":"Aiglhofstraße 20\n5020\nSalzburg","channel_of_trade":null},{"id":"AT-4225","name":"Salzburg, Nonntaler Hauptstr. 65","lat":47.7845,"lng":13.0525,"site_brand":"bp","country_code":"AT","address":"Nonntaler Hauptstraße 65","city":"Salzburg","state":null,"postcode":"5020","telephone":"+43 662 825644","facilities":["tobacco","car_wash","high_speed_pump","truck_suitable_site","toilet","shop","bakery_bistro","wild_bean_cafe","accepts_routex_cards","accepts_toll_payments","reminder_service","open_saturday","open_sunday"],"products":["ad_blue_cannister","diesel_on","ultimate","ultimate_diesel","ultimate_unleaded","unleaded_95"],"website":null,"watchlist_id":null,"formatted_address":"Nonntaler Hauptstraße 65\n5020\nSalzburg","channel_of_trade":null},{"id":"AT-7074","name":"Glasenbach-Elsbethen, Joh.Herbst-Str. 15","lat":47.7695606,"lng":13.0854034,"site_brand":"bp","country_code":"AT","address":"Johann-Herbst-Straße 15","city":"Glasenbach-Elsbethen","state":null,"postcode":"5061","telephone":"+43 50 8300 3100","facilities":["alcohol","tobacco","high_speed_pump","truck_suitable_site","toilet","shop","bakery_bistro","accepts_routex_cards","accepts_toll_payments","reminder_service","open_saturday","open_sunday"],"products":["ad_blue_cannister","ad_blue_pump","diesel_on","ultimate","ultimate_diesel","ultimate_unleaded","unleaded_95","ad_blue"],"website":null,"watchlist_id":null,"formatted_address":"Johann-Herbst-Straße 15\n5061\nGlasenbach-Elsbethen","channel_of_trade":null},{"id":"AT-8947","name":"Schaerding, Passauer Str. 29","lat":48.4642133,"lng":13.4356022,"site_brand":"bp","country_code":"AT","address":"Passauer Straße 29","city":"Schärding","state":null,"postcode":"4780","telephone":"+43 7712 50021","facilities":["tobacco","car_wash","high_speed_pump","truck_suitable_site","toilet","merkur","shop","bakery_bistro","wild_bean_cafe","accepts_routex_cards","accepts_toll_payments","reminder_service","open_saturday","open_sunday"],"products":["ad_blue_cannister","diesel_on","ultimate","ultimate_diesel","ultimate_unleaded","unleaded_95"],"website":null,"watchlist_id":null,"formatted_address":"Passauer Straße 29\n4780\nSchärding","channel_of_trade":null},{"id":"AT-8960","name":"Bergheim/Lengfelden, B156","lat":47.8441697,"lng":13.0505776,"site_brand":"bp","country_code":"AT","address":"Lamprechtshausener Str. 3. B156","city":"Bergheim / Lengfelden","state":null,"postcode":"5101","telephone":"+43 662 453775","facilities":["open_24_hours","tobacco","car_wash","high_speed_pump","truck_suitable_site","toilet","merkur","shop","bakery_bistro","wild_bean_cafe","accepts_routex_cards","accepts_toll_payments","reminder_service","open_saturday","open_sunday"],"products":["ad_blue_cannister","ad_blue_pump","diesel_on","natural_gas","ultimate","ultimate_diesel","ultimate_unleaded","unleaded_95","ad_blue"],"website":null,"watchlist_id":null,"formatted_address":"Lamprechtshausener Str. 3. B156\n5101\nBergheim / Lengfelden","channel_of_trade":null},{"id":"AT-9886","name":"Strasswalchen, Braunauer Str. 28","lat":47.9881,"lng":13.2495,"site_brand":"bp","country_code":"AT","address":"Braunauer Straße 28","city":"Strasswalchen","state":null,"postcode":"5204","telephone":"+43 50 8300 3150","facilities":["alcohol","tobacco","toilet","shop","bistro","accepts_routex_cards","accepts_toll_payments","reminder_service","open_saturday","open_sunday"],"products":["ad_blue_cannister","ad_blue_pump","diesel_on","ultimate","ultimate_diesel","ultimate_unleaded","unleaded_95","ad_blue"],"website":null,"watchlist_id":null,"formatted_address":"Braunauer Straße 28\n5204\nStrasswalchen","channel_of_trade":null},{"id":"AT-9905","name":"Eugendorf-Strass, Gewerbestr. 1","lat":47.8616356,"lng":13.1284904,"site_brand":"bp","country_code":"AT","address":"Gewerbestraße 1","city":"Eugendorf-Strass","state":null,"postcode":"5301","telephone":"+43 6225 2405","facilities":["open_24_hours","tobacco","car_wash","high_speed_pump","truck_suitable_site","toilet","merkur","shop","bakery_bistro","wild_bean_cafe","accepts_routex_cards","accepts_toll_payments","reminder_service","open_saturday","open_sunday"],"products":["ad_blue_cannister","ad_blue_pump","diesel_on","natural_gas","ultimate","ultimate_diesel","ultimate_unleaded","unleaded_95","ad_blue"],"website":null,"watchlist_id":null,"formatted_address":"Gewerbestraße 1\n5301\nEugendorf-Strass","channel_of_trade":null},{"id":"AT-18746207","name":"Hof b. Salzburg, Wolfgangseestr. 9","lat":47.8169976,"lng":13.2281001,"site_brand":"bp","country_code":"AT","address":"Wolfgangseestraße 9","city":"Hof bei Salzburg","state":null,"postcode":"5322","telephone":"+43 50 8300","facilities":["alcohol","tobacco","toilet","accepts_routex_cards","accepts_toll_payments","reminder_service","open_saturday","open_sunday"],"products":["ad_blue_cannister","ad_blue_pump","diesel_on","ultimate","ultimate_diesel","ultimate_unleaded","unleaded_95","ad_blue"],"website":null,"watchlist_id":"18746207","formatted_address":"Wolfgangseestraße 9\n5322\nHof bei Salzburg","channel_of_trade":null},{"id":"AT-556180922","name":"Wals, Bundesstrasse 49","lat":47.7857414,"lng":12.97552,"site_brand":"bp","country_code":"AT","address":"Bundesstraße 49","city":"Wals","state":null,"postcode":"5071","telephone":"+43 50 8300 1800","facilities":["alcohol","tobacco","high_speed_pump","truck_suitable_site","toilet","bakery_bistro","accepts_routex_cards","accepts_toll_payments","reminder_service","open_saturday","open_sunday"],"products":["ad_blue_cannister","ad_blue_pump","diesel_on","ultimate","ultimate_diesel","ultimate_unleaded","unleaded_95","ad_blue"],"website":null,"watchlist_id":null,"formatted_address":"Bundesstraße 49\n5071\nWals","channel_of_trade":null},{"id":"AT-1815100694","name":"Anif, Alpenstrasse 111","lat":47.7362928,"lng":13.0507707,"site_brand":"bp","country_code":"AT","address":"Alpenstraße 111","city":"Anif","state":null,"postcode":"5081","telephone":"+43 660 1349879","facilities":["alcohol","tobacco","high_speed_pump","truck_suitable_site","toilet","bakery_bistro","accepts_routex_cards","accepts_toll_payments","reminder_service","open_saturday","open_sunday"],"products":["ad_blue_cannister","ad_blue_pump","diesel_on","ultimate","ultimate_diesel","ultimate_unleaded","unleaded_95","ad_blue"],"website":null,"watchlist_id":null,"formatted_address":"Alpenstraße 111\n5081\nAnif","channel_of_trade":null},{"id":"AT-1626535248","name":"Seekirchen, Obertrumer Landstrasse 11","lat":47.9036543,"lng":13.1205386,"site_brand":"bp","country_code":"AT","address":"Obertrumer Landstraße 11","city":"Seekirchen","state":null,"postcode":"5201","telephone":"+43 50 8300","facilities":["alcohol","tobacco","high_speed_pump","truck_suitable_site","toilet","accepts_routex_cards","accepts_toll_payments","reminder_service","open_saturday","open_sunday"],"products":["ad_blue_cannister","ad_blue_pump","diesel_on","ultimate","ultimate_diesel","ultimate_unleaded","unleaded_95","ad_blue"],"website":null,"watchlist_id":null,"formatted_address":"Obertrumer Landstraße 11\n5201\nSeekirchen","channel_of_trade":null},{"id":"AT-537428986","name":"Braunau, Neue Innbrueckenstrasse 2","lat":48.248524,"lng":13.015532,"site_brand":"bp","country_code":"AT","address":"Neue Innbrückenstraße 2","city":"Braunau am Inn","state":null,"postcode":"5280","telephone":"+43 50 8300 7000","facilities":["tobacco","accepts_routex_cards","accepts_toll_payments","reminder_service","open_saturday","open_sunday"],"products":["ad_blue_cannister","ad_blue_pump","diesel_on","ultimate","ultimate_diesel","ultimate_unleaded","unleaded_95","ad_blue"],"website":null,"watchlist_id":null,"formatted_address":"Neue Innbrückenstraße 2\n5280\nBraunau am Inn","channel_of_trade":null},{"id":"AT-1406101388","name":"S-SALZBURG, STERNECKSTR. 16","lat":47.8081108,"lng":13.0530881,"site_brand":"bp","country_code":"AT","address":"Sterneckstraße 16","city":"Salzburg","state":null,"postcode":"5020","telephone":"+43 50 8300 3050","facilities":["accepts_routex_cards","reminder_service","open_saturday","open_sunday"],"products":["ad_blue_cannister","ad_blue_pump","diesel_on","ultimate","ultimate_diesel","ultimate_unleaded","unleaded_95","ad_blue"],"website":null,"watchlist_id":null,"formatted_address":"Sterneckstraße 16\n5020\nSalzburg","channel_of_trade":null},{"id":"AT-1395851903","name":"Burgkirchen, Au 2","lat":48.19558,"lng":13.10447,"site_brand":"bp","country_code":"AT","address":"Au 2","city":"Burgkirchen","state":null,"postcode":"5274","telephone":"+43 676 6104999","facilities":["car_wash","shop","accepts_routex_cards","reminder_service","open_saturday","open_sunday"],"products":["ad_blue_cannister","ad_blue_pump","diesel_on","ultimate","ultimate_diesel","ultimate_unleaded","unleaded_95","ad_blue"],"website":null,"watchlist_id":null,"formatted_address":"Au 2\n5274\nBurgkirchen","channel_of_trade":null},{"id":"AT-1284640477","name":"Obernberg am Inn, Brueckenstr. 4","lat":48.3193555,"lng":13.3277399,"site_brand":"bp","country_code":"AT","address":"Brückenstraße 4","city":"Obernberg am Inn","state":null,"postcode":"4982","telephone":"+43 7758 40868","facilities":["tobacco","toilet","accepts_routex_cards","accepts_toll_payments","reminder_service","open_saturday","open_sunday"],"products":["ad_blue_cannister","diesel_on","ultimate","ultimate_diesel","ultimate_unleaded","unleaded_95"],"website":null,"watchlist_id":null,"formatted_address":"Brückenstraße 4\n4982\nObernberg am Inn","channel_of_trade":null},{"id":"AT-405006304","name":"O-LOCHEN AM SEE, KERSCHHAM 104","lat":48.027455,"lng":13.14086,"site_brand":"bp","country_code":"AT","address":"Kerschham 104","city":"Lochen am See","state":null,"postcode":"5221","telephone":"+43 7747 20338","facilities":["shop","restaurant","accepts_routex_cards","accepts_toll_payments","open_saturday","open_sunday"],"products":["ad_blue_cannister","diesel_on","ultimate","ultimate_diesel","ultimate_unleaded","unleaded_95"],"website":null,"watchlist_id":null,"formatted_address":"Kerschham 104\n5221\nLochen am See","channel_of_trade":null},{"id":"AT-154621728","name":"Weng, Pirath 18","lat":48.2494394,"lng":13.2090305,"site_brand":"bp","country_code":"AT","address":"Pirath 18","city":"Weng","state":null,"postcode":"4952","telephone":"+43 7723 44424","facilities":["open_24_hours","toilet","shop","restaurant","accepts_routex_cards","accepts_toll_payments","reminder_service","open_saturday","open_sunday"],"products":["ad_blue_cannister","ad_blue_pump","diesel_on","ultimate","ultimate_diesel","ultimate_unleaded","unleaded_95","ad_blue"],"website":null,"watchlist_id":null,"formatted_address":"Pirath 18\n4952\nWeng","channel_of_trade":null},{"id":"AT-1359100731","name":"Tumeltsham, Hannesgrub Sued 3","lat":48.2180558,"lng":13.4947438,"site_brand":"bp","country_code":"AT","address":"Hannesgrub Süd 3","city":"Tumeltsham","state":null,"postcode":"4911","telephone":"+43 7752 88823","facilities":["shop","accepts_routex_cards","accepts_toll_payments","reminder_service","open_saturday","open_sunday"],"products":["ad_blue_cannister","ad_blue_pump","diesel_on","ultimate","ultimate_diesel","ultimate_unleaded","unleaded_95","ad_blue"],"website":null,"watchlist_id":null,"formatted_address":"Hannesgrub Süd 3\n4911\nTumeltsham","channel_of_trade":null},{"id":"AT-1564464312","name":"Grossgmain, Salzburger Str. 285","lat":47.7279005,"lng":12.9153066,"site_brand":"bp","country_code":"AT","address":"Salzburger Straße 285","city":"Grossgmain","state":null,"postcode":"5084","telephone":"+43 6247 8071","facilities":["toilet","shop","accepts_routex_cards","accepts_toll_payments","reminder_service","open_saturday","open_sunday"],"products":["ad_blue_cannister","diesel_on","ultimate","ultimate_diesel","ultimate_unleaded","unleaded_95"],"website":null,"watchlist_id":null,"formatted_address":"Salzburger Straße 285\n5084\nGrossgmain","channel_of_trade":null},{"id":"AT-1424187416","name":"Salzburg, Muenchner Bundesstr. 137","lat":47.8331674,"lng":12.9980373,"site_brand":"bp","country_code":"AT","address":"Münchner Bundesstraße 137","city":"Salzburg","state":null,"postcode":"5020","telephone":"+43 662 424285","facilities":["open_24_hours","toilet","shop","restaurant","accepts_routex_cards","accepts_toll_payments","reminder_service","open_saturday","open_sunday"],"products":["ad_blue_cannister","diesel_on","natural_gas","ultimate","ultimate_diesel","ultimate_unleaded","unleaded_95"],"website":null,"watchlist_id":null,"formatted_address":"Münchner Bundesstraße 137\n5020\nSalzburg","channel_of_trade":null},{"id":"AT-504421735","name":"Oberndorf bei Salzburg, Salzburger Str. 4","lat":47.935288,"lng":12.946558,"site_brand":"bp","country_code":"AT","address":"Salzburger Straße 4","city":"Oberndorf bei Salzburg","state":null,"postcode":"5110","telephone":"+43 6272 73182","facilities":["toilet","shop","restaurant","accepts_routex_cards","accepts_toll_payments","reminder_service","open_saturday","open_sunday"],"products":["ad_blue_cannister","ad_blue_pump","diesel_on","natural_gas","ultimate","ultimate_diesel","ultimate_unleaded","unleaded_95","ad_blue"],"website":null,"watchlist_id":null,"formatted_address":"Salzburger Straße 4\n5110\nOberndorf bei Salzburg","channel_of_trade":null},{"id":"AT-1426092169","name":"Voecklamarkt, Frankenburger Str. 1a","lat":47.9953014,"lng":13.4889876,"site_brand":"bp","country_code":"AT","address":"Frankenburger Straße 1a","city":"Vöcklamarkt","state":null,"postcode":"4870","telephone":"+43 7682 3728","facilities":["toilet","restaurant","accepts_routex_cards","accepts_toll_payments","reminder_service","open_saturday","open_sunday"],"products":["ad_blue_cannister","ad_blue_pump","diesel_on","ultimate","ultimate_diesel","ultimate_unleaded","unleaded_95","ad_blue"],"website":null,"watchlist_id":null,"formatted_address":"Frankenburger Straße 1a\n4870\nVöcklamarkt","channel_of_trade":null},{"id":"DE-15123700","name":"Aral AG","lat":48.028308,"lng":10.70677,"site_brand":"aral","country_code":"DE","address":"Winckeläckerstr.","city":"Buchloe","state":null,"postcode":"86807","telephone":"","facilities":["open_24_hours","open_saturday","open_sunday","ryd","automatische_diesel_station"],"products":["ad_blue","truck_diesel"],"website":"https://tankstelle.aral.de/tankstelle/15123700","watchlist_id":"15123700","formatted_address":"Winckeläckerstr.\n86807\nBuchloe","channel_of_trade":"UNCO"},{"id":"DE-15048200","name":"Oberschwäbischer Mineralölvertrieb Johann Deisenhofer GmbH","lat":48.000251,"lng":9.660136,"site_brand":"aral","country_code":"DE","address":"Bahnhofstraße 30","city":"Bad Schussenried","state":null,"postcode":"88427","telephone":"+49 7583 2413","facilities":["car_wash","recup","shop","pay_at_pump_supported","outdoor_payment_terminal","loyalty","open_saturday","open_sunday","ryd"],"products":["ultimate","ultimate_diesel","lpg","super_e5","e10"],"website":"https://tankstelle.aral.de/tankstelle/15048200","watchlist_id":"15048200","formatted_address":"Bahnhofstraße 30\n88427\nBad Schussenried","channel_of_trade":"DODO"},{"id":"DE-15039200","name":"Andreas Kauer","lat":48.801836,"lng":9.591705,"site_brand":"aral","country_code":"DE","address":"Jakob-Schüle-Straße 60","city":"Plüderhausen","state":null,"postcode":"73655","telephone":"+49 7181 9940325","facilities":["car_wash","shop","pay_at_pump_supported","outdoor_payment_terminal","loyalty","open_saturday","open_sunday","ryd"],"products":["lpg","super_e5","super_98","e10"],"website":"https://tankstelle.aral.de/tankstelle/15039200","watchlist_id":"15039200","formatted_address":"Jakob-Schüle-Straße 60\n73655\nPlüderhausen","channel_of_trade":"DODO"},{"id":"DE-15018900","name":"Azra Yaren Zorba","lat":48.404406,"lng":10.03394,"site_brand":"aral","country_code":"DE","address":"Leipheimer Straße 34","city":"Neu-Ulm","state":null,"postcode":"89233","telephone":"+49 731 711295","facilities":["car_wash","shop","pay_at_pump_supported","outdoor_payment_terminal","loyalty","open_saturday","open_sunday","ryd"],"products":["ultimate","ultimate_diesel","super_e5","e10"],"website":"https://tankstelle.aral.de/tankstelle/15018900","watchlist_id":"15018900","formatted_address":"Leipheimer Straße 34\n89233\nNeu-Ulm","channel_of_trade":"DODO"},{"id":"DE-15049000","name":"Stephan Tankstellen Südwest GmbH","lat":48.370829,"lng":9.732629,"site_brand":"aral","country_code":"DE","address":"Ehinger Straße 11","city":"Schelklingen","state":null,"postcode":"89601","telephone":"+49 7394 2346","facilities":["car_wash","jet_wash","super_wash","shop","bistro","pay_at_pump_supported","outdoor_payment_terminal","loyalty","special_car_wash","open_saturday","open_sunday","ryd"],"products":["ultimate","ultimate_diesel","super_e5","e10"],"website":"https://tankstelle.aral.de/tankstelle/15049000","watchlist_id":"15049000","formatted_address":"Ehinger Straße 11\n89601\nSchelklingen","channel_of_trade":"DODO"},{"id":"DE-15065500","name":"Ludwig Dalacker\u0026Sohn GmbH\u0026Co. KG","lat":48.685977,"lng":9.803848,"site_brand":"aral","country_code":"DE","address":"Hauptstraße 18","city":"Donzdorf","state":null,"postcode":"73072","telephone":"+49 7162 29869","facilities":["car_wash","shop","pay_at_pump_supported","outdoor_payment_terminal","loyalty","open_saturday","open_sunday","ryd"],"products":["ultimate","ultimate_diesel","lpg","super_e5","e10"],"website":"https://tankstelle.aral.de/tankstelle/15065500","watchlist_id":"15065500","formatted_address":"Hauptstraße 18\n73072\nDonzdorf","channel_of_trade":"JOBR"},{"id":"DE-15061600","name":"Ibrahim Ilhan","lat":48.320287,"lng":10.049629,"site_brand":"aral","country_code":"DE","address":"Kemptener Straße 61","city":"Senden","state":null,"postcode":"89250","telephone":"+49 7307 5217","facilities":["open_24_hours","car_wash","jet_wash","super_wash","recup","shop","bistro","too_good_to_go","pay_at_pump_supported","outdoor_payment_terminal","loyalty","special_car_wash","vda","open_saturday","open_sunday","ryd"],"products":["ultimate","ultimate_diesel","super_e5","e10"],"website":"https://tankstelle.aral.de/tankstelle/15061600","watchlist_id":"15061600","formatted_address":"Kemptener Straße 61\n89250\nSenden","channel_of_trade":"COSI"},{"id":"DE-15123200","name":"Damir Kelava","lat":48.237538,"lng":9.882225,"site_brand":"aral","country_code":"DE","address":"Ulmer Straße 91","city":"Laupheim","state":null,"postcode":"88471","telephone":"+49 7392 168623","facilities":["open_24_hours","car_wash","jet_wash","super_wash","recup","rewe_to_go","shop","bistro","too_good_to_go","pay_at_pump_supported","outdoor_payment_terminal","loyalty","special_car_wash","vda","open_saturday","open_sunday","ryd"],"products":["ultimate","ultimate_diesel","super_e5","e10"],"website":"https://tankstelle.aral.de/tankstelle/15123200","watchlist_id":"15123200","formatted_address":"Ulmer Straße 91\n88471\nLaupheim","channel_of_trade":"COSI"},{"id":"DE-15121800","name":"Ibrahim Ilhan","lat":48.516101,"lng":9.75969,"site_brand":"aral","country_code":"DE","address":"Nellinger Straße 24","city":"Merklingen","state":null,"postcode":"89188","telephone":"+49 7337 9233029","facilities":["open_24_hours","car_wash","jet_wash","super_wash","electric_charging","truck_parking","recup","cash_point","rewe_to_go","shop","bistro","too_good_to_go","pay_at_pump_supported","outdoor_payment_terminal","loyalty","special_car_wash","open_saturday","open_sunday","ryd"],"products":["ultimate","ultimate_diesel","natural_gas","lpg","ad_blue","super_e5","e10","truck_diesel","electric_charging"],"website":"https://tankstelle.aral.de/tankstelle/15121800","watchlist_id":"15121800","formatted_address":"Nellinger Straße 24\n89188\nMerklingen","channel_of_trade":"COSI"},{"id":"DE-15121500","name":"Aral Aktiengesellschaft","lat":48.473433,"lng":10.273352,"site_brand":"aral","country_code":"DE","address":"Peter-Henlein-Str.","city":"Günzburg","state":null,"postcode":"89312","telephone":"","facilities":["open_24_hours","open_saturday","open_sunday","ryd","automatische_diesel_station"],"products":["ad_blue","truck_diesel"],"website":"https://tankstelle.aral.de/tankstelle/15121500","watchlist_id":"15121500","formatted_address":"Peter-Henlein-Str.\n89312\nGünzburg","channel_of_trade":"UNCO"},{"id":"DE-19125500","name":"Kristina Balser","lat":47.717837,"lng":11.718955,"site_brand":"aral","country_code":"DE","address":"Münchener Straße 43","city":"Bad Wiessee","state":null,"postcode":"83707","telephone":"+49 8022 857950","facilities":["car_wash","jet_wash","super_wash","recup","cash_point","rewe_to_go","shop","bistro","too_good_to_go","pay_at_pump_supported","outdoor_payment_terminal","loyalty","special_car_wash","open_saturday","open_sunday","ryd"],"products":["ultimate","ultimate_diesel","super_e5","e10"],"website":"https://tankstelle.aral.de/tankstelle/19125500","watchlist_id":"19125500","formatted_address":"Münchener Straße 43\n83707\nBad Wiessee","channel_of_trade":"COSI"},{"id":"DE-19125300","name":"Ralf Höbold e.K.","lat":48.125935,"lng":12.574169,"site_brand":"aral","country_code":"DE","address":"Binderfeld 2","city":"Garching","state":null,"postcode":"84518","telephone":"+49 8634 400","facilities":["car_wash","jet_wash","super_wash","recup","rewe_to_go","shop","bistro","too_good_to_go","pay_at_pump_supported","outdoor_payment_terminal","loyalty","special_car_wash","vda","open_saturday","open_sunday","ryd"],"products":["ultimate","ultimate_diesel","super_e5","e10"],"website":"https://tankstelle.aral.de/tankstelle/19125300","watchlist_id":"19125300","formatted_address":"Binderfeld 2\n84518\nGarching","channel_of_trade":"COSI"},{"id":"DE-19124300","name":"Tobias Dostal","lat":48.696419,"lng":9.690237,"site_brand":"aral","country_code":"DE","address":"Stuttgarter Straße 119","city":"Eislingen","state":null,"postcode":"73054","telephone":"+49 7161 990220","facilities":["open_24_hours","car_wash","jet_wash","super_wash","electric_charging","recup","rewe_to_go","shop","bistro","too_good_to_go","pay_at_pump_supported","outdoor_payment_terminal","loyalty","special_car_wash","vda","open_saturday","open_sunday","ryd"],"products":["ultimate","ultimate_diesel","super_e5","e10","truck_diesel","electric_charging"],"website":"https://tankstelle.aral.de/tankstelle/19124300","watchlist_id":"19124300","formatted_address":"Stuttgarter Straße 119\n73054\nEislingen","channel_of_trade":"COSI"},{"id":"DE-19123900","name":"Dominik Bachleitner","lat":48.463953,"lng":11.939814,"site_brand":"aral","country_code":"DE","address":"Landshuter Straße 42","city":"Moosburg","state":null,"postcode":"85368","telephone":"+49 8761 729846","facilities":["open_24_hours","car_wash","jet_wash","super_wash","electric_charging","recup","rewe_to_go","shop","bistro","too_good_to_go","pay_at_pump_supported","outdoor_payment_terminal","loyalty","special_car_wash","vda","open_saturday","open_sunday","ryd"],"products":["ultimate","ultimate_diesel","super_e5","e10","electric_charging"],"website":"https://tankstelle.aral.de/tankstelle/19123900","watchlist_id":"19123900","formatted_address":"Landshuter Straße 42\n85368\nMoosburg","channel_of_trade":"COSI"},{"id":"DE-19131300","name":"Aral Aktiengesellschaft","lat":48.307656,"lng":11.647054,"site_brand":"aral","country_code":"DE","address":"Freisinger Str. 27","city":"Eching","state":null,"postcode":"85386","telephone":"","facilities":["open_24_hours","open_saturday","open_sunday","ryd","automatische_diesel_station"],"products":["ad_blue","truck_diesel"],"website":"https://tankstelle.aral.de/tankstelle/19131300","watchlist_id":"19131300","formatted_address":"Freisinger Str. 27\n85386\nEching","channel_of_trade":"UNCO"},{"id":"DE-19129400","name":"Markus Heumann","lat":48.250399,"lng":11.6067,"site_brand":"aral","country_code":"DE","address":"Schleißheimer Straße 124","city":"Garching","state":null,"postcode":"85748","telephone":"+49 89 32666948","facilities":["open_24_hours","car_wash","jet_wash","super_wash","electric_charging","recup","cash_point","rewe_to_go","shop","bistro","too_good_to_go","pay_at_pump_supported","outdoor_payment_terminal","loyalty","special_car_wash","vda","open_saturday","open_sunday","ryd"],"products":["ultimate","ultimate_diesel","ad_blue","super_e5","e10","truck_diesel","electric_charging"],"website":"https://tankstelle.aral.de/tankstelle/19129400","watchlist_id":"19129400","formatted_address":"Schleißheimer Straße 124\n85748\nGarching","channel_of_trade":"COSI"},{"id":"DE-19000300","name":"Wolfgang Tulach","lat":48.119206,"lng":11.607772,"site_brand":"aral","country_code":"DE","address":"Rosenheimer Straße 138","city":"München","state":null,"postcode":"81669","telephone":"+49 89 401258","facilities":["open_24_hours","car_wash","jet_wash","super_wash","recup","cash_point","rewe_to_go","shop","bistro","too_good_to_go","pay_at_pump_supported","outdoor_payment_terminal","loyalty","special_car_wash","open_saturday","open_sunday","ryd"],"products":["ultimate","ultimate_diesel","super_e5","e10"],"website":"https://tankstelle.aral.de/tankstelle/19000300","watchlist_id":"19000300","formatted_address":"Rosenheimer Straße 138\n81669\nMünchen","channel_of_trade":"COSI"},{"id":"DE-19044500","name":"Sönmez Günan","lat":48.193657,"lng":10.75461,"site_brand":"aral","country_code":"DE","address":"Augsburger Straße 66","city":"Schwabmünchen","state":null,"postcode":"86830","telephone":"+49 8232 9975748","facilities":["shop","pay_at_pump_supported","outdoor_payment_terminal","loyalty","open_saturday","open_sunday","ryd"],"products":["ultimate","ultimate_diesel","super_e5","e10"],"website":"https://tankstelle.aral.de/tankstelle/19044500","watchlist_id":"19044500","formatted_address":"Augsburger Straße 66\n86830\nSchwabmünchen","channel_of_trade":"DODO"},{"id":"DE-19039000","name":"Kegreiss\u0026Dobler GbR","lat":47.972288,"lng":10.182645,"site_brand":"aral","country_code":"DE","address":"Allgäuer Straße 34","city":"Memmingen","state":null,"postcode":"87700","telephone":"+49 8331 89251","facilities":["car_wash","jet_wash","super_wash","shop","pay_at_pump_supported","outdoor_payment_terminal","loyalty","special_car_wash","vda","open_saturday","open_sunday","ryd"],"products":["ultimate","ultimate_diesel","super_e5","e10"],"website":"https://tankstelle.aral.de/tankstelle/19039000","watchlist_id":"19039000","formatted_address":"Allgäuer Straße 34\n87700\nMemmingen","channel_of_trade":"DODO"},{"id":"DE-19037200","name":"Carina Seebauer","lat":48.140631,"lng":11.683916,"site_brand":"aral","country_code":"DE","address":"Riemer Straße 360","city":"München","state":null,"postcode":"81829","telephone":"+49 89 907116","facilities":["car_wash","shop","pay_at_pump_supported","outdoor_payment_terminal","loyalty","open_saturday","open_sunday","ryd"],"products":["ultimate","ultimate_diesel","super_e5","e10"],"website":"https://tankstelle.aral.de/tankstelle/19037200","watchlist_id":"19037200","formatted_address":"Riemer Straße 360\n81829\nMünchen","channel_of_trade":"DODO"},{"id":"DE-19015400","name":"Michael Lichius","lat":48.178951,"lng":11.405146,"site_brand":"aral","country_code":"DE","address":"Lochhausener Straße 229","city":"München","state":null,"postcode":"81249","telephone":"+49 89 89711640","facilities":["open_24_hours","car_wash","jet_wash","super_wash","recup","rewe_to_go","shop","bistro","too_good_to_go","pay_at_pump_supported","outdoor_payment_terminal","loyalty","special_car_wash","open_saturday","open_sunday","ryd"],"products":["ultimate","ultimate_diesel","super_e5","e10"],"website":"https://tankstelle.aral.de/tankstelle/19015400","watchlist_id":"19015400","formatted_address":"Lochhausener Straße 229\n81249\nMünchen","channel_of_trade":"COSI"},{"id":"DE-19064200","name":"Athina Kyrgiou","lat":48.119722,"lng":11.677734,"site_brand":"aral","country_code":"DE","address":"Wasserburger Landstr. 51","city":"München","state":null,"postcode":"81825","telephone":"+49 89 424843","facilities":["open_24_hours","car_wash","car_wash_plant","jet_wash","super_wash","recup","cash_point","rewe_to_go","shop","bistro","pay_at_pump_supported","outdoor_payment_terminal","loyalty","special_car_wash","open_saturday","open_sunday","ryd"],"products":["ultimate","ultimate_diesel","super_e5","e10"],"website":"https://tankstelle.aral.de/tankstelle/19064200","watchlist_id":"19064200","formatted_address":"Wasserburger Landstr. 51\n81825\nMünchen","channel_of_trade":"COSI"},{"id":"DE-19057100","name":"Martin Meindl","lat":48.112274,"lng":11.539182,"site_brand":"aral","country_code":"DE","address":"Plinganser Str. 70","city":"München","state":null,"postcode":"81369","telephone":"+49 89 761566","facilities":["open_24_hours","car_wash","jet_wash","super_wash","electric_charging","recup","rewe_to_go","shop","bistro","too_good_to_go","pay_at_pump_supported","outdoor_payment_terminal","loyalty","special_car_wash","vda","open_saturday","open_sunday","ryd"],"products":["ultimate","ultimate_diesel","super_e5","e10","electric_charging"],"website":"https://tankstelle.aral.de/tankstelle/19057100","watchlist_id":"19057100","formatted_address":"Plinganser Str. 70\n81369\nMünchen","channel_of_trade":"COSI"},{"id":"DE-19052800","name":"Wolfgang Tulach","lat":48.121346,"lng":11.518817,"site_brand":"aral","country_code":"DE","address":"Garmischer Straße 197","city":"München","state":null,"postcode":"81377","telephone":"+49 89 7608904","facilities":["open_24_hours","car_wash","jet_wash","super_wash","recup","rewe_to_go","shop","bistro","too_good_to_go","pay_at_pump_supported","outdoor_payment_terminal","loyalty","special_car_wash","open_saturday","open_sunday","ryd"],"products":["ultimate","ultimate_diesel","super_e5","e10","truck_diesel"],"website":"https://tankstelle.aral.de/tankstelle/19052800","watchlist_id":"19052800","formatted_address":"Garmischer Straße 197\n81377\nMünchen","channel_of_trade":"COSI"},{"id":"DE-19097900","name":"RENT.OS GmbH","lat":48.448663,"lng":12.351033,"site_brand":"aral","country_code":"DE","address":"Landshuter Straße 9","city":"Vilsbiburg","state":null,"postcode":"84137","telephone":"+49 8741 96336513","facilities":["car_wash","jet_wash","super_wash","recup","shop","bistro","pay_at_pump_supported","outdoor_payment_terminal","loyalty","special_car_wash","vda","open_saturday","open_sunday","ryd"],"products":["super_e5","super_98","e10"],"website":"https://tankstelle.aral.de/tankstelle/19097900","watchlist_id":"19097900","formatted_address":"Landshuter Straße 9\n84137\nVilsbiburg","channel_of_trade":"DODO"},{"id":"DE-19076000","name":"BAT Köschinger Forst Ost","lat":48.836148,"lng":11.471164,"site_brand":"aral","country_code":"DE","address":"A9","city":"Hepberg","state":null,"postcode":"85120","telephone":"+49 8405 1336","facilities":["open_24_hours","motorway_site","loyalty","open_saturday","open_sunday","ryd"],"products":["ultimate","ultimate_diesel","ad_blue","super_e5","e10","truck_diesel"],"website":"https://tankstelle.aral.de/tankstelle/19076000","watchlist_id":"19076000","formatted_address":"A9\n85120\nHepberg","channel_of_trade":"MWAQ"},{"id":"DE-19073800","name":"Dirk Henning","lat":47.733864,"lng":12.877083,"site_brand":"aral","country_code":"DE","address":"Loferer Straße 29","city":"Bad Reichenhall","state":null,"postcode":"83435","telephone":"+49 8651 2325","facilities":["open_24_hours","car_wash","jet_wash","super_wash","recup","rewe_to_go","shop","bistro","too_good_to_go","pay_at_pump_supported","outdoor_payment_terminal","loyalty","special_car_wash","vda","open_saturday","open_sunday","ryd"],"products":["ad_blue","super_e5","super_98","e10","truck_diesel"],"website":"https://tankstelle.aral.de/tankstelle/19073800","watchlist_id":"19073800","formatted_address":"Loferer Straße 29\n83435\nBad Reichenhall","channel_of_trade":"COSI"},{"id":"DE-19072300","name":"Kristina Balser","lat":47.875805,"lng":11.710166,"site_brand":"aral","country_code":"DE","address":"Miesbacher Straße 33","city":"Holzkirchen","state":null,"postcode":"83607","telephone":"+49 8024 998184","facilities":["open_24_hours","car_wash","jet_wash","super_wash","electric_charging","recup","cash_point","rewe_to_go","shop","bistro","too_good_to_go","pay_at_pump_supported","outdoor_payment_terminal","loyalty","special_car_wash","vda","super_boxes","open_saturday","open_sunday","ryd"],"products":["ultimate","ultimate_diesel","ad_blue","super_e5","e10","truck_diesel","electric_charging"],"website":"https://tankstelle.aral.de/tankstelle/19072300","watchlist_id":"19072300","formatted_address":"Miesbacher Straße 33\n83607\nHolzkirchen","channel_of_trade":"COSI"},{"id":"DE-19099200","name":"Ralf Guggenmos","lat":47.801887,"lng":10.225011,"site_brand":"aral","country_code":"DE","address":"Kemptener Straße 43","city":"Altusried","state":null,"postcode":"87452","telephone":"+49 8373 935375","facilities":["car_wash","recup","shop","pay_at_pump_supported","outdoor_payment_terminal","loyalty","open_saturday","open_sunday","ryd"],"products":["ultimate","ultimate_diesel","super_e5","e10"],"website":"https://tankstelle.aral.de/tankstelle/19099200","watchlist_id":"19099200","formatted_address":"Kemptener Straße 43\n87452\nAltusried","channel_of_trade":"DODO"},{"id":"DE-19122200","name":"Diandra Leicht","lat":48.211636,"lng":12.417323,"site_brand":"aral","country_code":"DE","address":"Teplitzer Straße 24","city":"Waldkraiburg","state":null,"postcode":"84478","telephone":"+49 8638 4185","facilities":["open_24_hours","car_wash","jet_wash","super_wash","recup","cash_point","rewe_to_go","shop","bistro","too_good_to_go","pay_at_pump_supported","outdoor_payment_terminal","loyalty","special_car_wash","super_boxes","open_saturday","open_sunday","ryd"],"products":["ultimate","ultimate_diesel","ad_blue","super_e5","e10"],"website":"https://tankstelle.aral.de/tankstelle/19122200","watchlist_id":"19122200","formatted_address":"Teplitzer Straße 24\n84478\nWaldkraiburg","channel_of_trade":"COSI"},{"id":"DE-19116500","name":"Bavaria Petrol GmbH\u0026Co. KG","lat":48.145718,"lng":11.616339,"site_brand":"aral","country_code":"DE","address":"Richard Strauss-Straße 70","city":"München","state":null,"postcode":"81679","telephone":"+49 89 915079","facilities":["open_24_hours","shop","bistro","pay_at_pump_supported","outdoor_payment_terminal","loyalty","open_saturday","open_sunday","ryd"],"products":["lpg","ad_blue","super_e5","super_98","e10"],"website":"https://tankstelle.aral.de/tankstelle/19116500","watchlist_id":"19116500","formatted_address":"Richard Strauss-Straße 70\n81679\nMünchen","channel_of_trade":"JOBR"},{"id":"DE-19100400","name":"Gum GmbH","lat":48.378201,"lng":10.937471,"site_brand":"aral","country_code":"DE","address":"Stätzlinger Straße 86","city":"Augsburg","state":null,"postcode":"86165","telephone":"+49 821 713575","facilities":["shop","bistro","pay_at_pump_supported","outdoor_payment_terminal","loyalty","open_saturday","open_sunday","ryd"],"products":["super_e5","super_98","e10"],"website":"https://tankstelle.aral.de/tankstelle/19100400","watchlist_id":"19100400","formatted_address":"Stätzlinger Straße 86\n86165\nAugsburg","channel_of_trade":"DODO"},{"id":"DE-19123000","name":"VEWAG Verwaltungsgesellschaft mbH","lat":48.635765,"lng":11.779198,"site_brand":"aral","country_code":"DE","address":"Freisinger Straße 21","city":"Mainburg","state":null,"postcode":"84048","telephone":"+49 8751 5838","facilities":["car_wash","cash_point","shop","bistro","pay_at_pump_supported","outdoor_payment_terminal","loyalty","open_saturday","open_sunday","ryd"],"products":["lpg","ad_blue","super_e5","super_98","e10","truck_diesel"],"website":"https://tankstelle.aral.de/tankstelle/19123000","watchlist_id":"19123000","formatted_address":"Freisinger Straße 21\n84048\nMainburg","channel_of_trade":"JOBR"},{"id":"DE-19127400","name":"Werner Bartel","lat":48.392692,"lng":10.933418,"site_brand":"aral","country_code":"DE","address":"Aindlinger Strasse 11","city":"Augsburg","state":null,"postcode":"86167","telephone":"+49 821 7472450","facilities":["open_24_hours","car_wash","jet_wash","super_wash","electric_charging","recup","cash_point","rewe_to_go","shop","bistro","too_good_to_go","pay_at_pump_supported","outdoor_payment_terminal","loyalty","special_car_wash","vda","open_saturday","open_sunday","ryd"],"products":["ultimate","ultimate_diesel","ad_blue","super_e5","e10","truck_diesel","electric_charging"],"website":"https://tankstelle.aral.de/tankstelle/19127400","watchlist_id":"19127400","formatted_address":"Aindlinger Strasse 11\n86167\nAugsburg","channel_of_trade":"COSI"},{"id":"DE-23047400","name":"Dirk Ammann","lat":47.817707,"lng":9.642318,"site_brand":"aral","country_code":"DE","address":"Waldseer Straße 64","city":"Weingarten","state":null,"postcode":"88250","telephone":"+49 751 561310","facilities":["open_24_hours","car_wash","car_wash_plant","jet_wash","super_wash","electric_charging","recup","rewe_to_go","shop","bistro","too_good_to_go","pay_at_pump_supported","outdoor_payment_terminal","loyalty","special_car_wash","open_saturday","open_sunday","ryd"],"products":["ultimate","ultimate_diesel","super_e5","e10","truck_diesel","electric_charging"],"website":"https://tankstelle.aral.de/tankstelle/23047400","watchlist_id":"23047400","formatted_address":"Waldseer Straße 64\n88250\nWeingarten","channel_of_trade":"COSI"},{"id":"DE-24026900","name":"Eduard Paßreiter","lat":48.636243,"lng":12.495942,"site_brand":"aral","country_code":"DE","address":"Bahnhofstraße 18","city":"Dingolfing","state":null,"postcode":"84130","telephone":"+49 8731 73537","facilities":["open_24_hours","car_wash","jet_wash","super_wash","recup","cash_point","rewe_to_go","shop","bistro","too_good_to_go","pay_at_pump_supported","outdoor_payment_terminal","loyalty","special_car_wash","vda","open_saturday","open_sunday","ryd"],"products":["ultimate","ultimate_diesel","super_e5","e10","truck_diesel"],"website":"https://tankstelle.aral.de/tankstelle/24026900","watchlist_id":"24026900","formatted_address":"Bahnhofstraße 18\n84130\nDingolfing","channel_of_trade":"COSI"},{"id":"DE-24011700","name":"Josef Aumer","lat":48.947363,"lng":12.545309,"site_brand":"aral","country_code":"DE","address":"Bernauer Straße 20","city":"Kirchroth","state":null,"postcode":"94356","telephone":"+49 9428 226","facilities":["electric_charging","shop","pay_at_pump_supported","outdoor_payment_terminal","loyalty","open_saturday","open_sunday","ryd"],"products":["ultimate","ultimate_diesel","lpg","super_e5","e10","electric_charging"],"website":"https://tankstelle.aral.de/tankstelle/24011700","watchlist_id":"24011700","formatted_address":"Bernauer Straße 20\n94356\nKirchroth","channel_of_trade":"DODO"},{"id":"DE-22023700","name":"Susanne Maul","lat":48.929023,"lng":11.459235,"site_brand":"aral","country_code":"DE","address":"Hauptstraße 8","city":"Denkendorf","state":null,"postcode":"85095","telephone":"+49 8466 9519584","facilities":["car_wash","recup","rewe_to_go","shop","bistro","pay_at_pump_supported","outdoor_payment_terminal","loyalty","open_saturday","open_sunday","ryd"],"products":["ultimate","ultimate_diesel","lpg","super_e5","e10"],"website":"https://tankstelle.aral.de/tankstelle/22023700","watchlist_id":"22023700","formatted_address":"Hauptstraße 8\n85095\nDenkendorf","channel_of_trade":"COSI"},{"id":"DE-28521700","name":"Fabian Achatz","lat":48.130509,"lng":11.617173,"site_brand":"aral","country_code":"DE","address":"Berg-am-Laim-Straße 60","city":"München","state":null,"postcode":"81673","telephone":"+49 89 45409628","facilities":["open_24_hours","car_wash","jet_wash","super_wash","recup","rewe_to_go","shop","bistro","too_good_to_go","pay_at_pump_supported","outdoor_payment_terminal","loyalty","special_car_wash","open_saturday","open_sunday","ryd"],"products":["ultimate","ultimate_diesel","super_e5","e10"],"website":"https://tankstelle.aral.de/tankstelle/28521700","watchlist_id":"28521700","formatted_address":"Berg-am-Laim-Straße 60\n81673\nMünchen","channel_of_trade":"COSI"},{"id":"DE-28521200","name":"Andrea Herrmann","lat":48.119009,"lng":11.478235,"site_brand":"aral","country_code":"DE","address":"Waldwiesenstraße 31","city":"München","state":null,"postcode":"81375","telephone":"+49 89 74029166","facilities":["car_wash","jet_wash","super_wash","recup","rewe_to_go","shop","bistro","too_good_to_go","pay_at_pump_supported","outdoor_payment_terminal","loyalty","special_car_wash","vda","open_saturday","open_sunday","ryd"],"products":["ultimate","ultimate_diesel","super_e5","e10"],"website":"https://tankstelle.aral.de/tankstelle/28521200","watchlist_id":"28521200","formatted_address":"Waldwiesenstraße 31\n81375\nMünchen","channel_of_trade":"COSI"},{"id":"DE-28513600","name":"Monika Zdzienicki","lat":47.913915,"lng":11.432373,"site_brand":"aral","country_code":"DE","address":"Sauerlacher Straße 64","city":"Wolfratshausen","state":null,"postcode":"82515","telephone":"+49 8171 20793","facilities":["car_wash","jet_wash","super_wash","recup","rewe_to_go","shop","bistro","too_good_to_go","pay_at_pump_supported","outdoor_payment_terminal","loyalty","special_car_wash","vda","open_saturday","open_sunday","ryd"],"products":["ultimate","ultimate_diesel","super_e5","e10"],"website":"https://tankstelle.aral.de/tankstelle/28513600","watchlist_id":"28513600","formatted_address":"Sauerlacher Straße 64\n82515\nWolfratshausen","channel_of_trade":"COSI"},{"id":"DE-28568000","name":"Wolfgang Forner","lat":48.823385,"lng":9.9578,"site_brand":"aral","country_code":"DE","address":"Hauptstraße 2","city":"Mögglingen","state":null,"postcode":"73563","telephone":"+49 7174 316","facilities":["shop","pay_at_pump_supported","outdoor_payment_terminal","loyalty","open_saturday","open_sunday","ryd"],"products":["lpg","super_e5","super_98","e10"],"website":"https://tankstelle.aral.de/tankstelle/28568000","watchlist_id":"28568000","formatted_address":"Hauptstraße 2\n73563\nMögglingen","channel_of_trade":"DODO"},{"id":"DE-28561700","name":"Adolf Präg GmbH\u0026Co. KG","lat":48.581652,"lng":9.684212,"site_brand":"aral","country_code":"DE","address":"Bahnhofstraße 4-8","city":"Bad Ditzenbach","state":null,"postcode":"73342","telephone":"+49 7335 5304","facilities":["car_wash","shop","bistro","pay_at_pump_supported","outdoor_payment_terminal","loyalty","open_saturday","open_sunday","ryd"],"products":["super_e5","super_98","e10","truck_diesel"],"website":"https://tankstelle.aral.de/tankstelle/28561700","watchlist_id":"28561700","formatted_address":"Bahnhofstraße 4-8\n73342\nBad Ditzenbach","channel_of_trade":"JOBR"},{"id":"DE-28561000","name":"Adolf Präg GmbH\u0026Co. KG","lat":48.816456,"lng":9.778075,"site_brand":"aral","country_code":"DE","address":"Deinbacher Straße 5","city":"Schwäbisch Gmünd","state":null,"postcode":"73527","telephone":"+49 7171 74516","facilities":["car_wash","shop","bistro","pay_at_pump_supported","outdoor_payment_terminal","loyalty","open_saturday","open_sunday","ryd"],"products":["ultimate","ultimate_diesel","super_e5","e10"],"website":"https://tankstelle.aral.de/tankstelle/28561000","watchlist_id":"28561000","formatted_address":"Deinbacher Straße 5\n73527\nSchwäbisch Gmünd","channel_of_trade":"JOBR"},{"id":"DE-28552400","name":"Auto-Schweiger GmbH","lat":48.027708,"lng":11.085583,"site_brand":"aral","country_code":"DE","address":"Schondorfer Straße 12","city":"Utting am Ammersee","state":null,"postcode":"86919","telephone":"+49 8806 7267","facilities":["car_wash","shop","pay_at_pump_supported","outdoor_payment_terminal","loyalty","open_saturday","open_sunday","ryd"],"products":["ultimate","super_e5","e10"],"website":"https://tankstelle.aral.de/tankstelle/28552400","watchlist_id":"28552400","formatted_address":"Schondorfer Straße 12\n86919\nUtting am Ammersee","channel_of_trade":"DODO"},{"id":"DE-28535100","name":"Hans Sedlmeier","lat":47.957967,"lng":11.102196,"site_brand":"aral","country_code":"DE","address":"Lachener Straße 56","city":"Dießen","state":null,"postcode":"86911","telephone":"+49 8807 8776","facilities":["car_wash","shop","pay_at_pump_supported","outdoor_payment_terminal","loyalty","open_saturday","open_sunday","ryd"],"products":["lpg","super_e5","super_98","e10"],"website":"https://tankstelle.aral.de/tankstelle/28535100","watchlist_id":"28535100","formatted_address":"Lachener Straße 56\n86911\nDießen","channel_of_trade":"DODO"},{"id":"DE-28597500","name":"Josip Travas","lat":48.406403,"lng":9.996263,"site_brand":"aral","country_code":"DE","address":"Karlstraße 77","city":"Ulm","state":null,"postcode":"89073","telephone":"+49 731 23019","facilities":["car_wash","jet_wash","super_wash","recup","rewe_to_go","shop","bistro","too_good_to_go","pay_at_pump_supported","outdoor_payment_terminal","loyalty","special_car_wash","open_saturday","open_sunday","ryd"],"products":["super_e5","super_98","e10"],"website":"https://tankstelle.aral.de/tankstelle/28597500","watchlist_id":"28597500","formatted_address":"Karlstraße 77\n89073\nUlm","channel_of_trade":"COSI"},{"id":"DE-28615000","name":"Vohburger Autohaus GmbH\u0026Co. KG","lat":48.768766,"lng":11.623462,"site_brand":"aral","country_code":"DE","address":"Regensburger Straße 30","city":"Vohburg","state":null,"postcode":"85088","telephone":"+49 8457 92960","facilities":["car_wash","shop","pay_at_pump_supported","outdoor_payment_terminal","loyalty","open_saturday","open_sunday","ryd"],"products":["super_e5","super_98","e10"],"website":"https://tankstelle.aral.de/tankstelle/28615000","watchlist_id":"28615000","formatted_address":"Regensburger Straße 30\n85088\nVohburg","channel_of_trade":"DODO"},{"id":"DE-28625400","name":"Ludwig Dalacker\u0026Sohn GmbH\u0026Co. KG","lat":48.979346,"lng":9.77933,"site_brand":"aral","country_code":"DE","address":"Schönberger Straße 7-16","city":"Gaildorf","state":null,"postcode":"74405","telephone":"+49 7971 6005","facilities":["car_wash","shop","loyalty","open_saturday","open_sunday","ryd"],"products":["ultimate","ultimate_diesel","ad_blue","super_e5","e10"],"website":"https://tankstelle.aral.de/tankstelle/28625400","watchlist_id":"28625400","formatted_address":"Schönberger Straße 7-16\n74405\nGaildorf","channel_of_trade":"JOBR"},{"id":"DE-28814000","name":"Ludwig Dalacker\u0026Sohn GmbH\u0026Co. KG","lat":48.597607,"lng":10.256253,"site_brand":"aral","country_code":"DE","address":"Friedrichstraße 23","city":"Hermaringen","state":null,"postcode":"89568","telephone":"+49 7322 919572","facilities":["car_wash","shop","pay_at_pump_supported","outdoor_payment_terminal","loyalty","open_saturday","open_sunday","ryd"],"products":["super_e5","super_98","e10"],"website":"https://tankstelle.aral.de/tankstelle/28814000","watchlist_id":"28814000","formatted_address":"Friedrichstraße 23\n89568\nHermaringen","channel_of_trade":"JOBR"},{"id":"DE-24032000","name":"VEWAG Verwaltungsgesellschaft mbH","lat":48.618297,"lng":13.483034,"site_brand":"aral","country_code":"DE","address":"Passauer Straße 18","city":"Salzweg","state":null,"postcode":"94121","telephone":"+49 851 42693","facilities":["car_wash","shop","pay_at_pump_supported","outdoor_payment_terminal","loyalty","open_saturday","open_sunday","ryd"],"products":["super_e5","super_98","e10"],"website":"https://tankstelle.aral.de/tankstelle/24032000","watchlist_id":"24032000","formatted_address":"Passauer Straße 18\n94121\nSalzweg","channel_of_trade":"JOBR"},{"id":"DE-28526300","name":"Monika Zdzienicki","lat":48.096381,"lng":11.564114,"site_brand":"aral","country_code":"DE","address":"Grünwalder Straße 175 C","city":"München","state":null,"postcode":"81545","telephone":"+49 89 64270493","facilities":["open_24_hours","car_wash","jet_wash","super_wash","recup","rewe_to_go","shop","bistro","too_good_to_go","pay_at_pump_supported","outdoor_payment_terminal","loyalty","special_car_wash","vda","open_saturday","open_sunday","ryd"],"products":["ultimate","ultimate_diesel","super_e5","e10"],"website":"https://tankstelle.aral.de/tankstelle/28526300","watchlist_id":"28526300","formatted_address":"Grünwalder Straße 175 C\n81545\nMünchen","channel_of_trade":"COSI"},{"id":"DE-28543800","name":"VEWAG Verwaltungsgesellschaft mbH","lat":48.049402,"lng":11.965836,"site_brand":"aral","country_code":"DE","address":"Münchener Straße 37","city":"Grafing","state":null,"postcode":"85567","telephone":"+49 8092 1822","facilities":["shop","pay_at_pump_supported","outdoor_payment_terminal","loyalty","open_saturday","open_sunday","ryd"],"products":["lpg","super_e5","super_98","e10"],"website":"https://tankstelle.aral.de/tankstelle/28543800","watchlist_id":"28543800","formatted_address":"Münchener Straße 37\n85567\nGrafing","channel_of_trade":"JOBR"},{"id":"DE-28518500","name":"Wolfgang Tulach","lat":48.12389,"lng":11.564831,"site_brand":"aral","country_code":"DE","address":"Kapuzinerstraße 46","city":"München","state":null,"postcode":"80469","telephone":"+49 89 761224","facilities":["open_24_hours","car_wash","jet_wash","super_wash","recup","rewe_to_go","shop","bistro","too_good_to_go","pay_at_pump_supported","outdoor_payment_terminal","loyalty","special_car_wash","vda","open_saturday","open_sunday","ryd"],"products":["ultimate","ultimate_diesel","super_e5","e10"],"website":"https://tankstelle.aral.de/tankstelle/28518500","watchlist_id":"28518500","formatted_address":"Kapuzinerstraße 46\n80469\nMünchen","channel_of_trade":"COSI"},{"id":"DE-28503500","name":"Martin Biebl","lat":48.966408,"lng":13.118874,"site_brand":"aral","country_code":"DE","address":"Ruselstraße 37","city":"Regen","state":null,"postcode":"94209","telephone":"+49 9921 2431","facilities":["car_wash","recup","rewe_to_go","shop","bistro","too_good_to_go","pay_at_pump_supported","outdoor_payment_terminal","loyalty","open_saturday","open_sunday","ryd"],"products":["ultimate","ultimate_diesel","lpg","super_e5","e10"],"website":"https://tankstelle.aral.de/tankstelle/28503500","watchlist_id":"28503500","formatted_address":"Ruselstraße 37\n94209\nRegen","channel_of_trade":"COSI"},{"id":"DE-28495200","name":"Autohaus Krammer GmbH","lat":48.780168,"lng":13.05283,"site_brand":"aral","country_code":"DE","address":"Deggendorfer Straße 48","city":"Hengersberg","state":null,"postcode":"94491","telephone":"+49 9901 93470","facilities":["car_wash","shop","loyalty","open_saturday","open_sunday","ryd"],"products":["super_e5","super_98","e10"],"website":"https://tankstelle.aral.de/tankstelle/28495200","watchlist_id":"28495200","formatted_address":"Deggendorfer Straße 48\n94491\nHengersberg","channel_of_trade":"DODO"},{"id":"DE-28609300","name":"Roman Felker","lat":48.835113,"lng":12.958976,"site_brand":"aral","country_code":"DE","address":"Angermuehle 8","city":"Deggendorf","state":null,"postcode":"94469","telephone":"+49 991 38300112","facilities":["car_wash","shop","pay_at_pump_supported","outdoor_payment_terminal","loyalty","open_saturday","open_sunday","ryd"],"products":["ultimate","ultimate_diesel","lpg","super_e5","e10"],"website":"https://tankstelle.aral.de/tankstelle/28609300","watchlist_id":"28609300","formatted_address":"Angermuehle 8\n94469\nDeggendorf","channel_of_trade":"DODO"},{"id":"DE-19135300","name":"Bavaria Petrol GmbH\u0026Co. KG","lat":47.863983,"lng":11.795796,"site_brand":"aral","country_code":"DE","address":"Münchener Straße 32","city":"Weyarn","state":null,"postcode":"83629","telephone":"+49 8020 904680","facilities":["open_24_hours","shop","bistro","pay_at_pump_supported","outdoor_payment_terminal","loyalty","open_saturday","open_sunday","ryd"],"products":["lpg","ad_blue","super_e5","super_98","e10"],"website":"https://tankstelle.aral.de/tankstelle/19135300","watchlist_id":"19135300","formatted_address":"Münchener Straße 32\n83629\nWeyarn","channel_of_trade":"JOBR"},{"id":"DE-28643900","name":"Laura Dzalbs","lat":48.12715,"lng":11.522233,"site_brand":"aral","country_code":"DE","address":"Garmischer Straße 138","city":"München","state":null,"postcode":"80686","telephone":"+49 89 57868298","facilities":["open_24_hours","car_wash","car_wash_plant","jet_wash","super_wash","electric_charging","recup","rewe_to_go","shop","bistro","too_good_to_go","pay_at_pump_supported","outdoor_payment_terminal","loyalty","special_car_wash","open_saturday","open_sunday","ryd"],"products":["ultimate","ultimate_diesel","natural_gas","lpg","ad_blue","super_e5","e10","truck_diesel","electric_charging"],"website":"https://tankstelle.aral.de/tankstelle/28643900","watchlist_id":"28643900","formatted_address":"Garmischer Straße 138\n80686\nMünchen","channel_of_trade":"COSI"},{"id":"DE-28640200","name":"Daniel Kegreiss","lat":48.386472,"lng":10.035743,"site_brand":"aral","country_code":"DE","address":"Otto-Renner-Straße 1","city":"Neu-Ulm","state":null,"postcode":"89231","telephone":"+49 731 7253429","facilities":["open_24_hours","car_wash","jet_wash","super_wash","electric_charging","recup","rewe_to_go","shop","bistro","too_good_to_go","pay_at_pump_supported","outdoor_payment_terminal","loyalty","special_car_wash","vda","open_saturday","open_sunday","ryd"],"products":["ultimate","ultimate_diesel","lpg","ad_blue","super_e5","e10","truck_diesel","hvo","electric_charging"],"website":"https://tankstelle.aral.de/tankstelle/28640200","watchlist_id":"28640200","formatted_address":"Otto-Renner-Straße 1\n89231\nNeu-Ulm","channel_of_trade":"COSI"},{"id":"DE-28628300","name":"Christian Zirzlmeier","lat":48.775251,"lng":11.459352,"site_brand":"aral","country_code":"DE","address":"Schollstraße 2","city":"Ingolstadt","state":null,"postcode":"85055","telephone":"+49 841 2294","facilities":["open_24_hours","car_wash","jet_wash","super_wash","electric_charging","recup","rewe_to_go","shop","bistro","too_good_to_go","pay_at_pump_supported","outdoor_payment_terminal","loyalty","special_car_wash","open_saturday","open_sunday","ryd"],"products":["natural_gas","ad_blue","super_e5","e10","truck_diesel","electric_charging"],"website":"https://tankstelle.aral.de/tankstelle/28628300","watchlist_id":"28628300","formatted_address":"Schollstraße 2\n85055\nIngolstadt","channel_of_trade":"COSI"},{"id":"DE-28506500","name":"Thomas Brandmeier","lat":48.262976,"lng":13.016449,"site_brand":"aral","country_code":"DE","address":"Muenchner Straße 50","city":"Simbach","state":null,"postcode":"84359","telephone":"+49 8571 2006","facilities":["car_wash","shop","bistro","pay_at_pump_supported","outdoor_payment_terminal","loyalty","open_saturday","open_sunday","ryd"],"products":["lpg","super_e5","super_98","e10"],"website":"https://tankstelle.aral.de/tankstelle/28506500","watchlist_id":"28506500","formatted_address":"Muenchner Straße 50\n84359\nSimbach","channel_of_trade":"DOFO"},{"id":"DE-28581600","name":"Dirk Ammann","lat":48.096917,"lng":9.791901,"site_brand":"aral","country_code":"DE","address":"Rollinstraße 2","city":"Biberach","state":null,"postcode":"88400","telephone":"+49 7351 9320","facilities":["open_24_hours","car_wash","jet_wash","super_wash","recup","rewe_to_go","shop","bistro","too_good_to_go","pay_at_pump_supported","outdoor_payment_terminal","loyalty","special_car_wash","vda","open_saturday","open_sunday","ryd"],"products":["ultimate","ultimate_diesel","super_e5","e10"],"website":"https://tankstelle.aral.de/tankstelle/28581600","watchlist_id":"28581600","formatted_address":"Rollinstraße 2\n88400\nBiberach","channel_of_trade":"COSI"},{"id":"DE-28561200","name":"Christian Roth","lat":48.802795,"lng":9.797567,"site_brand":"aral","country_code":"DE","address":"Remsstraße 10","city":"Schwäbisch Gmünd","state":null,"postcode":"73525","telephone":"+49 7171 36288","facilities":["open_24_hours","car_wash","jet_wash","super_wash","recup","rewe_to_go","shop","bistro","too_good_to_go","pay_at_pump_supported","outdoor_payment_terminal","loyalty","special_car_wash","vda","open_saturday","open_sunday","ryd"],"products":["ultimate","ultimate_diesel","super_e5","e10"],"website":"https://tankstelle.aral.de/tankstelle/28561200","watchlist_id":"28561200","formatted_address":"Remsstraße 10\n73525\nSchwäbisch Gmünd","channel_of_trade":"COSI"},{"id":"DE-15086300","name":"Ludwig Dalacker\u0026Sohn GmbH\u0026Co. KG","lat":48.832023,"lng":10.087991,"site_brand":"aral","country_code":"DE","address":"Stuttgarter Straße 97A","city":"Aalen","state":null,"postcode":"73430","telephone":"+49 7361 64525","facilities":["open_24_hours","car_wash","shop","pay_at_pump_supported","outdoor_payment_terminal","loyalty","open_saturday","open_sunday","ryd"],"products":["ultimate","ultimate_diesel","ad_blue","super_e5","e10","truck_diesel"],"website":"https://tankstelle.aral.de/tankstelle/15086300","watchlist_id":"15086300","formatted_address":"Stuttgarter Straße 97A\n73430\nAalen","channel_of_trade":"JOBR"},{"id":"DE-19127200","name":"Eduard Paßreiter","lat":48.482743,"lng":12.000579,"site_brand":"aral","country_code":"DE","address":"Gewerbepark Spörer Au 1","city":"Wang bei Moosburg","state":null,"postcode":"85368","telephone":"+49 8709 263168","facilities":["open_24_hours","car_wash","jet_wash","super_wash","electric_charging","truck_parking","recup","shop","bistro","too_good_to_go","pay_at_pump_supported","outdoor_payment_terminal","loyalty","special_car_wash","open_saturday","open_sunday","ryd"],"products":["ultimate","ultimate_diesel","ad_blue","super_e5","e10","truck_diesel","electric_charging"],"website":"https://tankstelle.aral.de/tankstelle/19127200","watchlist_id":"19127200","formatted_address":"Gewerbepark Spörer Au 1\n85368\nWang bei Moosburg","channel_of_trade":"COSI"},{"id":"DE-19126400","name":"Almir Hatic","lat":47.883913,"lng":10.248217,"site_brand":"aral","country_code":"DE","address":"Weißenbachstr. 2","city":"Bad Grönenbach","state":null,"postcode":"87730","telephone":"+49 8334 986108","facilities":["open_24_hours","car_wash","jet_wash","super_wash","truck_parking","recup","rewe_to_go","shop","bistro","too_good_to_go","pay_at_pump_supported","outdoor_payment_terminal","loyalty","special_car_wash","vda","open_saturday","open_sunday","ryd"],"products":["ultimate","ultimate_diesel","ad_blue","super_e5","e10","truck_diesel"],"website":"https://tankstelle.aral.de/tankstelle/19126400","watchlist_id":"19126400","formatted_address":"Weißenbachstr. 2\n87730\nBad Grönenbach","channel_of_trade":"COSI"},{"id":"DE-19126200","name":"Ludwig Dalacker\u0026Sohn GmbH\u0026Co. KG","lat":48.754295,"lng":10.336607,"site_brand":"aral","country_code":"DE","address":"Nördlinger Straße 18-22","city":"Neresheim","state":null,"postcode":"73450","telephone":"+49 7326 9644533","facilities":["shop","pay_at_pump_supported","outdoor_payment_terminal","loyalty","open_saturday","open_sunday","ryd"],"products":["super_e5","super_98","e10"],"website":"https://tankstelle.aral.de/tankstelle/19126200","watchlist_id":"19126200","formatted_address":"Nördlinger Straße 18-22\n73450\nNeresheim","channel_of_trade":"JOBR"},{"id":"DE-19123500","name":"Dominik Bachleitner","lat":48.31487,"lng":11.892567,"site_brand":"aral","country_code":"DE","address":"Sigwolfstraße 2","city":"Erding","state":null,"postcode":"85435","telephone":"+49 8122 902786","facilities":["open_24_hours","car_wash","jet_wash","super_wash","electric_charging","recup","cash_point","rewe_to_go","shop","bistro","too_good_to_go","pay_at_pump_supported","outdoor_payment_terminal","loyalty","special_car_wash","vda","open_saturday","open_sunday","ryd"],"products":["ultimate","ultimate_diesel","natural_gas","ad_blue","super_e5","e10","truck_diesel","electric_charging"],"website":"https://tankstelle.aral.de/tankstelle/19123500","watchlist_id":"19123500","formatted_address":"Sigwolfstraße 2\n85435\nErding","channel_of_trade":"COSI"},{"id":"DE-19122700","name":"Keno Weiß","lat":48.201777,"lng":11.586149,"site_brand":"aral","country_code":"DE","address":"Ingolstädter Str. 164-166","city":"München","state":null,"postcode":"80939","telephone":"+49 89 31699843","facilities":["open_24_hours","car_wash","car_wash_plant","jet_wash","super_wash","recup","cash_point","rewe_to_go","shop","bistro","too_good_to_go","pay_at_pump_supported","outdoor_payment_terminal","loyalty","special_car_wash","super_boxes","open_saturday","open_sunday","ryd"],"products":["ultimate","ultimate_diesel","super_e5","e10"],"website":"https://tankstelle.aral.de/tankstelle/19122700","watchlist_id":"19122700","formatted_address":"Ingolstädter Str. 164-166\n80939\nMünchen","channel_of_trade":"COSI"},{"id":"DE-15063000","name":"Tobias Dostal","lat":48.805699,"lng":9.515002,"site_brand":"aral","country_code":"DE","address":"Stuttgarter Straße 36","city":"Schorndorf","state":null,"postcode":"73614","telephone":"+49 7181 979888","facilities":["open_24_hours","car_wash","jet_wash","super_wash","recup","rewe_to_go","shop","bistro","too_good_to_go","pay_at_pump_supported","outdoor_payment_terminal","loyalty","special_car_wash","vda","open_saturday","open_sunday","ryd"],"products":["ultimate","ultimate_diesel","super_e5","e10"],"website":"https://tankstelle.aral.de/tankstelle/15063000","watchlist_id":"15063000","formatted_address":"Stuttgarter Straße 36\n73614\nSchorndorf","channel_of_trade":"COSI"},{"id":"DE-15060600","name":"Ludwig Dalacker\u0026Sohn GmbH\u0026Co. KG","lat":48.826994,"lng":9.549957,"site_brand":"aral","country_code":"DE","address":"Wieslauftalstraße 72","city":"Schorndorf","state":null,"postcode":"73614","telephone":"+49 7181 5423","facilities":["shop","pay_at_pump_supported","outdoor_payment_terminal","loyalty","open_saturday","open_sunday","ryd"],"products":["super_e5","super_98","e10"],"website":"https://tankstelle.aral.de/tankstelle/15060600","watchlist_id":"15060600","formatted_address":"Wieslauftalstraße 72\n73614\nSchorndorf","channel_of_trade":"JOBR"},{"id":"DE-15057800","name":"Thomas Kegreiß","lat":48.307509,"lng":10.152489,"site_brand":"aral","country_code":"DE","address":"Ulmer Straße 13","city":"Weißenhorn","state":null,"postcode":"89264","telephone":"+49 7309 2751","facilities":["open_24_hours","car_wash","jet_wash","super_wash","recup","rewe_to_go","shop","bistro","too_good_to_go","pay_at_pump_supported","outdoor_payment_terminal","loyalty","special_car_wash","vda","open_saturday","open_sunday","ryd"],"products":["ultimate","ultimate_diesel","ad_blue","super_e5","e10","truck_diesel"],"website":"https://tankstelle.aral.de/tankstelle/15057800","watchlist_id":"15057800","formatted_address":"Ulmer Straße 13\n89264\nWeißenhorn","channel_of_trade":"COSI"},{"id":"DE-19066000","name":"Georg Bichlberger","lat":47.860393,"lng":12.15434,"site_brand":"aral","country_code":"DE","address":"Salzburger Straße 64","city":"Stephanskirchen","state":null,"postcode":"83071","telephone":"+49 8031 71081","facilities":["car_wash","jet_wash","super_wash","shop","bistro","pay_at_pump_supported","outdoor_payment_terminal","loyalty","special_car_wash","vda","open_saturday","open_sunday","ryd"],"products":["ultimate","ultimate_diesel","super_e5","e10"],"website":"https://tankstelle.aral.de/tankstelle/19066000","watchlist_id":"19066000","formatted_address":"Salzburger Straße 64\n83071\nStephanskirchen","channel_of_trade":"DODO"},{"id":"DE-19064500","name":"Melanie Born","lat":47.804791,"lng":12.119877,"site_brand":"aral","country_code":"DE","address":"Rosenheimer Straße 83","city":"Raubling","state":null,"postcode":"83064","telephone":"+49 8035 2766","facilities":["open_24_hours","car_wash","jet_wash","super_wash","electric_charging","recup","rewe_to_go","shop","bistro","pay_at_pump_supported","outdoor_payment_terminal","loyalty","special_car_wash","vda","open_saturday","open_sunday","ryd"],"products":["ultimate","ultimate_diesel","ad_blue","super_e5","e10","truck_diesel","electric_charging"],"website":"https://tankstelle.aral.de/tankstelle/19064500","watchlist_id":"19064500","formatted_address":"Rosenheimer Straße 83\n83064\nRaubling","channel_of_trade":"COSI"},{"id":"DE-19063900","name":"Christian Zirzlmeier","lat":48.753933,"lng":11.449887,"site_brand":"aral","country_code":"DE","address":"Manchinger Straße 76","city":"Ingolstadt","state":null,"postcode":"85053","telephone":"+49 841 68555","facilities":["car_wash","jet_wash","super_wash","recup","shop","bistro","too_good_to_go","pay_at_pump_supported","outdoor_payment_terminal","loyalty","special_car_wash","open_saturday","open_sunday","ryd"],"products":["ultimate","ultimate_diesel","super_e5","e10","truck_diesel"],"website":"https://tankstelle.aral.de/tankstelle/19063900","watchlist_id":"19063900","formatted_address":"Manchinger Straße 76\n85053\nIngolstadt","channel_of_trade":"COSI"},{"id":"DE-19061800","name":"Markus Heumann","lat":48.298179,"lng":11.625084,"site_brand":"aral","country_code":"DE","address":"Untere Hauptstraße 11","city":"Eching","state":null,"postcode":"85386","telephone":"+49 89 3192811","facilities":["open_24_hours","car_wash","jet_wash","super_wash","recup","shop","bistro","too_good_to_go","pay_at_pump_supported","outdoor_payment_terminal","loyalty","special_car_wash","open_saturday","open_sunday","ryd"],"products":["ultimate","ultimate_diesel","super_e5","e10"],"website":"https://tankstelle.aral.de/tankstelle/19061800","watchlist_id":"19061800","formatted_address":"Untere Hauptstraße 11\n85386\nEching","channel_of_trade":"COSI"},{"id":"DE-19054000","name":"Laura Dzalbs","lat":48.03891,"lng":10.864785,"site_brand":"aral","country_code":"DE","address":"Schongauer Straße 7","city":"Landsberg","state":null,"postcode":"86899","telephone":"+49 8191 2727","facilities":["open_24_hours","car_wash","jet_wash","super_wash","electric_charging","recup","cash_point","rewe_to_go","shop","bistro","too_good_to_go","pay_at_pump_supported","outdoor_payment_terminal","loyalty","special_car_wash","vda","open_saturday","open_sunday","ryd"],"products":["ultimate","ultimate_diesel","super_e5","e10","truck_diesel","electric_charging"],"website":"https://tankstelle.aral.de/tankstelle/19054000","watchlist_id":"19054000","formatted_address":"Schongauer Straße 7\n86899\nLandsberg","channel_of_trade":"COSI"},{"id":"DE-19051700","name":"Georg Mayr","lat":48.333732,"lng":10.908119,"site_brand":"aral","country_code":"DE","address":"Haunstetter Straße 139 1/2","city":"Augsburg","state":null,"postcode":"86161","telephone":"+49 821 573303","facilities":["open_24_hours","car_wash","jet_wash","super_wash","recup","cash_point","shop","bistro","pay_at_pump_supported","outdoor_payment_terminal","loyalty","special_car_wash","vda","open_saturday","open_sunday","ryd"],"products":["ultimate","ultimate_diesel","super_e5","e10"],"website":"https://tankstelle.aral.de/tankstelle/19051700","watchlist_id":"19051700","formatted_address":"Haunstetter Straße 139 1/2\n86161\nAugsburg","channel_of_trade":"DODO"},{"id":"DE-19047700","name":"Evelyn Geisbauer","lat":48.019726,"lng":11.709872,"site_brand":"aral","country_code":"DE","address":"Münchner Straße 10","city":"Höhenkirchen-Siegert","state":null,"postcode":"85635","telephone":"+49 8102 8284","facilities":["car_wash","shop","bistro","pay_at_pump_supported","outdoor_payment_terminal","loyalty","open_saturday","open_sunday","ryd"],"products":["ultimate","ultimate_diesel","super_e5","e10"],"website":"https://tankstelle.aral.de/tankstelle/19047700","watchlist_id":"19047700","formatted_address":"Münchner Straße 10\n85635\nHöhenkirchen-Siegert","channel_of_trade":"DODO"},{"id":"DE-19044000","name":"Alexander Spomer","lat":48.178788,"lng":11.567097,"site_brand":"aral","country_code":"DE","address":"Schleißheimer Straße 257","city":"München","state":null,"postcode":"80809","telephone":"+49 89 3508370","facilities":["car_wash","recup","rewe_to_go","shop","bistro","too_good_to_go","pay_at_pump_supported","outdoor_payment_terminal","loyalty","open_saturday","open_sunday","ryd"],"products":["super_e5","super_98","e10"],"website":"https://tankstelle.aral.de/tankstelle/19044000","watchlist_id":"19044000","formatted_address":"Schleißheimer Straße 257\n80809\nMünchen","channel_of_trade":"COSI"},{"id":"DE-19042600","name":"Ferdinand Wimmer","lat":48.423658,"lng":10.720173,"site_brand":"aral","country_code":"DE","address":"Augsburger Straße 25","city":"Adelsried","state":null,"postcode":"86477","telephone":"+49 8294 8607430","facilities":["shop","pay_at_pump_supported","outdoor_payment_terminal","loyalty","open_saturday","open_sunday","ryd"],"products":["super_e5","super_98","e10"],"website":"https://tankstelle.aral.de/tankstelle/19042600","watchlist_id":"19042600","formatted_address":"Augsburger Straße 25\n86477\nAdelsried","channel_of_trade":"DODO"},{"id":"DE-19014000","name":"Anton Niedermaier GmbH","lat":47.973675,"lng":11.653654,"site_brand":"aral","country_code":"DE","address":"Münchener Straße 13","city":"Sauerlach","state":null,"postcode":"82054","telephone":"+49 8104 9756","facilities":["car_wash","jet_wash","super_wash","shop","bistro","pay_at_pump_supported","outdoor_payment_terminal","loyalty","special_car_wash","vda","open_saturday","open_sunday","ryd"],"products":["ultimate","ultimate_diesel","super_e5","e10","truck_diesel"],"website":"https://tankstelle.aral.de/tankstelle/19014000","watchlist_id":"19014000","formatted_address":"Münchener Straße 13\n82054\nSauerlach","channel_of_trade":"DODO"},{"id":"DE-19009200","name":"Josef Fellner","lat":48.061268,"lng":12.209808,"site_brand":"aral","country_code":"DE","address":"Münchener Straße 7","city":"Wasserburg","state":null,"postcode":"83512","telephone":"+49 8071 9225808","facilities":["car_wash","jet_wash","super_wash","shop","pay_at_pump_supported","outdoor_payment_terminal","loyalty","special_car_wash","open_saturday","open_sunday","ryd"],"products":["ultimate","ultimate_diesel","super_e5","e10"],"website":"https://tankstelle.aral.de/tankstelle/19009200","watchlist_id":"19009200","formatted_address":"Münchener Straße 7\n83512\nWasserburg","channel_of_trade":"DODO"},{"id":"DE-19133500","name":"Autohaus Albert Still GmbH","lat":48.385634,"lng":10.851188,"site_brand":"aral","country_code":"DE","address":"Kobelweg 64 1/4","city":"Augsburg","state":null,"postcode":"86156","telephone":"+49 821 2401234","facilities":["car_wash","jet_wash","super_wash","shop","bistro","pay_at_pump_supported","outdoor_payment_terminal","loyalty","special_car_wash","vda","open_saturday","open_sunday","ryd"],"products":["ultimate","ultimate_diesel","natural_gas","super_e5","e10"],"website":"https://tankstelle.aral.de/tankstelle/19133500","watchlist_id":"19133500","formatted_address":"Kobelweg 64 1/4\n86156\nAugsburg","channel_of_trade":"DODO"},{"id":"DE-15121400","name":"Dirk Ammann","lat":47.775666,"lng":9.603938,"site_brand":"aral","country_code":"DE","address":"Jahnstraße 40","city":"Ravensburg","state":null,"postcode":"88214","telephone":"+49 751 3529743","facilities":["open_24_hours","car_wash","jet_wash","super_wash","recup","cash_point","rewe_to_go","shop","bistro","too_good_to_go","pay_at_pump_supported","outdoor_payment_terminal","loyalty","special_car_wash","vda","open_saturday","open_sunday","ryd"],"products":["ultimate","ultimate_diesel","super_e5","e10"],"website":"https://tankstelle.aral.de/tankstelle/15121400","watchlist_id":"15121400","formatted_address":"Jahnstraße 40\n88214\nRavensburg","channel_of_trade":"COSI"},{"id":"DE-15121300","name":"Marc-Aaron Giesen","lat":48.307089,"lng":11.203779,"site_brand":"aral","country_code":"DE","address":"Rudolf-Diesel-Str. 2.","city":"Odelzhausen","state":null,"postcode":"85235","telephone":"+49 8134 555673","facilities":["open_24_hours","car_wash","jet_wash","super_wash","recup","shop","bistro","too_good_to_go","pay_at_pump_supported","outdoor_payment_terminal","loyalty","special_car_wash","open_saturday","open_sunday","ryd"],"products":["ultimate","ultimate_diesel","ad_blue","super_e5","e10","truck_diesel"],"website":"https://tankstelle.aral.de/tankstelle/15121300","watchlist_id":"15121300","formatted_address":"Rudolf-Diesel-Str. 2.\n85235\nOdelzhausen","channel_of_trade":"COSI"},{"id":"DE-15120200","name":"Oberkochen e.K. Inh. Falko Hercher","lat":48.775676,"lng":10.098891,"site_brand":"aral","country_code":"DE","address":"Heidenheimer Straße 116","city":"Oberkochen","state":null,"postcode":"73447","telephone":"+49 7364 921880","facilities":["car_wash","shop","pay_at_pump_supported","outdoor_payment_terminal","loyalty","open_saturday","open_sunday","ryd"],"products":["super_e5","super_98","e10"],"website":"https://tankstelle.aral.de/tankstelle/15120200","watchlist_id":"15120200","formatted_address":"Heidenheimer Straße 116\n73447\nOberkochen","channel_of_trade":"DODO"},{"id":"DE-15117700","name":"Josip Travas","lat":48.690636,"lng":10.165861,"site_brand":"aral","country_code":"DE","address":"Nördlinger Straße 72","city":"Heidenheim","state":null,"postcode":"89520","telephone":"+49 7321 25375","facilities":["open_24_hours","car_wash","jet_wash","super_wash","recup","rewe_to_go","shop","bistro","too_good_to_go","pay_at_pump_supported","outdoor_payment_terminal","loyalty","special_car_wash","vda","open_saturday","open_sunday","ryd"],"products":["ultimate","ultimate_diesel","super_e5","e10","truck_diesel"],"website":"https://tankstelle.aral.de/tankstelle/15117700","watchlist_id":"15117700","formatted_address":"Nördlinger Straße 72\n89520\nHeidenheim","channel_of_trade":"COSI"},{"id":"DE-15114300","name":"Thomas Kegreiß","lat":48.358242,"lng":9.970291,"site_brand":"aral","country_code":"DE","address":"Raiffeisenstraße 1","city":"Ulm","state":null,"postcode":"89079","telephone":"+49 731 44488","facilities":["open_24_hours","car_wash","jet_wash","super_wash","electric_charging","recup","rewe_to_go","shop","bistro","too_good_to_go","pay_at_pump_supported","outdoor_payment_terminal","loyalty","special_car_wash","vda","open_saturday","open_sunday","ryd"],"products":["ultimate","ultimate_diesel","super_e5","e10","electric_charging"],"website":"https://tankstelle.aral.de/tankstelle/15114300","watchlist_id":"15114300","formatted_address":"Raiffeisenstraße 1\n89079\nUlm","channel_of_trade":"COSI"},{"id":"DE-19132900","name":"Bavaria Petrol GmbH\u0026Co. KG","lat":48.587579,"lng":13.365938,"site_brand":"aral","country_code":"DE","address":"Reichsgrafenstraße 35/A3","city":"Passau","state":null,"postcode":"94036","telephone":"+49 851 75688831","facilities":["open_24_hours","motorway_site","bistro","loyalty","open_saturday","open_sunday","ryd"],"products":["ultimate","ultimate_diesel","ad_blue","super_e5","e10","truck_diesel"],"website":"https://tankstelle.aral.de/tankstelle/19132900","watchlist_id":"19132900","formatted_address":"Reichsgrafenstraße 35/A3\n94036\nPassau","channel_of_trade":"MWJO"},{"id":"DE-19132600","name":"Alexander Spomer","lat":48.259686,"lng":11.469937,"site_brand":"aral","country_code":"DE","address":"Alte Römerstraße 50","city":"Dachau","state":null,"postcode":"85221","telephone":"+49 8131 333352","facilities":["open_24_hours","car_wash","jet_wash","super_wash","electric_charging","recup","cash_point","rewe_to_go","shop","bistro","too_good_to_go","pay_at_pump_supported","outdoor_payment_terminal","loyalty","special_car_wash","vda","open_saturday","open_sunday","ryd"],"products":["ultimate","ultimate_diesel","natural_gas","ad_blue","super_e5","e10","electric_charging"],"website":"https://tankstelle.aral.de/tankstelle/19132600","watchlist_id":"19132600","formatted_address":"Alte Römerstraße 50\n85221\nDachau","channel_of_trade":"COSI"},{"id":"DE-19132500","name":"Alexander Spomer","lat":48.177534,"lng":11.227286,"site_brand":"aral","country_code":"DE","address":"Zadarstrasse 11","city":"Fürstenfeldbruck","state":null,"postcode":"82256","telephone":"+49 8141 355400","facilities":["open_24_hours","car_wash","jet_wash","super_wash","recup","rewe_to_go","shop","bistro","too_good_to_go","pay_at_pump_supported","outdoor_payment_terminal","loyalty","special_car_wash","vda","open_saturday","open_sunday","ryd"],"products":["ultimate","ultimate_diesel","ad_blue","super_e5","e10"],"website":"https://tankstelle.aral.de/tankstelle/19132500","watchlist_id":"19132500","formatted_address":"Zadarstrasse 11\n82256\nFürstenfeldbruck","channel_of_trade":"COSI"},{"id":"DE-19131000","name":"Aral Aktiengesellschaft","lat":48.742606,"lng":11.47391,"site_brand":"aral","country_code":"DE","address":"Bunsenstr. 3","city":"Ingolstadt","state":null,"postcode":"85053","telephone":"","facilities":["open_24_hours","open_saturday","open_sunday","ryd","automatische_diesel_station"],"products":["ad_blue","truck_diesel","hvo"],"website":"https://tankstelle.aral.de/tankstelle/19131000","watchlist_id":"19131000","formatted_address":"Bunsenstr. 3\n85053\nIngolstadt","channel_of_trade":"UNCO"},{"id":"DE-19130800","name":"Marc-Aaron Giesen","lat":48.274136,"lng":10.977898,"site_brand":"aral","country_code":"DE","address":"Ohmstraße 1","city":"Mering","state":null,"postcode":"86415","telephone":"+49 8233 781227","facilities":["car_wash","jet_wash","super_wash","recup","rewe_to_go","shop","bistro","too_good_to_go","pay_at_pump_supported","outdoor_payment_terminal","loyalty","special_car_wash","vda","open_saturday","open_sunday","ryd"],"products":["ultimate","ultimate_diesel","super_e5","e10","truck_diesel"],"website":"https://tankstelle.aral.de/tankstelle/19130800","watchlist_id":"19130800","formatted_address":"Ohmstraße 1\n86415\nMering","channel_of_trade":"COSI"},{"id":"DE-19132800","name":"Wolfgang Tulach","lat":48.088772,"lng":11.150987,"site_brand":"aral","country_code":"DE","address":"Bruckerstraße 34 a","city":"Inning","state":null,"postcode":"82266","telephone":"+49 8143 997503","facilities":["car_wash","jet_wash","super_wash","electric_charging","recup","rewe_to_go","shop","bistro","too_good_to_go","pay_at_pump_supported","outdoor_payment_terminal","loyalty","special_car_wash","vda","open_saturday","open_sunday","ryd"],"products":["ultimate","ultimate_diesel","ad_blue","super_e5","e10","electric_charging"],"website":"https://tankstelle.aral.de/tankstelle/19132800","watchlist_id":"19132800","formatted_address":"Bruckerstraße 34 a\n82266\nInning","channel_of_trade":"COSI"},{"id":"DE-15060500","name":"Markus Bruchbacher","lat":48.609757,"lng":9.842613,"site_brand":"aral","country_code":"DE","address":"Schillerstraße 34","city":"Geislingen","state":null,"postcode":"73312","telephone":"+49 7331 42173","facilities":["open_24_hours","car_wash","jet_wash","super_wash","electric_charging","recup","rewe_to_go","shop","bistro","too_good_to_go","pay_at_pump_supported","outdoor_payment_terminal","loyalty","special_car_wash","vda","open_saturday","open_sunday","ryd"],"products":["ultimate","ultimate_diesel","super_e5","e10","electric_charging"],"website":"https://tankstelle.aral.de/tankstelle/15060500","watchlist_id":"15060500","formatted_address":"Schillerstraße 34\n73312\nGeislingen","channel_of_trade":"COSI"},{"id":"DE-19070200","name":"Adolf Präg GmbH\u0026Co. KG","lat":47.88454,"lng":10.636712,"site_brand":"aral","country_code":"DE","address":"Augsburger Straße 32","city":"Kaufbeuren","state":null,"postcode":"87600","telephone":"+49 8341 4859","facilities":["car_wash","jet_wash","super_wash","shop","bistro","pay_at_pump_supported","outdoor_payment_terminal","loyalty","special_car_wash","vda","open_saturday","open_sunday","ryd"],"products":["ultimate","ultimate_diesel","super_e5","e10","truck_diesel"],"website":"https://tankstelle.aral.de/tankstelle/19070200","watchlist_id":"19070200","formatted_address":"Augsburger Straße 32\n87600\nKaufbeuren","channel_of_trade":"JOBR"},{"id":"DE-19122300","name":"Martin Biebl","lat":48.525187,"lng":13.327044,"site_brand":"aral","country_code":"DE","address":"Passauer Straße 39","city":"Fürstenzell","state":null,"postcode":"94081","telephone":"+49 8502 1313","facilities":["car_wash","jet_wash","super_wash","recup","rewe_to_go","shop","bistro","too_good_to_go","pay_at_pump_supported","outdoor_payment_terminal","loyalty","special_car_wash","open_saturday","open_sunday","ryd"],"products":["ultimate","ultimate_diesel","lpg","super_e5","e10","truck_diesel"],"website":"https://tankstelle.aral.de/tankstelle/19122300","watchlist_id":"19122300","formatted_address":"Passauer Straße 39\n94081\nFürstenzell","channel_of_trade":"COSI"},{"id":"DE-19121800","name":"Christian Zirzlmeier","lat":48.988226,"lng":12.189362,"site_brand":"aral","country_code":"DE","address":"Gleiwitzer Straße 8","city":"Neutraubling","state":null,"postcode":"93073","telephone":"+49 9401 79060","facilities":["open_24_hours","car_wash","jet_wash","super_wash","electric_charging","recup","cash_point","rewe_to_go","shop","bistro","pay_at_pump_supported","outdoor_payment_terminal","loyalty","special_car_wash","vda","super_boxes","open_saturday","open_sunday","ryd"],"products":["ultimate","ultimate_diesel","super_e5","e10","electric_charging"],"website":"https://tankstelle.aral.de/tankstelle/19121800","watchlist_id":"19121800","formatted_address":"Gleiwitzer Straße 8\n93073\nNeutraubling","channel_of_trade":"COSI"},{"id":"DE-19124700","name":"Stefan Eichinger","lat":48.998172,"lng":11.377887,"site_brand":"aral","country_code":"DE","address":"Enkeringer Straße 7","city":"Kinding","state":null,"postcode":"85125","telephone":"+49 8467 805892","facilities":["car_wash","electric_charging","recup","rewe_to_go","shop","bistro","pay_at_pump_supported","outdoor_payment_terminal","loyalty","open_saturday","open_sunday","ryd"],"products":["ultimate","ultimate_diesel","super_e5","e10","truck_diesel","electric_charging"],"website":"https://tankstelle.aral.de/tankstelle/19124700","watchlist_id":"19124700","formatted_address":"Enkeringer Straße 7\n85125\nKinding","channel_of_trade":"COSI"},{"id":"DE-19119100","name":"Mathias Gruber GmbH\u0026Co. KG","lat":48.397459,"lng":11.75929,"site_brand":"aral","country_code":"DE","address":"Isarstraße 3","city":"Freising","state":null,"postcode":"85356","telephone":"+49 8161 83048","facilities":["car_wash","recup","shop","bistro","pay_at_pump_supported","outdoor_payment_terminal","loyalty","open_saturday","open_sunday","ryd"],"products":["ultimate","ultimate_diesel","lpg","super_e5","e10"],"website":"https://tankstelle.aral.de/tankstelle/19119100","watchlist_id":"19119100","formatted_address":"Isarstraße 3\n85356\nFreising","channel_of_trade":"DODO"},{"id":"DE-19114700","name":"VEWAG Verwaltungsgesellschaft mbH","lat":48.157569,"lng":11.642239,"site_brand":"aral","country_code":"DE","address":"Freischützstraße 4","city":"München","state":null,"postcode":"81927","telephone":"+49 89 935312","facilities":["car_wash","recup","shop","pay_at_pump_supported","outdoor_payment_terminal","loyalty","open_saturday","open_sunday","ryd"],"products":["super_e5","super_98","e10"],"website":"https://tankstelle.aral.de/tankstelle/19114700","watchlist_id":"19114700","formatted_address":"Freischützstraße 4\n81927\nMünchen","channel_of_trade":"JOBR"},{"id":"DE-19109900","name":"Isolde Ott","lat":47.843043,"lng":10.416526,"site_brand":"aral","country_code":"DE","address":"Kemptener Straße 23","city":"Obergünzburg","state":null,"postcode":"87634","telephone":"+49 8372 496","facilities":["shop","pay_at_pump_supported","outdoor_payment_terminal","loyalty","open_saturday","open_sunday","ryd"],"products":["super_e5","super_98","e10"],"website":"https://tankstelle.aral.de/tankstelle/19109900","watchlist_id":"19109900","formatted_address":"Kemptener Straße 23\n87634\nObergünzburg","channel_of_trade":"DODO"},{"id":"DE-19106000","name":"Almir Hatic","lat":47.733469,"lng":10.325349,"site_brand":"aral","country_code":"DE","address":"Schumacherring 110","city":"Kempten","state":null,"postcode":"87437","telephone":"+49 831 73262","facilities":["open_24_hours","car_wash","jet_wash","super_wash","recup","rewe_to_go","shop","bistro","too_good_to_go","pay_at_pump_supported","outdoor_payment_terminal","loyalty","special_car_wash","open_saturday","open_sunday","ryd"],"products":["ultimate","ultimate_diesel","natural_gas","super_e5","e10","truck_diesel"],"website":"https://tankstelle.aral.de/tankstelle/19106000","watchlist_id":"19106000","formatted_address":"Schumacherring 110\n87437\nKempten","channel_of_trade":"COSI"},{"id":"DE-19101200","name":"Petro Süd GmbH","lat":47.759593,"lng":11.573566,"site_brand":"aral","country_code":"DE","address":"Sachsenkamer Straße 23","city":"Bad Tölz","state":null,"postcode":"83646","telephone":"+49 8041 5303","facilities":["open_24_hours","car_wash","electric_charging","shop","pay_at_pump_supported","outdoor_payment_terminal","loyalty","open_saturday","open_sunday","ryd"],"products":["ultimate","ultimate_diesel","super_e5","e10","electric_charging"],"website":"https://tankstelle.aral.de/tankstelle/19101200","watchlist_id":"19101200","formatted_address":"Sachsenkamer Straße 23\n83646\nBad Tölz","channel_of_trade":"DODO"},{"id":"DE-19099000","name":"F.\u0026A . Obkirchner OHG","lat":48.138099,"lng":11.299389,"site_brand":"aral","country_code":"DE","address":"Gilchingerstraße 31","city":"Alling","state":null,"postcode":"82239","telephone":"+49 8141 71979","facilities":["car_wash","shop","pay_at_pump_supported","outdoor_payment_terminal","loyalty","open_saturday","open_sunday","ryd"],"products":["super_e5","super_98","e10"],"website":"https://tankstelle.aral.de/tankstelle/19099000","watchlist_id":"19099000","formatted_address":"Gilchingerstraße 31\n82239\nAlling","channel_of_trade":"DODO"},{"id":"DE-19097800","name":"Athina Kyrgiou","lat":48.096269,"lng":11.771361,"site_brand":"aral","country_code":"DE","address":"Wasserburger Landstraße 3","city":"Vaterstetten","state":null,"postcode":"85591","telephone":"+49 8106 307446","facilities":["open_24_hours","car_wash","jet_wash","super_wash","recup","cash_point","rewe_to_go","shop","bistro","too_good_to_go","pay_at_pump_supported","outdoor_payment_terminal","loyalty","special_car_wash","open_saturday","open_sunday","ryd"],"products":["ultimate","ultimate_diesel","lpg","super_e5","e10"],"website":"https://tankstelle.aral.de/tankstelle/19097800","watchlist_id":"19097800","formatted_address":"Wasserburger Landstraße 3\n85591\nVaterstetten","channel_of_trade":"COSI"},{"id":"DE-19050800","name":"VEWAG Verwaltungsgesellschaft mbH","lat":47.934114,"lng":12.741812,"site_brand":"aral","country_code":"DE","address":"Salzburger Straße 49","city":"Waging","state":null,"postcode":"83329","telephone":"+49 8681 4379","facilities":["car_wash","shop","pay_at_pump_supported","outdoor_payment_terminal","loyalty","open_saturday","open_sunday","ryd"],"products":["lpg","super_e5","super_98","e10","truck_diesel"],"website":"https://tankstelle.aral.de/tankstelle/19050800","watchlist_id":"19050800","formatted_address":"Salzburger Straße 49\n83329\nWaging","channel_of_trade":"JOBR"},{"id":"DE-19040200","name":"Melanie Born","lat":47.851146,"lng":12.017452,"site_brand":"aral","country_code":"DE","address":"Aiblinger Au 52 a","city":"Kolbermoor","state":null,"postcode":"83059","telephone":"+49 8061 4695","facilities":["open_24_hours","car_wash","jet_wash","super_wash","electric_charging","recup","cash_point","rewe_to_go","shop","bistro","too_good_to_go","pay_at_pump_supported","outdoor_payment_terminal","loyalty","special_car_wash","vda","open_saturday","open_sunday","ryd"],"products":["ultimate","ultimate_diesel","ad_blue","super_e5","e10","truck_diesel","electric_charging"],"website":"https://tankstelle.aral.de/tankstelle/19040200","watchlist_id":"19040200","formatted_address":"Aiblinger Au 52 a\n83059\nKolbermoor","channel_of_trade":"COSI"},{"id":"DE-19096900","name":"Sandra Weinl","lat":47.86706,"lng":12.633873,"site_brand":"aral","country_code":"DE","address":"Äussere Rosenheimerstr23","city":"Traunstein","state":null,"postcode":"83278","telephone":"+49 861 3132","facilities":["car_wash","jet_wash","super_wash","shop","pay_at_pump_supported","outdoor_payment_terminal","loyalty","special_car_wash","vda","open_saturday","open_sunday","ryd"],"products":["ultimate","ultimate_diesel","super_e5","e10"],"website":"https://tankstelle.aral.de/tankstelle/19096900","watchlist_id":"19096900","formatted_address":"Äussere Rosenheimerstr23\n83278\nTraunstein","channel_of_trade":"DODO"},{"id":"DE-19091300","name":"Monika Zdzienicki","lat":48.107742,"lng":11.579532,"site_brand":"aral","country_code":"DE","address":"Tegernseer Landstraße 174","city":"München","state":null,"postcode":"81539","telephone":"+49 89 6202810","facilities":["open_24_hours","car_wash","jet_wash","super_wash","recup","cash_point","rewe_to_go","shop","bistro","too_good_to_go","pay_at_pump_supported","outdoor_payment_terminal","loyalty","special_car_wash","vda","open_saturday","open_sunday","ryd"],"products":["ultimate","ultimate_diesel","lpg","super_e5","e10","truck_diesel"],"website":"https://tankstelle.aral.de/tankstelle/19091300","watchlist_id":"19091300","formatted_address":"Tegernseer Landstraße 174\n81539\nMünchen","channel_of_trade":"COSI"},{"id":"DE-19088400","name":"Günter Friedl","lat":48.212649,"lng":11.560139,"site_brand":"aral","country_code":"DE","address":"Dülferstraße 3","city":"München","state":null,"postcode":"80933","telephone":"+49 89 31207480","facilities":["car_wash","jet_wash","super_wash","shop","pay_at_pump_supported","outdoor_payment_terminal","loyalty","special_car_wash","open_saturday","open_sunday","ryd"],"products":["super_e5","super_98","e10"],"website":"https://tankstelle.aral.de/tankstelle/19088400","watchlist_id":"19088400","formatted_address":"Dülferstraße 3\n80933\nMünchen","channel_of_trade":"DODO"},{"id":"DE-19084600","name":"VEWAG Verwaltungsgesellschaft mbH","lat":47.849876,"lng":12.067706,"site_brand":"aral","country_code":"DE","address":"Rosenheimer Straße 30 a","city":"Kolbermoor","state":null,"postcode":"83059","telephone":"+49 8031 91354","facilities":["car_wash","shop","pay_at_pump_supported","outdoor_payment_terminal","loyalty","open_saturday","open_sunday","ryd"],"products":["super_e5","super_98","e10","truck_diesel"],"website":"https://tankstelle.aral.de/tankstelle/19084600","watchlist_id":"19084600","formatted_address":"Rosenheimer Straße 30 a\n83059\nKolbermoor","channel_of_trade":"JOBR"},{"id":"DE-19076800","name":"Markus Heumann","lat":48.177293,"lng":11.589353,"site_brand":"aral","country_code":"DE","address":"Schenkendorfstraße 15","city":"München","state":null,"postcode":"80807","telephone":"+49 89 364016","facilities":["open_24_hours","car_wash","car_wash_plant","jet_wash","super_wash","recup","cash_point","rewe_to_go","shop","bistro","too_good_to_go","pay_at_pump_supported","outdoor_payment_terminal","loyalty","special_car_wash","open_saturday","open_sunday","ryd"],"products":["ultimate","ultimate_diesel","lpg","ad_blue","super_e5","e10","truck_diesel"],"website":"https://tankstelle.aral.de/tankstelle/19076800","watchlist_id":"19076800","formatted_address":"Schenkendorfstraße 15\n80807\nMünchen","channel_of_trade":"COSI"},{"id":"DE-19075800","name":"Bellersheim Tankstellen GmbH\u0026Co.KG BAT In der Holledau","lat":48.55655,"lng":11.587913,"site_brand":"aral","country_code":"DE","address":"A9","city":"Geisenhausen","state":null,"postcode":"85301","telephone":"+49 8441 801573","facilities":["open_24_hours","motorway_site","loyalty","open_saturday","open_sunday","ryd"],"products":["ultimate","ultimate_diesel","lpg","ad_blue","super_e5","e10","truck_diesel"],"website":"https://tankstelle.aral.de/tankstelle/19075800","watchlist_id":"19075800","formatted_address":"A9\n85301\nGeisenhausen","channel_of_trade":"MWJO"},{"id":"DE-19075200","name":"Nicole Schröter","lat":48.465298,"lng":10.866053,"site_brand":"aral","country_code":"DE","address":"Donauwörther Straße 15","city":"Langweid","state":null,"postcode":"86462","telephone":"+49 821 20946773","facilities":["car_wash","jet_wash","super_wash","recup","rewe_to_go","shop","bistro","too_good_to_go","pay_at_pump_supported","outdoor_payment_terminal","loyalty","special_car_wash","open_saturday","open_sunday","ryd"],"products":["ultimate","ultimate_diesel","lpg","ad_blue","super_e5","e10","truck_diesel"],"website":"https://tankstelle.aral.de/tankstelle/19075200","watchlist_id":"19075200","formatted_address":"Donauwörther Straße 15\n86462\nLangweid","channel_of_trade":"COSI"},{"id":"DE-19071200","name":"Keno Weiß","lat":48.163555,"lng":11.537343,"site_brand":"aral","country_code":"DE","address":"Landshuter Allee 163","city":"München","state":null,"postcode":"80637","telephone":"+49 89 156225","facilities":["open_24_hours","car_wash","jet_wash","super_wash","recup","cash_point","rewe_to_go","shop","bistro","too_good_to_go","pay_at_pump_supported","outdoor_payment_terminal","loyalty","special_car_wash","open_saturday","open_sunday","ryd"],"products":["super_e5","e10"],"website":"https://tankstelle.aral.de/tankstelle/19071200","watchlist_id":"19071200","formatted_address":"Landshuter Allee 163\n80637\nMünchen","channel_of_trade":"COSI"},{"id":"DE-19067300","name":"Jasmin Fischer","lat":48.546207,"lng":12.181083,"site_brand":"aral","country_code":"DE","address":"Niedermayerstraße 54","city":"Landshut","state":null,"postcode":"84036","telephone":"+49 871 52916","facilities":["open_24_hours","car_wash","jet_wash","super_wash","recup","rewe_to_go","shop","bistro","too_good_to_go","pay_at_pump_supported","outdoor_payment_terminal","loyalty","special_car_wash","vda","open_saturday","open_sunday","ryd"],"products":["ultimate","ultimate_diesel","super_e5","e10"],"website":"https://tankstelle.aral.de/tankstelle/19067300","watchlist_id":"19067300","formatted_address":"Niedermayerstraße 54\n84036\nLandshut","channel_of_trade":"COSI"},{"id":"DE-28623800","name":"Mario Casula","lat":48.193274,"lng":11.872268,"site_brand":"aral","country_code":"DE","address":"Erdinger Straße 25","city":"Markt Schwaben","state":null,"postcode":"85570","telephone":"+49 8121 6010","facilities":["car_wash","jet_wash","super_wash","shop","bistro","pay_at_pump_supported","outdoor_payment_terminal","loyalty","special_car_wash","open_saturday","open_sunday","ryd"],"products":["super_e5","super_98","e10"],"website":"https://tankstelle.aral.de/tankstelle/28623800","watchlist_id":"28623800","formatted_address":"Erdinger Straße 25\n85570\nMarkt Schwaben","channel_of_trade":"DODO"},{"id":"DE-28640500","name":"Christian Roth","lat":48.809126,"lng":9.57053,"site_brand":"aral","country_code":"DE","address":"Schorndorfer Straße 49","city":"Urbach","state":null,"postcode":"73660","telephone":"+49 7181 981808","facilities":["car_wash","jet_wash","super_wash","recup","rewe_to_go","shop","bistro","too_good_to_go","pay_at_pump_supported","outdoor_payment_terminal","loyalty","special_car_wash","vda","open_saturday","open_sunday","ryd"],"products":["ultimate","ultimate_diesel","super_e5","e10"],"website":"https://tankstelle.aral.de/tankstelle/28640500","watchlist_id":"28640500","formatted_address":"Schorndorfer Straße 49\n73660\nUrbach","channel_of_trade":"COSI"},{"id":"DE-19058300","name":"Daniel Kegreiss","lat":47.996337,"lng":10.199143,"site_brand":"aral","country_code":"DE","address":"Münchener Straße 66","city":"Memmingen","state":null,"postcode":"87700","telephone":"+49 8331 5724","facilities":["car_wash","jet_wash","super_wash","recup","cash_point","rewe_to_go","shop","bistro","too_good_to_go","pay_at_pump_supported","outdoor_payment_terminal","loyalty","special_car_wash","open_saturday","open_sunday","ryd"],"products":["ultimate","ultimate_diesel","super_e5","e10","truck_diesel"],"website":"https://tankstelle.aral.de/tankstelle/19058300","watchlist_id":"19058300","formatted_address":"Münchener Straße 66\n87700\nMemmingen","channel_of_trade":"COSI"},{"id":"DE-28518100","name":"Bernhard Baumgartner","lat":48.157731,"lng":11.528273,"site_brand":"aral","country_code":"DE","address":"Nymphenburger Straße 205","city":"München","state":null,"postcode":"80639","telephone":"+49 89 160379","facilities":["car_wash","jet_wash","super_wash","shop","bistro","pay_at_pump_supported","outdoor_payment_terminal","loyalty","special_car_wash","vda","open_saturday","open_sunday","ryd"],"products":["super_e5","super_98","e10"],"website":"https://tankstelle.aral.de/tankstelle/28518100","watchlist_id":"28518100","formatted_address":"Nymphenburger Straße 205\n80639\nMünchen","channel_of_trade":"DODO"},{"id":"DE-28502000","name":"VEWAG Verwaltungsgesellschaft mbH","lat":48.558993,"lng":13.421607,"site_brand":"aral","country_code":"DE","address":"Neuburger Straße 141","city":"Passau","state":null,"postcode":"94036","telephone":"+49 851 53174","facilities":["car_wash","shop","pay_at_pump_supported","outdoor_payment_terminal","loyalty","open_saturday","open_sunday","ryd"],"products":["lpg","ad_blue","super_e5","super_98","e10","truck_diesel"],"website":"https://tankstelle.aral.de/tankstelle/28502000","watchlist_id":"28502000","formatted_address":"Neuburger Straße 141\n94036\nPassau","channel_of_trade":"JOBR"},{"id":"DE-19124600","name":"Michael Lichius","lat":48.389962,"lng":11.063402,"site_brand":"aral","country_code":"DE","address":"Laimeringer Straße 2","city":"Dasing","state":null,"postcode":"86453","telephone":"+49 8205 969083","facilities":["open_24_hours","car_wash","jet_wash","super_wash","electric_charging","truck_parking","recup","rewe_to_go","shop","bistro","too_good_to_go","pay_at_pump_supported","outdoor_payment_terminal","loyalty","special_car_wash","vda","open_saturday","open_sunday","ryd"],"products":["ultimate","ultimate_diesel","lpg","ad_blue","super_e5","e10","truck_diesel","hvo","electric_charging"],"website":"https://tankstelle.aral.de/tankstelle/19124600","watchlist_id":"19124600","formatted_address":"Laimeringer Straße 2\n86453\nDasing","channel_of_trade":"COSI"},{"id":"DE-19123400","name":"Tobias Resch","lat":48.091406,"lng":11.468299,"site_brand":"aral","country_code":"DE","address":"Forstenrieder Straße 26","city":"Neuried","state":null,"postcode":"82061","telephone":"+49 89 75070710","facilities":["car_wash","jet_wash","super_wash","recup","rewe_to_go","shop","bistro","too_good_to_go","pay_at_pump_supported","outdoor_payment_terminal","loyalty","special_car_wash","vda","open_saturday","open_sunday","ryd"],"products":["ultimate","ultimate_diesel","super_e5","e10"],"website":"https://tankstelle.aral.de/tankstelle/19123400","watchlist_id":"19123400","formatted_address":"Forstenrieder Straße 26\n82061\nNeuried","channel_of_trade":"COSI"},{"id":"DE-19073100","name":"Adolf Präg GmbH\u0026Co. KG","lat":48.243901,"lng":10.372405,"site_brand":"aral","country_code":"DE","address":"Augsburger Straße 42","city":"Krumbach","state":null,"postcode":"86381","telephone":"+49 8282 3059","facilities":["car_wash","shop","pay_at_pump_supported","outdoor_payment_terminal","loyalty","open_saturday","open_sunday","ryd"],"products":["ultimate","ultimate_diesel","super_e5","e10"],"website":"https://tankstelle.aral.de/tankstelle/19073100","watchlist_id":"19073100","formatted_address":"Augsburger Straße 42\n86381\nKrumbach","channel_of_trade":"JOBR"},{"id":"DE-19066300","name":"Markus Heumann","lat":48.313086,"lng":11.665198,"site_brand":"aral","country_code":"DE","address":"Grüneckerstraße 6","city":"Neufahrn","state":null,"postcode":"85375","telephone":"+49 8165 4610","facilities":["open_24_hours","car_wash","jet_wash","super_wash","recup","cash_point","rewe_to_go","shop","bistro","too_good_to_go","pay_at_pump_supported","outdoor_payment_terminal","loyalty","special_car_wash","vda","open_saturday","open_sunday","ryd"],"products":["ultimate","ultimate_diesel","super_e5","e10","truck_diesel"],"website":"https://tankstelle.aral.de/tankstelle/19066300","watchlist_id":"19066300","formatted_address":"Grüneckerstraße 6\n85375\nNeufahrn","channel_of_trade":"COSI"},{"id":"DE-28530700","name":"Nicole Schröter","lat":48.361405,"lng":10.98779,"site_brand":"aral","country_code":"DE","address":"Aichacher Straße 26","city":"Friedberg","state":null,"postcode":"86316","telephone":"+49 821 601885","facilities":["open_24_hours","car_wash","jet_wash","super_wash","recup","rewe_to_go","shop","bistro","too_good_to_go","pay_at_pump_supported","outdoor_payment_terminal","loyalty","special_car_wash","vda","open_saturday","open_sunday","ryd"],"products":["ultimate","ultimate_diesel","super_e5","e10"],"website":"https://tankstelle.aral.de/tankstelle/28530700","watchlist_id":"28530700","formatted_address":"Aichacher Straße 26\n86316\nFriedberg","channel_of_trade":"COSI"},{"id":"DE-19130100","name":"Martin Biebl","lat":48.620407,"lng":13.416174,"site_brand":"aral","country_code":"DE","address":"Am Jackinger Berg","city":"Tiefenbach","state":null,"postcode":"94113","telephone":"+49 8509 937774","facilities":["open_24_hours","car_wash","jet_wash","super_wash","recup","rewe_to_go","shop","bistro","too_good_to_go","pay_at_pump_supported","outdoor_payment_terminal","loyalty","special_car_wash","vda","open_saturday","open_sunday","ryd"],"products":["ultimate","ultimate_diesel","super_e5","e10"],"website":"https://tankstelle.aral.de/tankstelle/19130100","watchlist_id":"19130100","formatted_address":"Am Jackinger Berg\n94113\nTiefenbach","channel_of_trade":"COSI"},{"id":"DE-19130000","name":"Dominik Bachleitner","lat":48.428426,"lng":11.585441,"site_brand":"aral","country_code":"DE","address":"Schroßlacher Straße 2","city":"Allershausen","state":null,"postcode":"85391","telephone":"+49 8166 993709","facilities":["open_24_hours","car_wash","jet_wash","super_wash","electric_charging","recup","cash_point","rewe_to_go","shop","bistro","too_good_to_go","pay_at_pump_supported","outdoor_payment_terminal","loyalty","special_car_wash","vda","open_saturday","open_sunday","ryd"],"products":["ultimate","ultimate_diesel","lpg","ad_blue","super_e5","e10","electric_charging"],"website":"https://tankstelle.aral.de/tankstelle/19130000","watchlist_id":"19130000","formatted_address":"Schroßlacher Straße 2\n85391\nAllershausen","channel_of_trade":"COSI"},{"id":"DE-19126600","name":"Adolf Präg GmbH\u0026Co. KG","lat":48.720188,"lng":11.172039,"site_brand":"aral","country_code":"DE","address":"Am Südpark 2","city":"Neuburg","state":null,"postcode":"86633","telephone":"+49 8431 430346","facilities":["car_wash","car_wash_plant","cash_point","shop","bistro","pay_at_pump_supported","outdoor_payment_terminal","loyalty","open_saturday","open_sunday","ryd"],"products":["ultimate","ultimate_diesel","natural_gas","super_e5","e10","truck_diesel"],"website":"https://tankstelle.aral.de/tankstelle/19126600","watchlist_id":"19126600","formatted_address":"Am Südpark 2\n86633\nNeuburg","channel_of_trade":"JOBR"},{"id":"DE-23003800","name":"Autohaus Oelhaf GmbH","lat":47.905077,"lng":9.895639,"site_brand":"aral","country_code":"DE","address":"Leutkircher Straße 21","city":"Bad Wurzach","state":null,"postcode":"88410","telephone":"+49 7564 2364","facilities":["car_wash","jet_wash","super_wash","recup","shop","pay_at_pump_supported","outdoor_payment_terminal","loyalty","special_car_wash","vda","open_saturday","open_sunday","ryd"],"products":["super_e5","super_98","e10"],"website":"https://tankstelle.aral.de/tankstelle/23003800","watchlist_id":"23003800","formatted_address":"Leutkircher Straße 21\n88410\nBad Wurzach","channel_of_trade":"DODO"},{"id":"DE-19042500","name":"Elisabeth Kehrer","lat":47.798668,"lng":10.921203,"site_brand":"aral","country_code":"DE","address":"Schongauer Straße 19","city":"Peiting","state":null,"postcode":"86971","telephone":"+49 8861 693041","facilities":["car_wash","shop","pay_at_pump_supported","outdoor_payment_terminal","loyalty","open_saturday","open_sunday","ryd"],"products":["lpg","super_e5","super_98","e10"],"website":"https://tankstelle.aral.de/tankstelle/19042500","watchlist_id":"19042500","formatted_address":"Schongauer Straße 19\n86971\nPeiting","channel_of_trade":"DODO"},{"id":"DE-19030900","name":"Dirk Henning","lat":47.8055914,"lng":12.9573657,"site_brand":"aral","country_code":"DE","address":"An der B20 Nr.2","city":"Ainring","state":null,"postcode":"83404","telephone":"+49 8654 7725240","facilities":["car_wash","recup","rewe_to_go","shop","bistro","too_good_to_go","pay_at_pump_supported","outdoor_payment_terminal","loyalty","open_saturday","open_sunday","ryd"],"products":["ultimate","ultimate_diesel","lpg","super_e5","e10"],"website":"https://tankstelle.aral.de/tankstelle/19030900","watchlist_id":"19030900","formatted_address":"An der B20 Nr.2\n83404\nAinring","channel_of_trade":"COSI"},{"id":"DE-19087900","name":"Tobias Resch","lat":48.098463,"lng":11.518578,"site_brand":"aral","country_code":"DE","address":"Boschetsrieder Straße 127","city":"München","state":null,"postcode":"81379","telephone":"+49 89 786153","facilities":["car_wash","car_wash_plant","jet_wash","super_wash","recup","cash_point","rewe_to_go","shop","bistro","too_good_to_go","pay_at_pump_supported","outdoor_payment_terminal","loyalty","special_car_wash","super_boxes","open_saturday","open_sunday","ryd"],"products":["ultimate","ultimate_diesel","super_e5","e10"],"website":"https://tankstelle.aral.de/tankstelle/19087900","watchlist_id":"19087900","formatted_address":"Boschetsrieder Straße 127\n81379\nMünchen","channel_of_trade":"COSI"},{"id":"DE-19041200","name":"Habibe Karademir","lat":47.848767,"lng":12.127539,"site_brand":"aral","country_code":"DE","address":"Kufsteiner Straße 57","city":"Rosenheim","state":null,"postcode":"83022","telephone":"+49 8031 13256","facilities":["open_24_hours","car_wash","jet_wash","super_wash","electric_charging","recup","cash_point","rewe_to_go","shop","bistro","pay_at_pump_supported","outdoor_payment_terminal","loyalty","special_car_wash","vda","super_boxes","open_saturday","open_sunday","ryd"],"products":["ultimate","ultimate_diesel","super_e5","e10","electric_charging"],"website":"https://tankstelle.aral.de/tankstelle/19041200","watchlist_id":"19041200","formatted_address":"Kufsteiner Straße 57\n83022\nRosenheim","channel_of_trade":"COSI"},{"id":"DE-15000900","name":"Sabina Schilin","lat":48.702837,"lng":9.661701,"site_brand":"aral","country_code":"DE","address":"Hohenstaufenstraße 5","city":"Göppingen","state":null,"postcode":"73033","telephone":"+49 7161 75454","facilities":["open_24_hours","car_wash","jet_wash","super_wash","recup","rewe_to_go","shop","bistro","too_good_to_go","pay_at_pump_supported","outdoor_payment_terminal","loyalty","special_car_wash","vda","open_saturday","open_sunday","ryd"],"products":["ultimate","ultimate_diesel","super_e5","e10"],"website":"https://tankstelle.aral.de/tankstelle/15000900","watchlist_id":"15000900","formatted_address":"Hohenstaufenstraße 5\n73033\nGöppingen","channel_of_trade":"COSI"},{"id":"DE-28520600","name":"Keno Weiß","lat":48.161003,"lng":11.558504,"site_brand":"aral","country_code":"DE","address":"Schwere-Reiter-Straße 26b","city":"München","state":null,"postcode":"80797","telephone":"+49 89 188503","facilities":["open_24_hours","car_wash","jet_wash","super_wash","recup","rewe_to_go","shop","bistro","too_good_to_go","pay_at_pump_supported","outdoor_payment_terminal","loyalty","special_car_wash","vda","open_saturday","open_sunday","ryd"],"products":["super_e5","super_98","e10"],"website":"https://tankstelle.aral.de/tankstelle/28520600","watchlist_id":"28520600","formatted_address":"Schwere-Reiter-Straße 26b\n80797\nMünchen","channel_of_trade":"COSI"},{"id":"DE-19115700","name":"Birkant Bektas","lat":48.176104,"lng":11.535616,"site_brand":"aral","country_code":"DE","address":"Georg-Brauchle-Ring 27","city":"München","state":null,"postcode":"80992","telephone":"+49 89 155116","facilities":["open_24_hours","car_wash","jet_wash","super_wash","recup","cash_point","shop","bistro","pay_at_pump_supported","outdoor_payment_terminal","loyalty","special_car_wash","vda","open_saturday","open_sunday","ryd"],"products":["ultimate","ultimate_diesel","natural_gas","ad_blue","super_e5","e10"],"website":"https://tankstelle.aral.de/tankstelle/19115700","watchlist_id":"19115700","formatted_address":"Georg-Brauchle-Ring 27\n80992\nMünchen","channel_of_trade":"COSI"},{"id":"DE-19089500","name":"Fabian Achatz","lat":48.118328,"lng":11.63108,"site_brand":"aral","country_code":"DE","address":"Heinrich-Wieland-Straße 2","city":"München","state":null,"postcode":"81735","telephone":"+49 89 401320","facilities":["open_24_hours","car_wash","jet_wash","super_wash","recup","rewe_to_go","shop","bistro","too_good_to_go","pay_at_pump_supported","outdoor_payment_terminal","loyalty","special_car_wash","open_saturday","open_sunday","ryd"],"products":["ultimate","ultimate_diesel","super_e5","e10"],"website":"https://tankstelle.aral.de/tankstelle/19089500","watchlist_id":"19089500","formatted_address":"Heinrich-Wieland-Straße 2\n81735\nMünchen","channel_of_trade":"COSI"},{"id":"DE-19115500","name":"Markus Zeder","lat":48.108538,"lng":11.722106,"site_brand":"aral","country_code":"DE","address":"Münchener Straße 16","city":"Haar","state":null,"postcode":"85540","telephone":"+49 89 467300","facilities":["open_24_hours","car_wash","jet_wash","super_wash","recup","cash_point","shop","bistro","pay_at_pump_supported","outdoor_payment_terminal","loyalty","special_car_wash","vda","open_saturday","open_sunday","ryd"],"products":["ultimate","ultimate_diesel","super_e5","e10"],"website":"https://tankstelle.aral.de/tankstelle/19115500","watchlist_id":"19115500","formatted_address":"Münchener Straße 16\n85540\nHaar","channel_of_trade":"COSI"},{"id":"DE-19123200","name":"Martin Meindl","lat":47.880446,"lng":11.460822,"site_brand":"aral","country_code":"DE","address":"Elbestraße 23","city":"Geretsried","state":null,"postcode":"82538","telephone":"+49 8171 64255","facilities":["car_wash","jet_wash","super_wash","recup","rewe_to_go","shop","bistro","too_good_to_go","pay_at_pump_supported","outdoor_payment_terminal","loyalty","special_car_wash","open_saturday","open_sunday","ryd"],"products":["ultimate","ultimate_diesel","super_e5","e10"],"website":"https://tankstelle.aral.de/tankstelle/19123200","watchlist_id":"19123200","formatted_address":"Elbestraße 23\n82538\nGeretsried","channel_of_trade":"COSI"},{"id":"DE-19045400","name":"VEWAG Verwaltungsgesellschaft mbH","lat":48.067952,"lng":11.387237,"site_brand":"aral","country_code":"DE","address":"Münchener Straße 42","city":"Gauting","state":null,"postcode":"82131","telephone":"+49 89 96031470","facilities":["recup","shop","pay_at_pump_supported","outdoor_payment_terminal","loyalty","open_saturday","open_sunday","ryd"],"products":["super_e5","super_98","e10"],"website":"https://tankstelle.aral.de/tankstelle/19045400","watchlist_id":"19045400","formatted_address":"Münchener Straße 42\n82131\nGauting","channel_of_trade":"JOBR"},{"id":"DE-24014900","name":"Eduard Paßreiter","lat":48.68472,"lng":12.206087,"site_brand":"aral","country_code":"DE","address":"Landshuter Straße 20","city":"Ergoldsbach","state":null,"postcode":"84061","telephone":"+49 8771 1345","facilities":["open_24_hours","car_wash","jet_wash","super_wash","recup","shop","bistro","too_good_to_go","pay_at_pump_supported","outdoor_payment_terminal","loyalty","special_car_wash","open_saturday","open_sunday","ryd"],"products":["ultimate","ultimate_diesel","super_e5","e10","truck_diesel"],"website":"https://tankstelle.aral.de/tankstelle/24014900","watchlist_id":"24014900","formatted_address":"Landshuter Straße 20\n84061\nErgoldsbach","channel_of_trade":"COSI"},{"id":"DE-28509700","name":"Ludwig Hingerl","lat":48.368626,"lng":12.251242,"site_brand":"aral","country_code":"DE","address":"Landshuter Straße 16","city":"Velden","state":null,"postcode":"84149","telephone":"+49 8742 919288","facilities":["car_wash","recup","shop","pay_at_pump_supported","outdoor_payment_terminal","loyalty","super_boxes","open_saturday","open_sunday","ryd"],"products":["ultimate","ultimate_diesel","super_e5","e10"],"website":"https://tankstelle.aral.de/tankstelle/28509700","watchlist_id":"28509700","formatted_address":"Landshuter Straße 16\n84149\nVelden","channel_of_trade":"DODO"},{"id":"DE-19133900","name":"Werner Bartel","lat":48.309544,"lng":10.890455,"site_brand":"aral","country_code":"DE","address":"Inninger Straße 99","city":"Augsburg","state":null,"postcode":"86179","telephone":"+49 821 6084769","facilities":["open_24_hours","car_wash","jet_wash","super_wash","electric_charging","recup","cash_point","rewe_to_go","shop","bistro","too_good_to_go","pay_at_pump_supported","outdoor_payment_terminal","loyalty","special_car_wash","vda","open_saturday","open_sunday","ryd"],"products":["ultimate","ultimate_diesel","super_e5","e10","truck_diesel","electric_charging"],"website":"https://tankstelle.aral.de/tankstelle/19133900","watchlist_id":"19133900","formatted_address":"Inninger Straße 99\n86179\nAugsburg","channel_of_trade":"COSI"},{"id":"DE-15123400","name":"Josip Travas","lat":48.627676,"lng":10.18718,"site_brand":"aral","country_code":"DE","address":"Zeppelinweg 2","city":"Herbrechtingen","state":null,"postcode":"89542","telephone":"+49 7324 9833735","facilities":["open_24_hours","car_wash","jet_wash","super_wash","electric_charging","recup","rewe_to_go","shop","bistro","too_good_to_go","pay_at_pump_supported","outdoor_payment_terminal","loyalty","special_car_wash","vda","open_saturday","open_sunday","ryd"],"products":["ultimate","ultimate_diesel","ad_blue","super_e5","e10","truck_diesel","electric_charging"],"website":"https://tankstelle.aral.de/tankstelle/15123400","watchlist_id":"15123400","formatted_address":"Zeppelinweg 2\n89542\nHerbrechtingen","channel_of_trade":"COSI"},{"id":"DE-19142000","name":"Adolf Präg GmbH\u0026Co. KG","lat":48.210491,"lng":10.077365,"site_brand":"aral","country_code":"DE","address":"Illertisser Straße 40","city":"Dietenheim","state":null,"postcode":"89165","telephone":"+49 7347 7593","facilities":["pay_at_pump_supported","outdoor_payment_terminal","loyalty","open_saturday","open_sunday","ryd"],"products":["ultimate_diesel","super_e5","super_98","e10"],"website":"https://tankstelle.aral.de/tankstelle/19142000","watchlist_id":"19142000","formatted_address":"Illertisser Straße 40\n89165\nDietenheim","channel_of_trade":"JOBR"},{"id":"DE-19141900","name":"Adolf Präg GmbH\u0026Co. KG","lat":48.346277,"lng":10.905344,"site_brand":"aral","country_code":"DE","address":"Haunstetter Straße 75","city":"Augsburg","state":null,"postcode":"86161","telephone":"+49 821 32856518","facilities":["pay_at_pump_supported","outdoor_payment_terminal","loyalty","open_saturday","open_sunday","ryd"],"products":["super_e5","super_98","e10"],"website":"https://tankstelle.aral.de/tankstelle/19141900","watchlist_id":"19141900","formatted_address":"Haunstetter Straße 75\n86161\nAugsburg","channel_of_trade":"JOBR"},{"id":"DE-19141800","name":"Adolf Präg GmbH\u0026Co. KG","lat":48.175881,"lng":10.757688,"site_brand":"aral","country_code":"DE","address":"Kaufbeurer Straße 5","city":"Schwabmünchen","state":null,"postcode":"86830","telephone":"+49 8232 4773","facilities":["pay_at_pump_supported","outdoor_payment_terminal","loyalty","open_saturday","open_sunday","ryd"],"products":["ultimate","ultimate_diesel","lpg","ad_blue","super_e5","e10"],"website":"https://tankstelle.aral.de/tankstelle/19141800","watchlist_id":"19141800","formatted_address":"Kaufbeurer Straße 5\n86830\nSchwabmünchen","channel_of_trade":"JOBR"},{"id":"DE-19141700","name":"Adolf Präg GmbH\u0026Co. KG","lat":48.120366,"lng":10.462015,"site_brand":"aral","country_code":"DE","address":"Mindelheimer Straße 19","city":"Pfaffenhausen","state":null,"postcode":"87772","telephone":"+49 8265 7332333","facilities":["pay_at_pump_supported","outdoor_payment_terminal","loyalty","open_saturday","open_sunday","ryd"],"products":["super_e5","super_98","e10"],"website":"https://tankstelle.aral.de/tankstelle/19141700","watchlist_id":"19141700","formatted_address":"Mindelheimer Straße 19\n87772\nPfaffenhausen","channel_of_trade":"JOBR"},{"id":"DE-19141600","name":"Adolf Präg GmbH\u0026Co. KG","lat":48.036085,"lng":10.501371,"site_brand":"aral","country_code":"DE","address":"Nebelhornstraße 8","city":"Mindelheim","state":null,"postcode":"87719","telephone":"+49 8261 20100","facilities":["pay_at_pump_supported","outdoor_payment_terminal","loyalty","open_saturday","open_sunday","ryd"],"products":["ultimate","ultimate_diesel","lpg","ad_blue","super_e5","e10","truck_diesel"],"website":"https://tankstelle.aral.de/tankstelle/19141600","watchlist_id":"19141600","formatted_address":"Nebelhornstraße 8\n87719\nMindelheim","channel_of_trade":"JOBR"},{"id":"DE-19141500","name":"Adolf Präg GmbH\u0026Co. KG","lat":47.773577,"lng":10.603584,"site_brand":"aral","country_code":"DE","address":"Brückenstraße 6","city":"Marktoberdorf-Thalho","state":null,"postcode":"87616","telephone":"+49 8342 5352","facilities":["pay_at_pump_supported","outdoor_payment_terminal","loyalty","open_saturday","open_sunday","ryd"],"products":["ultimate_diesel","lpg","super_e5","super_98","e10","truck_diesel"],"website":"https://tankstelle.aral.de/tankstelle/19141500","watchlist_id":"19141500","formatted_address":"Brückenstraße 6\n87616\nMarktoberdorf-Thalho","channel_of_trade":"JOBR"},{"id":"DE-19141400","name":"Adolf Präg GmbH\u0026Co. KG","lat":48.198674,"lng":10.853949,"site_brand":"aral","country_code":"DE","address":"Landsberger Straße 2","city":"Graben","state":null,"postcode":"86836","telephone":"+49 8232 2230","facilities":["open_24_hours","pay_at_pump_supported","outdoor_payment_terminal","loyalty","open_saturday","open_sunday","ryd"],"products":["lpg","ad_blue","super_e5","super_98","e10","truck_diesel"],"website":"https://tankstelle.aral.de/tankstelle/19141400","watchlist_id":"19141400","formatted_address":"Landsberger Straße 2\n86836\nGraben","channel_of_trade":"JOBR"},{"id":"DE-19141300","name":"Adolf Präg GmbH\u0026Co. KG","lat":48.118098,"lng":11.442665,"site_brand":"aral","country_code":"DE","address":"Pasinger Straße 50","city":"Gräfelfing","state":null,"postcode":"82166","telephone":"+49 89 8543576","facilities":["pay_at_pump_supported","outdoor_payment_terminal","loyalty","open_saturday","open_sunday","ryd"],"products":["ultimate","ultimate_diesel","super_e5","e10","truck_diesel"],"website":"https://tankstelle.aral.de/tankstelle/19141300","watchlist_id":"19141300","formatted_address":"Pasinger Straße 50\n82166\nGräfelfing","channel_of_trade":"JOBR"},{"id":"DE-19141200","name":"Adolf Präg GmbH\u0026Co. KG","lat":48.279162,"lng":10.840743,"site_brand":"aral","country_code":"DE","address":"Schalmeistraße 2","city":"Bobingen","state":null,"postcode":"86399","telephone":"+49 8234 8771","facilities":["pay_at_pump_supported","outdoor_payment_terminal","loyalty","open_saturday","open_sunday","ryd"],"products":["ultimate","ultimate_diesel","lpg","super_e5","e10"],"website":"https://tankstelle.aral.de/tankstelle/19141200","watchlist_id":"19141200","formatted_address":"Schalmeistraße 2\n86399\nBobingen","channel_of_trade":"JOBR"},{"id":"DE-19141100","name":"Adolf Präg GmbH\u0026Co. KG","lat":48.344737,"lng":10.885279,"site_brand":"aral","country_code":"DE","address":"Edisonstraße 14 a","city":"Augsburg","state":null,"postcode":"86199","telephone":"+49 821 5998707","facilities":["open_24_hours","pay_at_pump_supported","outdoor_payment_terminal","loyalty","open_saturday","open_sunday","ryd"],"products":["ultimate","ultimate_diesel","natural_gas","lpg","super_e5","e10"],"website":"https://tankstelle.aral.de/tankstelle/19141100","watchlist_id":"19141100","formatted_address":"Edisonstraße 14 a\n86199\nAugsburg","channel_of_trade":"JOBR"},{"id":"DE-19148400","name":"VEWAG Verwaltungsgesellschaft mbH","lat":48.522353,"lng":11.543634,"site_brand":"aral","country_code":"DE","address":"Äußere Moosburger Str. 1","city":"Pfaffenhofen","state":null,"postcode":"85276","telephone":"+49 8441 499190","facilities":["car_wash","pay_at_pump_supported","outdoor_payment_terminal","loyalty","open_saturday","open_sunday","ryd"],"products":["lpg","ad_blue","super_e5","super_98","e10","truck_diesel"],"website":"https://tankstelle.aral.de/tankstelle/19148400","watchlist_id":"19148400","formatted_address":"Äußere Moosburger Str. 1\n85276\nPfaffenhofen","channel_of_trade":"JOBR"},{"id":"DE-28597300","name":"Damir Kelava","lat":48.389088,"lng":9.978195,"site_brand":"aral","country_code":"DE","address":"Illerstraße 2","city":"Ulm","state":null,"postcode":"89077","telephone":"+49 731 30306","facilities":["open_24_hours","car_wash","jet_wash","super_wash","recup","rewe_to_go","shop","bistro","too_good_to_go","pay_at_pump_supported","outdoor_payment_terminal","loyalty","special_car_wash","vda","open_saturday","open_sunday","ryd"],"products":["ultimate","ultimate_diesel","super_e5","e10"],"website":"https://tankstelle.aral.de/tankstelle/28597300","watchlist_id":"28597300","formatted_address":"Illerstraße 2\n89077\nUlm","channel_of_trade":"COSI"},{"id":"DE-19145400","name":"Autohaus Busch GmbH","lat":48.816767,"lng":11.693572,"site_brand":"aral","country_code":"DE","address":"Max-Pollin-Strasse 2","city":"Pförring","state":null,"postcode":"85104","telephone":"+49 8403 927825","facilities":["shop","pay_at_pump_supported","outdoor_payment_terminal","loyalty","open_saturday","open_sunday","ryd"],"products":["lpg","ad_blue","super_e5","super_98","e10","truck_diesel"],"website":"https://tankstelle.aral.de/tankstelle/19145400","watchlist_id":"19145400","formatted_address":"Max-Pollin-Strasse 2\n85104\nPförring","channel_of_trade":"DODO"},{"id":"DE-15123600","name":"Markus Bruchbacher","lat":48.696904,"lng":9.659792,"site_brand":"aral","country_code":"DE","address":"Jahnstraße 88","city":"Göppingen","state":null,"postcode":"73037","telephone":"+49 7161 73548","facilities":["open_24_hours","car_wash","jet_wash","super_wash","electric_charging","recup","rewe_to_go","shop","bistro","too_good_to_go","pay_at_pump_supported","outdoor_payment_terminal","loyalty","special_car_wash","vda","open_saturday","open_sunday","ryd"],"products":["ultimate","ultimate_diesel","super_e5","e10","electric_charging"],"website":"https://tankstelle.aral.de/tankstelle/15123600","watchlist_id":"15123600","formatted_address":"Jahnstraße 88\n73037\nGöppingen","channel_of_trade":"COSI"},{"id":"DE-19142600","name":"Adolf Präg GmbH\u0026Co. KG","lat":48.311829,"lng":10.157852,"site_brand":"aral","country_code":"DE","address":"Günzburger Straße 54","city":"Weißenhorn","state":null,"postcode":"89264","telephone":"+49 7309 969820","facilities":["pay_at_pump_supported","outdoor_payment_terminal","loyalty","open_saturday","open_sunday","ryd"],"products":["ultimate","ultimate_diesel","lpg","super_e5","e10","truck_diesel"],"website":"https://tankstelle.aral.de/tankstelle/19142600","watchlist_id":"19142600","formatted_address":"Günzburger Straße 54\n89264\nWeißenhorn","channel_of_trade":"JOBR"},{"id":"DE-24036900","name":"Elisabeth Ott","lat":48.872891,"lng":12.631675,"site_brand":"aral","country_code":"DE","address":"Aiterhofener Straße 215","city":"Straubing","state":null,"postcode":"94315","telephone":"+49 9421 1862815","facilities":["open_24_hours","car_wash","electric_charging","recup","cash_point","rewe_to_go","shop","bistro","too_good_to_go","pay_at_pump_supported","outdoor_payment_terminal","loyalty","vda","super_boxes","open_saturday","open_sunday","ryd"],"products":["ultimate","ultimate_diesel","lpg","ad_blue","super_e5","e10","truck_diesel","electric_charging"],"website":"https://tankstelle.aral.de/tankstelle/24036900","watchlist_id":"24036900","formatted_address":"Aiterhofener Straße 215\n94315\nStraubing","channel_of_trade":"COSI"},{"id":"DE-19140300","name":"Adolf Präg GmbH\u0026Co. KG","lat":48.355628,"lng":10.919002,"site_brand":"aral","country_code":"DE","address":"Friedberger Straße 47 1/4","city":"Augsburg","state":null,"postcode":"86161","telephone":"+49 821 551677","facilities":["open_24_hours","car_wash","car_wash_plant","shop","pay_at_pump_supported","outdoor_payment_terminal","loyalty","open_saturday","open_sunday","ryd"],"products":["super_e5","super_98","e10"],"website":"https://tankstelle.aral.de/tankstelle/19140300","watchlist_id":"19140300","formatted_address":"Friedberger Straße 47 1/4\n86161\nAugsburg","channel_of_trade":"JOBR"},{"id":"DE-19147100","name":"Jasmin Fischer","lat":48.83899,"lng":12.119167,"site_brand":"aral","country_code":"DE","address":"Dieselstraße 16","city":"Schierling","state":null,"postcode":"84069","telephone":"+49 9451 9489202","facilities":["open_24_hours","car_wash","jet_wash","super_wash","electric_charging","recup","rewe_to_go","shop","bistro","pay_at_pump_supported","outdoor_payment_terminal","loyalty","special_car_wash","open_saturday","open_sunday","ryd"],"products":["ultimate","ultimate_diesel","ad_blue","super_e5","e10","truck_diesel","electric_charging"],"website":"https://tankstelle.aral.de/tankstelle/19147100","watchlist_id":"19147100","formatted_address":"Dieselstraße 16\n84069\nSchierling","channel_of_trade":"COSI"},{"id":"DE-19140200","name":"VEWAG Verwaltungsgesellschaft mbH","lat":47.890352,"lng":12.5372,"site_brand":"aral","country_code":"DE","address":"Hauptstraße 23","city":"Chieming","state":null,"postcode":"83339","telephone":"+49 8664 927124","facilities":["pay_at_pump_supported","outdoor_payment_terminal","loyalty","open_saturday","open_sunday","ryd"],"products":["lpg","super_e5","super_98","e10","truck_diesel"],"website":"https://tankstelle.aral.de/tankstelle/19140200","watchlist_id":"19140200","formatted_address":"Hauptstraße 23\n83339\nChieming","channel_of_trade":"JOBR"},{"id":"DE-19147600","name":"Samerberg Nord oHG Autobahnraststätt","lat":47.802957,"lng":12.178136,"site_brand":"aral","country_code":"DE","address":"A8","city":"Rohrdorf","state":null,"postcode":"83101","telephone":"+49 8032 956910","facilities":["open_24_hours","motorway_site","loyalty","open_saturday","open_sunday","ryd"],"products":["super_e5","super_98","e10","truck_diesel"],"website":"https://tankstelle.aral.de/tankstelle/19147600","watchlist_id":"19147600","formatted_address":"A8\n83101\nRohrdorf","channel_of_trade":"MWAT"},{"id":"DE-19140800","name":"Adolf Präg GmbH\u0026Co. KG","lat":47.70613,"lng":10.311661,"site_brand":"aral","country_code":"DE","address":"Oberstdorfer Straße 13","city":"Kempten","state":null,"postcode":"87435","telephone":"+49 831 523530","facilities":["pay_at_pump_supported","outdoor_payment_terminal","loyalty","open_saturday","open_sunday","ryd"],"products":["ultimate","ultimate_diesel","super_e5","e10","truck_diesel"],"website":"https://tankstelle.aral.de/tankstelle/19140800","watchlist_id":"19140800","formatted_address":"Oberstdorfer Straße 13\n87435\nKempten","channel_of_trade":"JOBR"},{"id":"DE-19140600","name":"Adolf Präg GmbH\u0026Co. KG","lat":47.806843,"lng":10.296286,"site_brand":"aral","country_code":"DE","address":"Heisinger Straße 25","city":"Dietmannsried","state":null,"postcode":"87463","telephone":"+49 8374 6710","facilities":["pay_at_pump_supported","outdoor_payment_terminal","loyalty","open_saturday","open_sunday","ryd"],"products":["lpg","super_e5","super_98","e10","truck_diesel"],"website":"https://tankstelle.aral.de/tankstelle/19140600","watchlist_id":"19140600","formatted_address":"Heisinger Straße 25\n87463\nDietmannsried","channel_of_trade":"JOBR"},{"id":"DE-15126300","name":"Adolf Präg GmbH\u0026Co. KG","lat":48.878487,"lng":10.049996,"site_brand":"aral","country_code":"DE","address":"Wasseralfinger Straße 66","city":"Aalen-Fachsenfeld","state":null,"postcode":"73434","telephone":"+49 7366 922998","facilities":["pay_at_pump_supported","outdoor_payment_terminal","loyalty","open_saturday","open_sunday","ryd"],"products":["ultimate","ultimate_diesel","super_e5","e10"],"website":"https://tankstelle.aral.de/tankstelle/15126300","watchlist_id":"15126300","formatted_address":"Wasseralfinger Straße 66\n73434\nAalen-Fachsenfeld","channel_of_trade":"JOBR"},{"id":"DE-19142900","name":"Adolf Präg GmbH\u0026Co. KG","lat":48.478521,"lng":10.363052,"site_brand":"aral","country_code":"DE","address":"Günzburger Straße 23","city":"Offingen","state":null,"postcode":"89362","telephone":"+49 8224 967490","facilities":["pay_at_pump_supported","outdoor_payment_terminal","loyalty","open_saturday","open_sunday","ryd"],"products":["ultimate","ultimate_diesel","super_e5","e10"],"website":"https://tankstelle.aral.de/tankstelle/19142900","watchlist_id":"19142900","formatted_address":"Günzburger Straße 23\n89362\nOffingen","channel_of_trade":"JOBR"},{"id":"DE-19142800","name":"Adolf Präg GmbH\u0026Co. KG","lat":48.409452,"lng":10.444741,"site_brand":"aral","country_code":"DE","address":"Hauptstraße 263","city":"Jettingen-Scheppach","state":null,"postcode":"89343","telephone":"+49 8225 959090","facilities":["pay_at_pump_supported","outdoor_payment_terminal","loyalty","open_saturday","open_sunday","ryd"],"products":["ultimate","ultimate_diesel","lpg","super_e5","e10","truck_diesel"],"website":"https://tankstelle.aral.de/tankstelle/19142800","watchlist_id":"19142800","formatted_address":"Hauptstraße 263\n89343\nJettingen-Scheppach","channel_of_trade":"JOBR"},{"id":"DE-19142300","name":"Adolf Präg GmbH\u0026Co. KG","lat":48.358701,"lng":10.160148,"site_brand":"aral","country_code":"DE","address":"Lindenstraße 1","city":"Pfaffenhofen","state":null,"postcode":"89284","telephone":"+49 7302 919086","facilities":["pay_at_pump_supported","outdoor_payment_terminal","loyalty","open_saturday","open_sunday","ryd"],"products":["ultimate","ultimate_diesel","lpg","super_e5","e10","truck_diesel"],"website":"https://tankstelle.aral.de/tankstelle/19142300","watchlist_id":"19142300","formatted_address":"Lindenstraße 1\n89284\nPfaffenhofen","channel_of_trade":"JOBR"},{"id":"DE-19144700","name":"Johann Deisenhofer GmbH","lat":47.81205,"lng":9.64076,"site_brand":"aral","country_code":"DE","address":"Schussenstraße 10","city":"Weingarten","state":null,"postcode":"88250","telephone":"+49 751 45623","facilities":["loyalty","open_saturday","open_sunday","ryd"],"products":["ultimate","ultimate_diesel","ad_blue","super_e5","e10","truck_diesel"],"website":"https://tankstelle.aral.de/tankstelle/19144700","watchlist_id":"19144700","formatted_address":"Schussenstraße 10\n88250\nWeingarten","channel_of_trade":"JOBR"},{"id":"DE-19144600","name":"Johann Deisenhofer GmbH","lat":47.775632,"lng":9.770919,"site_brand":"aral","country_code":"DE","address":"Wolfegger Straße 2","city":"Vogt","state":null,"postcode":"88267","telephone":"+49 7529 912991","facilities":["loyalty","open_saturday","open_sunday","ryd"],"products":["ultimate","ultimate_diesel","lpg","ad_blue","super_e5","e10","truck_diesel"],"website":"https://tankstelle.aral.de/tankstelle/19144600","watchlist_id":"19144600","formatted_address":"Wolfegger Straße 2\n88267\nVogt","channel_of_trade":"JOBR"},{"id":"DE-19144400","name":"Johann Deisenhofer GmbH","lat":47.772072,"lng":9.67064,"site_brand":"aral","country_code":"DE","address":"Scherzachstraße 4","city":"Schlier","state":null,"postcode":"88281","telephone":"+49 7529 912202","facilities":["loyalty","open_saturday","open_sunday","ryd"],"products":["ultimate","super_e5","e10","truck_diesel"],"website":"https://tankstelle.aral.de/tankstelle/19144400","watchlist_id":"19144400","formatted_address":"Scherzachstraße 4\n88281\nSchlier","channel_of_trade":"JOBR"},{"id":"DE-19144000","name":"Christian Kreitner","lat":48.893933,"lng":12.800573,"site_brand":"aral","country_code":"DE","address":"Industriestraße 2","city":"Niederwinkling","state":null,"postcode":"94559","telephone":"+49 9962 912020","facilities":["open_24_hours","electric_charging","truck_parking","recup","cash_point","rewe_to_go","shop","bistro","too_good_to_go","pay_at_pump_supported","outdoor_payment_terminal","loyalty","open_saturday","open_sunday","ryd"],"products":["ultimate","ultimate_diesel","lpg","ad_blue","super_e5","truck_diesel","electric_charging"],"website":"https://tankstelle.aral.de/tankstelle/19144000","watchlist_id":"19144000","formatted_address":"Industriestraße 2\n94559\nNiederwinkling","channel_of_trade":"COSI"},{"id":"DE-19143900","name":"Corinna Gerlich","lat":48.625107,"lng":12.322628,"site_brand":"aral","country_code":"DE","address":"Siemensstraße 2","city":"Wörth a. d. Isar","state":null,"postcode":"84109","telephone":"+49 8702 949351","facilities":["open_24_hours","car_wash","electric_charging","recup","rewe_to_go","shop","bistro","too_good_to_go","pay_at_pump_supported","outdoor_payment_terminal","loyalty","super_boxes","open_saturday","open_sunday","ryd"],"products":["ultimate","ultimate_diesel","ad_blue","super_e5","e10","truck_diesel","electric_charging"],"website":"https://tankstelle.aral.de/tankstelle/19143900","watchlist_id":"19143900","formatted_address":"Siemensstraße 2\n84109\nWörth a. d. Isar","channel_of_trade":"COSI"},{"id":"DE-19140100","name":"VEWAG Verwaltungsgesellschaft mbH","lat":47.743358,"lng":12.154207,"site_brand":"aral","country_code":"DE","address":"Brannenburger Straße 12","city":"Nußdorf","state":null,"postcode":"83131","telephone":"+49 8034 904618","facilities":["pay_at_pump_supported","outdoor_payment_terminal","loyalty","open_saturday","open_sunday","ryd"],"products":["super_e5","super_98","e10"],"website":"https://tankstelle.aral.de/tankstelle/19140100","watchlist_id":"19140100","formatted_address":"Brannenburger Straße 12\n83131\nNußdorf","channel_of_trade":"JOBR"},{"id":"DE-19139900","name":"VEWAG Verwaltungsgesellschaft mbH","lat":47.717601,"lng":12.875201,"site_brand":"aral","country_code":"DE","address":"Berchtesgardener Straße 2","city":"Bad Reichenhall","state":null,"postcode":"83435","telephone":"+49 8651 67220","facilities":["car_wash","pay_at_pump_supported","outdoor_payment_terminal","loyalty","open_saturday","open_sunday","ryd"],"products":["lpg","super_e5","super_98","e10"],"website":"https://tankstelle.aral.de/tankstelle/19139900","watchlist_id":"19139900","formatted_address":"Berchtesgardener Straße 2\n83435\nBad Reichenhall","channel_of_trade":"JOBR"},{"id":"DE-19139800","name":"VEWAG Verwaltungsgesellschaft mbH","lat":48.087753,"lng":12.645767,"site_brand":"aral","country_code":"DE","address":"Burghausener Straße 7","city":"Kirchweidach","state":null,"postcode":"84558","telephone":"+49 8623 240","facilities":["car_wash","pay_at_pump_supported","outdoor_payment_terminal","loyalty","open_saturday","open_sunday","ryd"],"products":["super_e5","super_98","e10","truck_diesel"],"website":"https://tankstelle.aral.de/tankstelle/19139800","watchlist_id":"19139800","formatted_address":"Burghausener Straße 7\n84558\nKirchweidach","channel_of_trade":"JOBR"},{"id":"DE-19139700","name":"VEWAG Verwaltungsgesellschaft mbH","lat":47.868101,"lng":12.622201,"site_brand":"aral","country_code":"DE","address":"Chiemseestraße 50","city":"Traunstein","state":null,"postcode":"83278","telephone":"+49 861 12973","facilities":["pay_at_pump_supported","outdoor_payment_terminal","loyalty","open_saturday","open_sunday","ryd"],"products":["ad_blue","super_e5","super_98","e10"],"website":"https://tankstelle.aral.de/tankstelle/19139700","watchlist_id":"19139700","formatted_address":"Chiemseestraße 50\n83278\nTraunstein","channel_of_trade":"JOBR"},{"id":"DE-19139600","name":"VEWAG Verwaltungsgesellschaft mbH","lat":47.842901,"lng":12.970901,"site_brand":"aral","country_code":"DE","address":"Sonnenfeld 2","city":"Freilassing","state":null,"postcode":"83395","telephone":"+49 8654 7778780","facilities":["car_wash","pay_at_pump_supported","outdoor_payment_terminal","loyalty","open_saturday","open_sunday","ryd"],"products":["ad_blue","super_e5","super_98","e10","truck_diesel"],"website":"https://tankstelle.aral.de/tankstelle/19139600","watchlist_id":"19139600","formatted_address":"Sonnenfeld 2\n83395\nFreilassing","channel_of_trade":"JOBR"},{"id":"DE-19139500","name":"VEWAG Verwaltungsgesellschaft mbH","lat":47.766101,"lng":12.640801,"site_brand":"aral","country_code":"DE","address":"Hauptstraße 1","city":"Ruhpolding","state":null,"postcode":"83324","telephone":"+49 8663 419603","facilities":["car_wash","pay_at_pump_supported","outdoor_payment_terminal","loyalty","open_saturday","open_sunday","ryd"],"products":["super_e5","super_98","e10"],"website":"https://tankstelle.aral.de/tankstelle/19139500","watchlist_id":"19139500","formatted_address":"Hauptstraße 1\n83324\nRuhpolding","channel_of_trade":"JOBR"},{"id":"DE-15128800","name":"SÜDRAMOL GmbH\u0026Co. KG","lat":48.708973,"lng":9.633905,"site_brand":"aral","country_code":"DE","address":"Stuttgarter Straße 80","city":"Göppingen","state":null,"postcode":"73033","telephone":"+49 7161 922495","facilities":["open_24_hours","pay_at_pump_supported","outdoor_payment_terminal","loyalty","open_saturday","open_sunday","ryd"],"products":["lpg","super_e5","super_98","e10"],"website":"https://tankstelle.aral.de/tankstelle/15128800","watchlist_id":"15128800","formatted_address":"Stuttgarter Straße 80\n73033\nGöppingen","channel_of_trade":"JOBR"},{"id":"DE-19146000","name":"VEWAG Verwaltungsgesellschaft mbH","lat":48.14511,"lng":11.478615,"site_brand":"aral","country_code":"DE","address":"Landsberger Straße 423-425","city":"München","state":null,"postcode":"81241","telephone":"+49 89 82072936","facilities":["pay_at_pump_supported","outdoor_payment_terminal","loyalty","open_saturday","open_sunday","ryd"],"products":["lpg","super_e5","super_98","e10","truck_diesel"],"website":"https://tankstelle.aral.de/tankstelle/19146000","watchlist_id":"19146000","formatted_address":"Landsberger Straße 423-425\n81241\nMünchen","channel_of_trade":"JOBR"},{"id":"DE-19137500","name":"Adolf Präg GmbH\u0026Co. KG","lat":48.836726,"lng":10.845195,"site_brand":"aral","country_code":"DE","address":"Donauwörther Straße 63","city":"Monheim","state":null,"postcode":"86653","telephone":"+49 9091 1863","facilities":["pay_at_pump_supported","outdoor_payment_terminal","loyalty","open_saturday","open_sunday","ryd"],"products":["ultimate","ultimate_diesel","super_e5","super_98","e10","truck_diesel"],"website":"https://tankstelle.aral.de/tankstelle/19137500","watchlist_id":"19137500","formatted_address":"Donauwörther Straße 63\n86653\nMonheim","channel_of_trade":"JOBR"},{"id":"DE-19137400","name":"Adolf Präg GmbH\u0026Co. KG","lat":48.059896,"lng":9.594575,"site_brand":"aral","country_code":"DE","address":"Riedlinger Straße 67","city":"Bad Buchau","state":null,"postcode":"88422","telephone":"+49 7582 91015","facilities":["pay_at_pump_supported","outdoor_payment_terminal","loyalty","open_saturday","open_sunday","ryd"],"products":["super_e5","super_98","e10","truck_diesel"],"website":"https://tankstelle.aral.de/tankstelle/19137400","watchlist_id":"19137400","formatted_address":"Riedlinger Straße 67\n88422\nBad Buchau","channel_of_trade":"JOBR"},{"id":"DE-19137200","name":"Adolf Präg GmbH\u0026Co. KG","lat":47.966321,"lng":12.591563,"site_brand":"aral","country_code":"DE","address":"Werner-von-Siemens-Straße 3","city":"Traunreut","state":null,"postcode":"83301","telephone":"+49 8669 2368","facilities":["pay_at_pump_supported","outdoor_payment_terminal","loyalty","open_saturday","open_sunday","ryd"],"products":["super_e5","super_98","e10"],"website":"https://tankstelle.aral.de/tankstelle/19137200","watchlist_id":"19137200","formatted_address":"Werner-von-Siemens-Straße 3\n83301\nTraunreut","channel_of_trade":"JOBR"},{"id":"DE-19137100","name":"Adolf Präg GmbH\u0026Co. KG","lat":48.445883,"lng":10.21254,"site_brand":"aral","country_code":"DE","address":"Ulmer Straße 13","city":"Leipheim","state":null,"postcode":"89340","telephone":"+49 8221 71065","facilities":["pay_at_pump_supported","outdoor_payment_terminal","loyalty","open_saturday","open_sunday","ryd"],"products":["lpg","ad_blue","super_e5","super_98","e10","truck_diesel"],"website":"https://tankstelle.aral.de/tankstelle/19137100","watchlist_id":"19137100","formatted_address":"Ulmer Straße 13\n89340\nLeipheim","channel_of_trade":"JOBR"},{"id":"DE-19136900","name":"Adolf Präg GmbH\u0026Co. KG","lat":48.03594,"lng":10.732483,"site_brand":"aral","country_code":"DE","address":"Landsberger Straße 20","city":"Buchloe","state":null,"postcode":"86807","telephone":"+49 8241 911291","facilities":["pay_at_pump_supported","outdoor_payment_terminal","loyalty","open_saturday","open_sunday","ryd"],"products":["super_e5","super_98","e10"],"website":"https://tankstelle.aral.de/tankstelle/19136900","watchlist_id":"19136900","formatted_address":"Landsberger Straße 20\n86807\nBuchloe","channel_of_trade":"JOBR"},{"id":"DE-19136600","name":"Adolf Präg GmbH\u0026Co. KG","lat":47.991688,"lng":10.160623,"site_brand":"aral","country_code":"DE","address":"Buxheimer Straße 113","city":"Memmingen","state":null,"postcode":"87700","telephone":"+49 8331 61722","facilities":["pay_at_pump_supported","outdoor_payment_terminal","loyalty","open_saturday","open_sunday","ryd"],"products":["lpg","super_e5","super_98","e10"],"website":"https://tankstelle.aral.de/tankstelle/19136600","watchlist_id":"19136600","formatted_address":"Buxheimer Straße 113\n87700\nMemmingen","channel_of_trade":"JOBR"},{"id":"DE-15125200","name":"Adolf Präg GmbH\u0026Co. KG","lat":48.713698,"lng":9.513178,"site_brand":"aral","country_code":"DE","address":"Stuttgarter Straße 85","city":"Ebersbach a. d. Fils","state":null,"postcode":"73061","telephone":"+49 7163 532228","facilities":["pay_at_pump_supported","outdoor_payment_terminal","loyalty","open_saturday","open_sunday","ryd"],"products":["super_e5","super_98","e10"],"website":"https://tankstelle.aral.de/tankstelle/15125200","watchlist_id":"15125200","formatted_address":"Stuttgarter Straße 85\n73061\nEbersbach a. d. Fils","channel_of_trade":"JOBR"},{"id":"DE-19143800","name":"BK Benzin-Kontor AG","lat":48.002339,"lng":11.181872,"site_brand":"aral","country_code":"DE","address":"Seefelder Straße 28","city":"Herrsching","state":null,"postcode":"82211","telephone":"+49 8152 8861","facilities":["pay_at_pump_supported","outdoor_payment_terminal","loyalty","open_saturday","open_sunday","ryd"],"products":["ultimate","ultimate_diesel","lpg","ad_blue","super_e5","e10","truck_diesel"],"website":"https://tankstelle.aral.de/tankstelle/19143800","watchlist_id":"19143800","formatted_address":"Seefelder Straße 28\n82211\nHerrsching","channel_of_trade":"JOBR"},{"id":"DE-15126100","name":"VEWAG Verwaltungsgesellschaft mbH","lat":48.707301,"lng":9.589791,"site_brand":"aral","country_code":"DE","address":"Ulmer Straße 39","city":"Uhingen","state":null,"postcode":"73066","telephone":"+49 7161 9838726","facilities":["pay_at_pump_supported","outdoor_payment_terminal","loyalty","open_saturday","open_sunday","ryd"],"products":["super_e5","super_98","e10"],"website":"https://tankstelle.aral.de/tankstelle/15126100","watchlist_id":"15126100","formatted_address":"Ulmer Straße 39\n73066\nUhingen","channel_of_trade":"JOBR"},{"id":"DE-19146900","name":"VEWAG Verwaltungsgesellschaft mbH","lat":48.1379328,"lng":11.711851,"site_brand":"aral","country_code":"DE","address":"Otto-Perutz-Straße 1-3","city":"München","state":null,"postcode":"81829","telephone":"+49 89 460990620","facilities":["pay_at_pump_supported","outdoor_payment_terminal","loyalty","open_saturday","open_sunday","ryd"],"products":["ultimate","ultimate_diesel","lpg","ad_blue","super_e5","e10","truck_diesel","hvo"],"website":"https://tankstelle.aral.de/tankstelle/19146900","watchlist_id":"19146900","formatted_address":"Otto-Perutz-Straße 1-3\n81829\nMünchen","channel_of_trade":"JOBR"},{"id":"DE-19148500","name":"Diandra Leicht","lat":48.239864,"lng":12.710528,"site_brand":"aral","country_code":"DE","address":"SIMBACHER STRAßE 36","city":"NEUÖTTING","state":null,"postcode":"84524","telephone":"+49 8671 8839794","facilities":["car_wash","jet_wash","super_wash","recup","rewe_to_go","shop","bistro","too_good_to_go","pay_at_pump_supported","outdoor_payment_terminal","loyalty","special_car_wash","open_saturday","open_sunday","ryd"],"products":["ultimate","ultimate_diesel","super_e5","e10"],"website":"https://tankstelle.aral.de/tankstelle/19148500","watchlist_id":"19148500","formatted_address":"SIMBACHER STRAßE 36\n84524\nNEUÖTTING","channel_of_trade":"COSI"},{"id":"DE-19148300","name":"Ibrahim Ilhan","lat":48.575483,"lng":10.45461,"site_brand":"aral","country_code":"DE","address":"Werner-v.-Siemens-Str. 31","city":"Lauingen an der Donau","state":null,"postcode":"89415","telephone":"+49 9072 7017866","facilities":["open_24_hours","car_wash","jet_wash","super_wash","recup","rewe_to_go","shop","bistro","too_good_to_go","pay_at_pump_supported","outdoor_payment_terminal","loyalty","special_car_wash","open_saturday","open_sunday","ryd"],"products":["ultimate","ultimate_diesel","ad_blue","super_e5","e10","truck_diesel"],"website":"https://tankstelle.aral.de/tankstelle/19148300","watchlist_id":"19148300","formatted_address":"Werner-v.-Siemens-Str. 31\n89415\nLauingen an der Donau","channel_of_trade":"COSI"},{"id":"DE-19149300","name":"Aral Aktiengesellschaft","lat":48.64772,"lng":12.453454,"site_brand":"aral","country_code":"DE","address":"Industriestraße","city":"Dingolfing","state":null,"postcode":"84130","telephone":"","facilities":["open_24_hours","open_saturday","open_sunday","ryd","automatische_diesel_station"],"products":["ad_blue","truck_diesel"],"website":"https://tankstelle.aral.de/tankstelle/19149300","watchlist_id":"19149300","formatted_address":"Industriestraße\n84130\nDingolfing","channel_of_trade":"UNCO"},{"id":"DE-19149800","name":"Q1 Energie AG","lat":48.123857,"lng":10.112559,"site_brand":"aral","country_code":"DE","address":"A7","city":"Dettingen an der Iller","state":null,"postcode":"88451","telephone":"+49 7354 576","facilities":["open_24_hours","motorway_site","loyalty","open_saturday","open_sunday","ryd"],"products":["ultimate","ultimate_diesel","ad_blue","super_e5","e10","truck_diesel"],"website":"https://tankstelle.aral.de/tankstelle/19149800","watchlist_id":"19149800","formatted_address":"A7\n88451\nDettingen an der Iller","channel_of_trade":"MWJO"},{"id":"DE-15131100","name":"Tankhof Christoph Schmid GmbH","lat":48.436443,"lng":9.970989,"site_brand":"aral","country_code":"DE","address":"Junginger Straße 11","city":"Ulm","state":null,"postcode":"89081","telephone":"+49 731 9609671","facilities":["pay_at_pump_supported","outdoor_payment_terminal","loyalty","open_saturday","open_sunday","ryd"],"products":["super_e5","super_98","e10"],"website":"https://tankstelle.aral.de/tankstelle/15131100","watchlist_id":"15131100","formatted_address":"Junginger Straße 11\n89081\nUlm","channel_of_trade":"DODO"},{"id":"DE-19149000","name":"Bavaria Petrol GmbH\u0026Co. KG","lat":48.072033,"lng":11.652264,"site_brand":"aral","country_code":"DE","address":"An der Westumgehung 1","city":"Ottobrunn","state":null,"postcode":"85521","telephone":"+49 89 62749631","facilities":["pay_at_pump_supported","outdoor_payment_terminal","loyalty","open_saturday","open_sunday","ryd"],"products":["ultimate","ultimate_diesel","lpg","ad_blue","super_e5","e10"],"website":"https://tankstelle.aral.de/tankstelle/19149000","watchlist_id":"19149000","formatted_address":"An der Westumgehung 1\n85521\nOttobrunn","channel_of_trade":"JOBR"},{"id":"DE-19148900","name":"BK Benzin-Kontor AG","lat":48.241777,"lng":12.519261,"site_brand":"aral","country_code":"DE","address":"Innstraße 16","city":"Mühldorf","state":null,"postcode":"84453","telephone":"+49 8631 9866933","facilities":["pay_at_pump_supported","outdoor_payment_terminal","loyalty","open_saturday","open_sunday","ryd"],"products":["ultimate","ultimate_diesel","ad_blue","super_e5","e10","truck_diesel"],"website":"https://tankstelle.aral.de/tankstelle/19148900","watchlist_id":"19148900","formatted_address":"Innstraße 16\n84453\nMühldorf","channel_of_trade":"JOBR"},{"id":"DE-19149400","name":"Kevin Schaal","lat":48.442223,"lng":10.874033,"site_brand":"aral","country_code":"DE","address":"Henleinstraße 35","city":"Gersthofen","state":null,"postcode":"86368","telephone":"+49 821 42092000","facilities":["outdoor_payment_terminal","loyalty","open_saturday","open_sunday","ryd"],"products":["ultimate","ultimate_diesel","lpg","ad_blue","super_e5","e10","truck_diesel"],"website":"https://tankstelle.aral.de/tankstelle/19149400","watchlist_id":"19149400","formatted_address":"Henleinstraße 35\n86368\nGersthofen","channel_of_trade":"DODO"},{"id":"DE-3EF146","name":"REWE","lat":48.5242,"lng":13.3188182,"site_brand":"aral_pulse","country_code":"DE","address":"Doktorweg 1","city":"Fürstenzell","state":null,"postcode":"94081","telephone":"","facilities":["open_24_hours","electric_charging","open_saturday","open_sunday"],"products":["electric_charging"],"website":"https://tankstelle.aral.de/tankstelle/3EF146","watchlist_id":null,"formatted_address":"Doktorweg 1\n94081\nFürstenzell","channel_of_trade":"EVDE"},{"id":"DE-3EF241","name":"REWE","lat":47.8615423,"lng":9.5908637,"site_brand":"aral_pulse","country_code":"DE","address":"Bauhofstr. 2","city":"Fronreute","state":null,"postcode":"88273","telephone":"","facilities":["open_24_hours","electric_charging","open_saturday","open_sunday"],"products":["electric_charging"],"website":"https://tankstelle.aral.de/tankstelle/3EF241","watchlist_id":null,"formatted_address":"Bauhofstr. 2\n88273\nFronreute","channel_of_trade":"EVDE"},{"id":"DE-3EF160","name":"REWE","lat":48.97017,"lng":13.13254,"site_brand":"aral_pulse","country_code":"DE","address":"Bahnhofstr. 24","city":"Regen","state":null,"postcode":"94209","telephone":"","facilities":["open_24_hours","electric_charging","open_saturday","open_sunday"],"products":["electric_charging"],"website":"https://tankstelle.aral.de/tankstelle/3EF160","watchlist_id":null,"formatted_address":"Bahnhofstr. 24\n94209\nRegen","channel_of_trade":"EVDE"},{"id":"DE-3EF118","name":"REWE","lat":48.9711125,"lng":12.1626438,"site_brand":"aral_pulse","country_code":"DE","address":"EDEKASTRASSE 4","city":"OBERTRAUBLING","state":null,"postcode":"93083","telephone":"","facilities":["open_24_hours","electric_charging","open_saturday","open_sunday"],"products":["electric_charging"],"website":"https://tankstelle.aral.de/tankstelle/3EF118","watchlist_id":null,"formatted_address":"EDEKASTRASSE 4\n93083\nOBERTRAUBLING","channel_of_trade":"EVDE"},{"id":"DE-3EF177","name":"REWE","lat":48.255643,"lng":10.8752207,"site_brand":"aral_pulse","country_code":"DE","address":"MESSERSCHMITTRING 8","city":"KÖNIGSBRUNN","state":null,"postcode":"86343","telephone":"","facilities":["open_24_hours","electric_charging","open_saturday","open_sunday"],"products":["electric_charging"],"website":"https://tankstelle.aral.de/tankstelle/3EF177","watchlist_id":null,"formatted_address":"MESSERSCHMITTRING 8\n86343\nKÖNIGSBRUNN","channel_of_trade":"EVDE"},{"id":"DE-15133300","name":"Oel-Heimburger GmbH","lat":47.87763,"lng":9.70462,"site_brand":"aral","country_code":"DE","address":"Egelseestraße 33","city":"Bad Waldsee","state":null,"postcode":"88339","telephone":"+49 7524 4644900","facilities":["loyalty","open_saturday","open_sunday","ryd"],"products":["ultimate","ultimate_diesel","ad_blue","super_e5","e10","truck_diesel"],"website":"https://tankstelle.aral.de/tankstelle/15133300","watchlist_id":"15133300","formatted_address":"Egelseestraße 33\n88339\nBad Waldsee","channel_of_trade":"JOBR"},{"id":"DE-3EF024","name":"Burger King","lat":47.764225,"lng":12.904055,"site_brand":"aral_pulse","country_code":"DE","address":"Lattenbergstraße 13","city":"Piding","state":null,"postcode":"83451","telephone":"","facilities":["open_24_hours","electric_charging","open_saturday","open_sunday"],"products":["electric_charging"],"website":"https://tankstelle.aral.de/tankstelle/3EF024","watchlist_id":null,"formatted_address":"Lattenbergstraße 13\n83451\nPiding","channel_of_trade":"EVDE"},{"id":"DE-3EF310","name":"REWE","lat":48.88401,"lng":10.17701,"site_brand":"aral_pulse","country_code":"DE","address":"Baiershofener Str 1","city":"Westhausen","state":null,"postcode":"73463","telephone":"","facilities":["open_24_hours","electric_charging","open_saturday","open_sunday"],"products":["electric_charging"],"website":"https://tankstelle.aral.de/tankstelle/3EF310","watchlist_id":null,"formatted_address":"Baiershofener Str 1\n73463\nWesthausen","channel_of_trade":"EVDE"},{"id":"DE-3EF001","name":"REWE","lat":48.74009,"lng":11.43505,"site_brand":"aral_pulse","country_code":"DE","address":"Fauststraße 3","city":"Ingolstadt","state":null,"postcode":"85051","telephone":"","facilities":["open_24_hours","electric_charging","open_saturday","open_sunday"],"products":["electric_charging"],"website":"https://tankstelle.aral.de/tankstelle/3EF001","watchlist_id":null,"formatted_address":"Fauststraße 3\n85051\nIngolstadt","channel_of_trade":"EVDE"},{"id":"DE-3EF412","name":"Ladepark","lat":48.1334532,"lng":11.5281977,"site_brand":"aral_pulse","country_code":"DE","address":"Hansastr. 19","city":"München","state":null,"postcode":"80686","telephone":"","facilities":["open_24_hours","electric_charging","open_saturday","open_sunday"],"products":["electric_charging"],"website":"https://tankstelle.aral.de/tankstelle/3EF412","watchlist_id":null,"formatted_address":"Hansastr. 19\n80686\nMünchen","channel_of_trade":"EVDE"},{"id":"DE-3EF147","name":"REWE","lat":48.0981303,"lng":9.76864945,"site_brand":"aral_pulse","country_code":"DE","address":"Riedlinger Str. 20","city":"Biberach an der Riß","state":null,"postcode":"88400","telephone":"","facilities":["open_24_hours","electric_charging","open_saturday","open_sunday"],"products":["electric_charging"],"website":"https://tankstelle.aral.de/tankstelle/3EF147","watchlist_id":null,"formatted_address":"Riedlinger Str. 20\n88400\nBiberach an der Riß","channel_of_trade":"EVDE"},{"id":"DE-19150600","name":"Autobahn Tank\u0026Rast Belieferungs","lat":48.6929,"lng":12.67337,"site_brand":"aral","country_code":"DE","address":"Hietzinger Wiesen 4","city":"Pilsting","state":null,"postcode":"94431","telephone":"+49 9953 9807970","facilities":["open_24_hours","truck_parking","pay_at_pump_supported","outdoor_payment_terminal","loyalty","open_saturday","open_sunday","ryd"],"products":["ultimate","ultimate_diesel","lpg","ad_blue","super_e5","e10","truck_diesel"],"website":"https://tankstelle.aral.de/tankstelle/19150600","watchlist_id":"19150600","formatted_address":"Hietzinger Wiesen 4\n94431\nPilsting","channel_of_trade":"JOBR"},{"id":"DE-15133700","name":"Stocker Service GmbH BAT Lonetal Ost","lat":48.5829,"lng":10.1771,"site_brand":"aral","country_code":"DE","address":"A7","city":"Giengen","state":null,"postcode":"89537","telephone":"+49 7324 96150","facilities":["open_24_hours","motorway_site","loyalty","open_saturday","open_sunday","ryd"],"products":["ultimate","ultimate_diesel","ad_blue","super_e5","e10","truck_diesel"],"website":"https://tankstelle.aral.de/tankstelle/15133700","watchlist_id":"15133700","formatted_address":"A7\n89537\nGiengen","channel_of_trade":"MWAT"},{"id":"DE-3EF086","name":"Burger King","lat":47.814415,"lng":12.367572,"site_brand":"aral_pulse","country_code":"DE","address":"Theodor-Sanne-Straße 4","city":"Bernau am Chiemsee","state":null,"postcode":"83233","telephone":"","facilities":["open_24_hours","electric_charging","open_saturday","open_sunday"],"products":["electric_charging"],"website":"https://tankstelle.aral.de/tankstelle/3EF086","watchlist_id":null,"formatted_address":"Theodor-Sanne-Straße 4\n83233\nBernau am Chiemsee","channel_of_trade":"EVDE"}],"clusters":[]}