{"locations":[{"id":"AT-350","name":"Altenmarkt im Pongau, Hauptstr. 21","lat":47.381305,"lng":13.4170064,"site_brand":"bp","country_code":"AT","address":"Obere Marktstraße 45","city":"Altenmarkt im Pongau","state":null,"postcode":"5541","telephone":"+43 6452 5660","facilities":["tobacco","car_wash","toilet","shop","accepts_routex_cards","accepts_toll_payments","reminder_service","open_saturday","open_sunday"],"products":["ad_blue_cannister","diesel_on","ultimate","ultimate_diesel","ultimate_unleaded","unleaded_95"],"website":null,"watchlist_id":null,"formatted_address":"Obere Marktstraße 45\n5541\nAltenmarkt im Pongau","channel_of_trade":null},{"id":"AT-355","name":"Angath","lat":47.517998,"lng":12.067181,"site_brand":"bp","country_code":"AT","address":"Wirtschaftsweg 4","city":"Angath","state":null,"postcode":"6321","telephone":"+43 5332 74371","facilities":["open_24_hours","tobacco","high_speed_pump","truck_parking","truck_suitable_site","disabled_facilities","toilet","wifi","motorway_site","shop","bakery_bistro","wild_bean_cafe","accepts_routex_cards","accepts_toll_payments","reminder_service","open_saturday","open_sunday"],"products":["ad_blue_cannister","ad_blue_pump","diesel_on","ultimate","ultimate_diesel","ultimate_unleaded","unleaded_95","ad_blue"],"website":null,"watchlist_id":null,"formatted_address":"Wirtschaftsweg 4\n6321\nAngath","channel_of_trade":null},{"id":"AT-373","name":"Bischofshofen, Salzburgerstr. 70","lat":47.4229426,"lng":13.2163699,"site_brand":"bp","country_code":"AT","address":"Salzburgerstraße 70","city":"Bischofshofen","state":null,"postcode":"5500","telephone":"+43 6462 2501","facilities":["tobacco","car_wash","high_speed_pump","truck_suitable_site","toilet","shop","accepts_routex_cards","accepts_toll_payments","reminder_service","open_saturday"],"products":["ad_blue_cannister","ad_blue_pump","diesel_on","red_diesel","ultimate","ultimate_diesel","ultimate_unleaded","unleaded_95","ad_blue"],"website":null,"watchlist_id":null,"formatted_address":"Salzburgerstraße 70\n5500\nBischofshofen","channel_of_trade":null},{"id":"AT-379","name":"Bregenz, Bregenzerstr. 63","lat":47.5109,"lng":9.75296,"site_brand":"bp","country_code":"AT","address":"Bregenzerstraße 63","city":"Bregenz/Lochau","state":null,"postcode":"6900","telephone":"+43 5574 43445","facilities":["open_24_hours","car_wash","high_speed_pump","truck_suitable_site","toilet","shop","wild_bean_cafe","accepts_routex_cards","accepts_toll_payments","reminder_service","open_saturday","open_sunday"],"products":["ad_blue_cannister","diesel_on","ultimate","ultimate_diesel","ultimate_unleaded","unleaded_95"],"website":null,"watchlist_id":null,"formatted_address":"Bregenzerstraße 63\n6900\nBregenz/Lochau","channel_of_trade":null},{"id":"AT-392","name":"Dornbirn, Lustenauerstr. 92","lat":47.412667,"lng":9.71457,"site_brand":"bp","country_code":"AT","address":"Lustenauerstraße 92","city":"Dornbirn","state":null,"postcode":"6850","telephone":"+43 5572 394782","facilities":["tobacco","car_wash","toilet","shop","wild_bean_cafe","accepts_routex_cards","accepts_toll_payments","reminder_service","open_saturday","open_sunday"],"products":["ad_blue_cannister","ad_blue_pump","diesel_on","ultimate","ultimate_diesel","ultimate_unleaded","unleaded_95","ad_blue"],"website":null,"watchlist_id":null,"formatted_address":"Lustenauerstraße 92\n6850\nDornbirn","channel_of_trade":null},{"id":"AT-441","name":"Gries am Brenner, Ost","lat":47.0392729,"lng":11.474931,"site_brand":"bp","country_code":"AT","address":"Ostufer","city":"Gries am Brenner","state":null,"postcode":"6156","telephone":"+43 5274 87310","facilities":["open_24_hours","tobacco","high_speed_pump","truck_parking","truck_suitable_site","toilet","wifi","motorway_site","shop","bakery_bistro","wild_bean_cafe","accepts_routex_cards","accepts_toll_payments","reminder_service","open_saturday","open_sunday"],"products":["ad_blue_cannister","ad_blue_pump","diesel_on","ultimate","ultimate_diesel","ultimate_unleaded","unleaded_95","ad_blue"],"website":null,"watchlist_id":null,"formatted_address":"Ostufer\n6156\nGries am Brenner","channel_of_trade":null},{"id":"AT-459","name":"Hall in Tirol, Pfannhausstr. 14","lat":47.2793,"lng":11.5014,"site_brand":"bp","country_code":"AT","address":"Pfannhausstraße 14","city":"Hall In Tirol","state":null,"postcode":"6060","telephone":"+43 5223 45005","facilities":["tobacco","car_wash","high_speed_pump","truck_suitable_site","toilet","accepts_routex_cards","accepts_toll_payments","reminder_service","open_saturday","open_sunday"],"products":["ad_blue_cannister","diesel_on","ultimate","ultimate_diesel","ultimate_unleaded","unleaded_95"],"website":null,"watchlist_id":null,"formatted_address":"Pfannhausstraße 14\n6060\nHall In Tirol","channel_of_trade":null},{"id":"AT-474","name":"Innsbruck/Ampass","lat":47.263278,"lng":11.453458,"site_brand":"bp","country_code":"AT","address":"A12","city":"Ampass","state":null,"postcode":"6070","telephone":"+43 512 346411","facilities":["open_24_hours","tobacco","high_speed_pump","truck_parking","truck_suitable_site","disabled_facilities","toilet","wifi","motorway_site","shop","bakery_bistro","restaurant","wild_bean_cafe","accepts_routex_cards","accepts_toll_payments","reminder_service","open_saturday","open_sunday"],"products":["ad_blue_cannister","ad_blue_pump","diesel_on","ultimate","ultimate_diesel","ultimate_unleaded","unleaded_95","ad_blue"],"website":null,"watchlist_id":null,"formatted_address":"A12\n6070\nAmpass","channel_of_trade":null},{"id":"AT-478","name":"Innsbruck, Kranebitterallee 30","lat":47.2645,"lng":11.3658,"site_brand":"bp","country_code":"AT","address":"Kranebitter Allee 30","city":"Innsbruck","state":null,"postcode":"6020","telephone":"+43 512 274514","facilities":["open_24_hours","tobacco","car_wash","high_speed_pump","truck_suitable_site","toilet","shop","bakery_bistro","wild_bean_cafe","accepts_routex_cards","accepts_toll_payments","reminder_service","open_saturday","open_sunday"],"products":["ad_blue_cannister","diesel_on","ultimate","ultimate_diesel","ultimate_unleaded","unleaded_95"],"website":null,"watchlist_id":null,"formatted_address":"Kranebitter Allee 30\n6020\nInnsbruck","channel_of_trade":null},{"id":"AT-489","name":"Kitzbuehel, St. Johannerstr. 30","lat":47.465024,"lng":12.386474,"site_brand":"bp","country_code":"AT","address":"St Johannerstraße 30","city":"Kitzbühel","state":null,"postcode":"6370","telephone":"+43 5356 64377","facilities":["tobacco","car_wash","high_speed_pump","truck_suitable_site","toilet","accepts_routex_cards","accepts_toll_payments","reminder_service","open_saturday","open_sunday"],"products":["ad_blue_cannister","diesel_on","ultimate","ultimate_diesel","ultimate_unleaded","unleaded_95"],"website":null,"watchlist_id":null,"formatted_address":"St Johannerstraße 30\n6370\nKitzbühel","channel_of_trade":null},{"id":"AT-509","name":"Kufstein, Schubertstr. 25","lat":47.5853,"lng":12.1617,"site_brand":"bp","country_code":"AT","address":"Schubertstraße 25","city":"Kufstein","state":null,"postcode":"6330","telephone":"+43 5372 62977","facilities":["tobacco","car_wash","high_speed_pump","truck_suitable_site","toilet","bakery_bistro","accepts_routex_cards","accepts_toll_payments","reminder_service","open_saturday","open_sunday"],"products":["ad_blue_cannister","diesel_on","ultimate","ultimate_diesel","ultimate_unleaded","unleaded_95"],"website":null,"watchlist_id":null,"formatted_address":"Schubertstraße 25\n6330\nKufstein","channel_of_trade":null},{"id":"AT-562","name":"Nauders/Reschenpass, Bundesstr. 279","lat":46.8512474,"lng":10.5042976,"site_brand":"bp","country_code":"AT","address":"Bundesstraße 279","city":"Nauders/Reschenpass","state":null,"postcode":"6543","telephone":"+43 5473 87268","facilities":["tobacco","high_speed_pump","truck_suitable_site","toilet","shop","accepts_routex_cards","accepts_toll_payments","reminder_service","open_saturday","open_sunday"],"products":["ad_blue_cannister","diesel_on","ultimate","ultimate_diesel","ultimate_unleaded","unleaded_95"],"website":null,"watchlist_id":null,"formatted_address":"Bundesstraße 279\n6543\nNauders/Reschenpass","channel_of_trade":null},{"id":"DE-15076300","name":"Samra Hatic","lat":47.6896,"lng":10.032856,"site_brand":"aral","country_code":"DE","address":"Lindauer Straße 50","city":"Isny","state":null,"postcode":"88316","telephone":"+49 7562 8117","facilities":["car_wash","jet_wash","super_wash","rewe_to_go","shop","bistro","pay_at_pump_supported","outdoor_payment_terminal","loyalty","special_car_wash","vda","open_saturday","open_sunday","ryd"],"products":["ultimate","ultimate_diesel","super_e5","e10"],"website":"https://tankstelle.aral.de/tankstelle/15076300","watchlist_id":"15076300","formatted_address":"Lindauer Straße 50\n88316\nIsny","channel_of_trade":"DOFO"},{"id":"AT-593","name":"Radstadt, Tauernstr. 27","lat":47.3791,"lng":13.4738,"site_brand":"bp","country_code":"AT","address":"Tauernstraße 27","city":"Radstadt","state":null,"postcode":"5550","telephone":"+43 6452 30921","facilities":["tobacco","car_wash","toilet","shop","accepts_routex_cards","accepts_toll_payments","reminder_service","open_saturday","open_sunday"],"products":["ad_blue_cannister","diesel_on","ultimate","ultimate_diesel","ultimate_unleaded","unleaded_95"],"website":null,"watchlist_id":null,"formatted_address":"Tauernstraße 27\n5550\nRadstadt","channel_of_trade":null},{"id":"AT-623","name":"Sillian, Arnbach 74","lat":46.7404073,"lng":12.3738622,"site_brand":"bp","country_code":"AT","address":"Arnbach 74","city":"Sillian","state":null,"postcode":"9920","telephone":"+43 4842 6311","facilities":["tobacco","high_speed_pump","truck_suitable_site","toilet","shop","accepts_routex_cards","accepts_toll_payments","reminder_service","open_saturday","open_sunday"],"products":["ad_blue_cannister","diesel_on","hvo","ultimate","ultimate_diesel","ultimate_unleaded","unleaded_95"],"website":null,"watchlist_id":null,"formatted_address":"Arnbach 74\n9920\nSillian","channel_of_trade":null},{"id":"AT-637","name":"St. Johann in Tirol, Salzburgerstr. 13","lat":47.5253219,"lng":12.4231262,"site_brand":"bp","country_code":"AT","address":"Salzburgerstraße","city":"St. Johann in Tirol","state":null,"postcode":"6380","telephone":"+43 5352 62439","facilities":["tobacco","car_wash","high_speed_pump","truck_suitable_site","toilet","shop","accepts_routex_cards","accepts_toll_payments","reminder_service","open_saturday","open_sunday"],"products":["ad_blue_cannister","diesel_on","ultimate","ultimate_diesel","ultimate_unleaded","unleaded_95"],"website":null,"watchlist_id":null,"formatted_address":"Salzburgerstraße\n6380\nSt. Johann in Tirol","channel_of_trade":null},{"id":"DE-19127000","name":"Almir Hatic","lat":47.607814,"lng":9.586966,"site_brand":"aral","country_code":"DE","address":"Linderhof 8","city":"Kressbronn","state":null,"postcode":"88079","telephone":"+49 7543 953347","facilities":["open_24_hours","car_wash","jet_wash","super_wash","electric_charging","recup","cash_point","rewe_to_go","shop","bistro","too_good_to_go","pay_at_pump_supported","outdoor_payment_terminal","loyalty","special_car_wash","vda","open_saturday","open_sunday","ryd"],"products":["ultimate","ultimate_diesel","lpg","ad_blue","super_e5","e10","truck_diesel","electric_charging"],"website":"https://tankstelle.aral.de/tankstelle/19127000","watchlist_id":"19127000","formatted_address":"Linderhof 8\n88079\nKressbronn","channel_of_trade":"COSI"},{"id":"AT-690","name":"Weer, Inntalautobahn Nord","lat":47.3190793,"lng":11.6556023,"site_brand":"bp","country_code":"AT","address":"Inntalautobahn","city":"Weer","state":null,"postcode":"6114","telephone":"+43 5224 68388","facilities":["open_24_hours","tobacco","high_speed_pump","truck_parking","truck_suitable_site","disabled_facilities","toilet","wifi","motorway_site","shop","bakery_bistro","restaurant","wild_bean_cafe","accepts_routex_cards","accepts_toll_payments","reminder_service","open_saturday","open_sunday"],"products":["ad_blue_cannister","ad_blue_pump","diesel_on","hvo","ultimate","ultimate_diesel","ultimate_unleaded","unleaded_95","ad_blue"],"website":null,"watchlist_id":null,"formatted_address":"Inntalautobahn\n6114\nWeer","channel_of_trade":null},{"id":"AT-713","name":"Saalbach, Glemmtaler Landesstr. 386","lat":47.3890774,"lng":12.6423411,"site_brand":"bp","country_code":"AT","address":"Glemmtaler Landesstraße 386","city":"Saalbach","state":null,"postcode":"5753","telephone":"+43 50 8300 3350","facilities":["tobacco","high_speed_pump","truck_suitable_site","toilet","accepts_routex_cards","reminder_service","open_saturday","open_sunday"],"products":["ad_blue_cannister","ad_blue_pump","diesel_on","ultimate","ultimate_diesel","ultimate_unleaded","unleaded_95","ad_blue"],"website":null,"watchlist_id":null,"formatted_address":"Glemmtaler Landesstraße 386\n5753\nSaalbach","channel_of_trade":null},{"id":"AT-3021","name":"St. Gallenkirch, Aussergant","lat":47.0202617,"lng":9.9771738,"site_brand":"bp","country_code":"AT","address":"Außergant","city":"St. Gallenkirch","state":null,"postcode":"6791","telephone":"+43 50 8300 4500","facilities":["alcohol","tobacco","high_speed_pump","truck_suitable_site","toilet","shop","accepts_routex_cards","accepts_toll_payments","reminder_service","open_saturday","open_sunday"],"products":["ad_blue_cannister","ad_blue_pump","diesel_on","ultimate","ultimate_diesel","ultimate_unleaded","unleaded_95","ad_blue"],"website":null,"watchlist_id":null,"formatted_address":"Außergant\n6791\nSt. Gallenkirch","channel_of_trade":null},{"id":"AT-3674","name":"Jochberg, Nr. 440, Dorf 48","lat":47.3758,"lng":12.419,"site_brand":"bp","country_code":"AT","address":"Dorf 48","city":"Jochberg","state":null,"postcode":"6373","telephone":"+43 5355 5297","facilities":["tobacco","high_speed_pump","truck_suitable_site","toilet","accepts_routex_cards","reminder_service","open_saturday","open_sunday"],"products":["ad_blue_cannister","diesel_on","ultimate","ultimate_diesel","unleaded_95"],"website":null,"watchlist_id":null,"formatted_address":"Dorf 48\n6373\nJochberg","channel_of_trade":null},{"id":"AT-7060","name":"Aurach, Pass Thurn Str. 17","lat":47.4185,"lng":12.4216,"site_brand":"bp","country_code":"AT","address":"Pass Thurn Straße 17","city":"Aurach","state":null,"postcode":"6371","telephone":"+43 5356 6402016","facilities":["tobacco","high_speed_pump","truck_suitable_site","toilet","accepts_routex_cards","accepts_toll_payments","reminder_service"],"products":["ad_blue_cannister","diesel_on","ultimate","ultimate_diesel","ultimate_unleaded","unleaded_95"],"website":null,"watchlist_id":null,"formatted_address":"Pass Thurn Straße 17\n6371\nAurach","channel_of_trade":null},{"id":"AT-7062","name":"Lermoos, Gries 16","lat":47.4068591,"lng":10.8691182,"site_brand":"bp","country_code":"AT","address":"Gries 16","city":"Lermoos","state":null,"postcode":"6631","telephone":"+43 5673 2197","facilities":["tobacco","high_speed_pump","truck_suitable_site","toilet","shop","accepts_routex_cards","accepts_toll_payments","reminder_service","open_saturday","open_sunday"],"products":["ad_blue_cannister","diesel_on","ultimate","ultimate_diesel","ultimate_unleaded","unleaded_95"],"website":null,"watchlist_id":null,"formatted_address":"Gries 16\n6631\nLermoos","channel_of_trade":null},{"id":"AT-7064","name":"Telfs-Sagl, Nr. 8","lat":47.317125,"lng":11.093573,"site_brand":"bp","country_code":"AT","address":"Nr.8","city":"Telfs-Sagl","state":null,"postcode":"6410","telephone":"+43 5262 62277","facilities":["high_speed_pump","truck_suitable_site","toilet","accepts_routex_cards","accepts_toll_payments","reminder_service","open_saturday","open_sunday"],"products":["ad_blue_cannister","diesel_on","ultimate","ultimate_diesel","ultimate_unleaded","unleaded_95"],"website":null,"watchlist_id":null,"formatted_address":"Nr.8\n6410\nTelfs-Sagl","channel_of_trade":null},{"id":"AT-7069","name":"Neustift, Stubaitalstr. 81","lat":47.1115,"lng":11.3096,"site_brand":"bp","country_code":"AT","address":"Stubaitalstraße 81","city":"Neustift im Stubaital","state":null,"postcode":"6167","telephone":"+43 5226 3525","facilities":["tobacco","high_speed_pump","truck_suitable_site","toilet","accepts_routex_cards","reminder_service","open_saturday","open_sunday"],"products":["ad_blue_cannister","diesel_on","ultimate","ultimate_diesel","ultimate_unleaded","unleaded_95"],"website":null,"watchlist_id":null,"formatted_address":"Stubaitalstraße 81\n6167\nNeustift im Stubaital","channel_of_trade":null},{"id":"AT-8952","name":"Maishofen, Zellerstr. 29","lat":47.3507,"lng":12.8005,"site_brand":"bp","country_code":"AT","address":"Zellerstraße 29","city":"Maishofen","state":null,"postcode":"5751","telephone":"+43 6542 68056","facilities":["tobacco","car_wash","high_speed_pump","truck_suitable_site","toilet","merkur","shop","bakery_bistro","wild_bean_cafe","accepts_routex_cards","accepts_toll_payments","reminder_service","open_saturday","open_sunday"],"products":["ad_blue_cannister","diesel_on","natural_gas","ultimate","ultimate_diesel","ultimate_unleaded","unleaded_95"],"website":null,"watchlist_id":null,"formatted_address":"Zellerstraße 29\n5751\nMaishofen","channel_of_trade":null},{"id":"AT-9832","name":"Bludenz, Montafoner Str. 29","lat":47.141829,"lng":9.833412,"site_brand":"bp","country_code":"AT","address":"Montafoner Strasse 29","city":"Bludenz","state":null,"postcode":"6700","telephone":"+43 50 8300 4550","facilities":["alcohol","tobacco","high_speed_pump","truck_suitable_site","toilet","shop","bakery_bistro","accepts_routex_cards","accepts_toll_payments","reminder_service","open_saturday","open_sunday"],"products":["ad_blue_cannister","ad_blue_pump","diesel_on","ultimate","ultimate_diesel","ultimate_unleaded","unleaded_95","ad_blue"],"website":null,"watchlist_id":null,"formatted_address":"Montafoner Strasse 29\n6700\nBludenz","channel_of_trade":null},{"id":"AT-9839","name":"Lustenau, Reichshofstr.","lat":47.4243142,"lng":9.6517039,"site_brand":"bp","country_code":"AT","address":"Reichshofstraße","city":"Lustenau","state":null,"postcode":"6890","telephone":"+43 5577 62385","facilities":["tobacco","car_wash","high_speed_pump","truck_suitable_site","toilet","accepts_routex_cards","accepts_toll_payments","reminder_service","open_saturday","open_sunday"],"products":["ad_blue_cannister","diesel_on","ultimate","ultimate_diesel","ultimate_unleaded","unleaded_95"],"website":null,"watchlist_id":null,"formatted_address":"Reichshofstraße\n6890\nLustenau","channel_of_trade":null},{"id":"AT-9849","name":"Feldkirch-Gisingen, Haemmerlestr. 99","lat":47.2411,"lng":9.59102,"site_brand":"bp","country_code":"AT","address":"Hämmerlestraße 99","city":"Feldkirch-Gisingen","state":null,"postcode":"6805","telephone":"+43 5522 73455","facilities":["tobacco","car_wash","high_speed_pump","truck_suitable_site","toilet","merkur","shop","bakery_bistro","wild_bean_cafe","accepts_routex_cards","accepts_toll_payments","reminder_service","open_saturday","open_sunday"],"products":["ad_blue_cannister","diesel_on","ultimate","ultimate_diesel","ultimate_unleaded","unleaded_95"],"website":null,"watchlist_id":null,"formatted_address":"Hämmerlestraße 99\n6805\nFeldkirch-Gisingen","channel_of_trade":null},{"id":"AT-9854","name":"Telfs, Bundesstr. 1","lat":47.307517,"lng":11.079287,"site_brand":"bp","country_code":"AT","address":"Untermarktstraße 61","city":"Telfs","state":null,"postcode":"6410","telephone":"+43 5262 62162","facilities":["tobacco","high_speed_pump","truck_suitable_site","toilet","shop","wild_bean_cafe","accepts_routex_cards","accepts_toll_payments","reminder_service","open_saturday","open_sunday"],"products":["ad_blue_cannister","diesel_on","ultimate","ultimate_diesel","ultimate_unleaded","unleaded_95"],"website":null,"watchlist_id":null,"formatted_address":"Untermarktstraße 61\n6410\nTelfs","channel_of_trade":null},{"id":"AT-9855","name":"Fuegen im Zillertal, Bundesstr. 271","lat":47.3454,"lng":11.8528,"site_brand":"bp","country_code":"AT","address":"Zillertalstraße 35","city":"Fügen","state":null,"postcode":"6263","telephone":"+43 5288 62413","facilities":["tobacco","high_speed_pump","truck_suitable_site","toilet","accepts_routex_cards","accepts_toll_payments","reminder_service","open_saturday","open_sunday"],"products":["ad_blue_cannister","diesel_on","ultimate","ultimate_diesel","ultimate_unleaded","unleaded_95"],"website":null,"watchlist_id":null,"formatted_address":"Zillertalstraße 35\n6263\nFügen","channel_of_trade":null},{"id":"AT-9859","name":"Nauders, Bundesstr. 292","lat":46.894343,"lng":10.498367,"site_brand":"bp","country_code":"AT","address":"Bundesstraße 292","city":"Nauders","state":null,"postcode":"6543","telephone":"+43 5473 87336","facilities":["tobacco","high_speed_pump","truck_suitable_site","toilet","accepts_routex_cards","accepts_toll_payments","reminder_service","open_saturday","open_sunday"],"products":["ad_blue_cannister","diesel_on","ultimate","ultimate_diesel","ultimate_unleaded","unleaded_95"],"website":null,"watchlist_id":null,"formatted_address":"Bundesstraße 292\n6543\nNauders","channel_of_trade":null},{"id":"AT-9865","name":"Fussach, Harderstr. 84","lat":47.4674,"lng":9.65825,"site_brand":"bp","country_code":"AT","address":"Harderstraße 84","city":"Fussach","state":null,"postcode":"6972","telephone":"+43 5578 75718","facilities":["tobacco","car_wash","high_speed_pump","truck_suitable_site","toilet","merkur","shop","bakery_bistro","wild_bean_cafe","accepts_routex_cards","accepts_toll_payments","reminder_service","open_saturday","open_sunday"],"products":["ad_blue_cannister","diesel_on","ultimate","ultimate_diesel","ultimate_unleaded","unleaded_95"],"website":null,"watchlist_id":null,"formatted_address":"Harderstraße 84\n6972\nFussach","channel_of_trade":null},{"id":"AT-9867","name":"Soelden, Dorfstr. 148","lat":46.9631,"lng":11.0077,"site_brand":"bp","country_code":"AT","address":"Dorfstraße 148","city":"Sölden","state":null,"postcode":"6450","telephone":"+43 5254 2466","facilities":["tobacco","car_wash","high_speed_pump","truck_suitable_site","toilet","shop","bakery_bistro","wild_bean_cafe","accepts_routex_cards","accepts_toll_payments","reminder_service","open_saturday","open_sunday"],"products":["ad_blue_cannister","diesel_on","ultimate","ultimate_diesel","ultimate_unleaded","unleaded_95"],"website":null,"watchlist_id":null,"formatted_address":"Dorfstraße 148\n6450\nSölden","channel_of_trade":null},{"id":"AT-9868","name":"Mutters, Innsbrucker Str. 24","lat":47.2302,"lng":11.3809,"site_brand":"bp","country_code":"AT","address":"Innsbrucker Straße 24","city":"Mutters","state":null,"postcode":"6162","telephone":"+43 5224 9090062","facilities":["tobacco","high_speed_pump","truck_suitable_site","toilet","accepts_routex_cards","accepts_toll_payments","reminder_service","open_saturday","open_sunday"],"products":["ad_blue_cannister","ad_blue_pump","diesel_on","lpg","ultimate","ultimate_diesel","ultimate_unleaded","unleaded_95","ad_blue"],"website":null,"watchlist_id":null,"formatted_address":"Innsbrucker Straße 24\n6162\nMutters","channel_of_trade":null},{"id":"AT-9869","name":"Moellbruecke, Moelltalstr. 33","lat":46.8367,"lng":13.3737,"site_brand":"bp","country_code":"AT","address":"Mölltalstraße 33","city":"Möllbrücke","state":null,"postcode":"9813","telephone":"+43 4769 2458","facilities":["tobacco","car_wash","high_speed_pump","truck_suitable_site","toilet","bakery_bistro","accepts_routex_cards","accepts_toll_payments","reminder_service","open_saturday","open_sunday"],"products":["ad_blue_cannister","diesel_on","ultimate","ultimate_diesel","ultimate_unleaded","unleaded_95"],"website":null,"watchlist_id":null,"formatted_address":"Mölltalstraße 33\n9813\nMöllbrücke","channel_of_trade":null},{"id":"AT-9871","name":"Goetzis, Im Buch 43","lat":47.3397706,"lng":9.6521602,"site_brand":"bp","country_code":"AT","address":"Im Buch 43","city":"Götzis","state":null,"postcode":"6840","telephone":"+43 5523 62719","facilities":["tobacco","car_wash","truck_suitable_site","toilet","shop","bakery_bistro","wild_bean_cafe","accepts_routex_cards","accepts_toll_payments","reminder_service","open_saturday","open_sunday"],"products":["ad_blue_cannister","diesel_on","ultimate","ultimate_diesel","ultimate_unleaded","unleaded_95"],"website":null,"watchlist_id":null,"formatted_address":"Im Buch 43\n6840\nGötzis","channel_of_trade":null},{"id":"AT-9875","name":"Egg im Bregenzerwald, Bundesstr.","lat":47.432516,"lng":9.895364,"site_brand":"bp","country_code":"AT","address":"Bundesstraße","city":"Egg im Bregenzerwald","state":null,"postcode":"6863","telephone":"+43 5512 2530","facilities":["tobacco","car_wash","high_speed_pump","truck_suitable_site","toilet","shop","bakery_bistro","wild_bean_cafe","accepts_routex_cards","accepts_toll_payments","reminder_service","open_saturday","open_sunday"],"products":["ad_blue_cannister","diesel_on","ultimate","ultimate_diesel","ultimate_unleaded","unleaded_95"],"website":null,"watchlist_id":null,"formatted_address":"Bundesstraße\n6863\nEgg im Bregenzerwald","channel_of_trade":null},{"id":"AT-9877","name":"Innsbruck, Amraser Seestr. 10","lat":47.2609,"lng":11.4213,"site_brand":"bp","country_code":"AT","address":"Amraser Seestraße 10","city":"Innsbruck","state":null,"postcode":"6020","telephone":"+43 50 8300 4000","facilities":["alcohol","tobacco","high_speed_pump","truck_suitable_site","toilet","accepts_routex_cards","accepts_toll_payments","reminder_service","open_saturday","open_sunday"],"products":["ad_blue_cannister","ad_blue_pump","diesel_on","ultimate","ultimate_diesel","ultimate_unleaded","unleaded_95","ad_blue"],"website":null,"watchlist_id":null,"formatted_address":"Amraser Seestraße 10\n6020\nInnsbruck","channel_of_trade":null},{"id":"DE-23029300","name":"Johann Deisenhofer GmbH","lat":47.668537,"lng":9.56114,"site_brand":"aral","country_code":"DE","address":"Tettnanger Straße 150","city":"Tettnang","state":null,"postcode":"88069","telephone":"+49 7542 4073599","facilities":["shop","pay_at_pump_supported","outdoor_payment_terminal","loyalty","open_saturday","open_sunday","ryd"],"products":["ultimate","ad_blue","super_e5","e10","truck_diesel"],"website":"https://tankstelle.aral.de/tankstelle/23029300","watchlist_id":"23029300","formatted_address":"Tettnanger Straße 150\n88069\nTettnang","channel_of_trade":"JOBR"},{"id":"AT-9883","name":"Flachau/Tauernalm","lat":47.2488361,"lng":13.4247908,"site_brand":"bp","country_code":"AT","address":"Flachauwinklstraße 182","city":"Flachau/Tauernalm","state":null,"postcode":"5542","telephone":"+43 6457 33737","facilities":["open_24_hours","tobacco","high_speed_pump","truck_parking","truck_suitable_site","toilet","wifi","motorway_site","shop","bakery_bistro","restaurant","wild_bean_cafe","accepts_routex_cards","accepts_toll_payments","reminder_service","open_saturday","open_sunday"],"products":["ad_blue_cannister","ad_blue_pump","diesel_on","hvo","ultimate","ultimate_diesel","ultimate_unleaded","unleaded_95","ad_blue"],"website":null,"watchlist_id":null,"formatted_address":"Flachauwinklstraße 182\n5542\nFlachau/Tauernalm","channel_of_trade":null},{"id":"AT-9888","name":"Ischgl, Nr. 315","lat":47.0157,"lng":10.2969,"site_brand":"bp","country_code":"AT","address":"Silvrettastraße 17","city":"Ischgl","state":null,"postcode":"6561","telephone":"+43 5444 5787","facilities":["tobacco","car_wash","high_speed_pump","truck_suitable_site","toilet","shop","bakery_bistro","wild_bean_cafe","accepts_routex_cards","accepts_toll_payments","reminder_service","open_saturday","open_sunday"],"products":["ad_blue_cannister","diesel_on","ultimate","ultimate_diesel","ultimate_unleaded","unleaded_95"],"website":null,"watchlist_id":null,"formatted_address":"Silvrettastraße 17\n6561\nIschgl","channel_of_trade":null},{"id":"AT-9890","name":"Steinach am Brenner, Erlach 138","lat":47.0953,"lng":11.4655,"site_brand":"bp","country_code":"AT","address":"Erlach 138","city":"Steinach am Brenner","state":null,"postcode":"6150","telephone":"+43 5272 2260","facilities":["tobacco","car_wash","high_speed_pump","truck_suitable_site","toilet","shop","bakery_bistro","wild_bean_cafe","accepts_routex_cards","accepts_toll_payments","reminder_service","open_saturday","open_sunday"],"products":["ad_blue_cannister","diesel_on","ultimate","ultimate_diesel","ultimate_unleaded","unleaded_95"],"website":null,"watchlist_id":null,"formatted_address":"Erlach 138\n6150\nSteinach am Brenner","channel_of_trade":null},{"id":"AT-9893","name":"Kufstein, Rosenheimer Str. 6","lat":47.5938,"lng":12.1773,"site_brand":"bp","country_code":"AT","address":"Rosenheimer Straße 6","city":"Kufstein","state":null,"postcode":"6330","telephone":"+43 5372 71021","facilities":["open_24_hours","tobacco","car_wash","high_speed_pump","truck_suitable_site","toilet","merkur","shop","bakery_bistro","wild_bean_cafe","accepts_routex_cards","accepts_toll_payments","reminder_service","open_saturday","open_sunday"],"products":["ad_blue_cannister","ad_blue_pump","diesel_on","lpg","ultimate","ultimate_diesel","ultimate_unleaded","unleaded_95","ad_blue"],"website":null,"watchlist_id":null,"formatted_address":"Rosenheimer Straße 6\n6330\nKufstein","channel_of_trade":null},{"id":"AT-9896","name":"Hohenems, Lustenauer Str. 112A","lat":47.3736,"lng":9.67759,"site_brand":"bp","country_code":"AT","address":"Lustenauer Straße 112a","city":"Hohenems","state":null,"postcode":"6845","telephone":"+43 5576 74262","facilities":["open_24_hours","tobacco","car_wash","high_speed_pump","truck_suitable_site","toilet","merkur","shop","bakery_bistro","wild_bean_cafe","accepts_routex_cards","accepts_toll_payments","reminder_service","open_saturday","open_sunday"],"products":["ad_blue_cannister","ad_blue_pump","diesel_on","ultimate","ultimate_diesel","ultimate_unleaded","unleaded_95","ad_blue"],"website":null,"watchlist_id":null,"formatted_address":"Lustenauer Straße 112a\n6845\nHohenems","channel_of_trade":null},{"id":"AT-9899","name":"Brixen im Thale, Brixentalerstr. 13","lat":47.4449,"lng":12.2335,"site_brand":"bp","country_code":"AT","address":"Brixentalerstraße 13","city":"Brixen im Thale","state":null,"postcode":"6364","telephone":"+43 5334 2880","facilities":["tobacco","car_wash","high_speed_pump","truck_suitable_site","toilet","shop","wild_bean_cafe","accepts_routex_cards","accepts_toll_payments","reminder_service","open_saturday","open_sunday"],"products":["ad_blue_cannister","diesel_on","ultimate","ultimate_diesel","ultimate_unleaded","unleaded_95"],"website":null,"watchlist_id":null,"formatted_address":"Brixentalerstraße 13\n6364\nBrixen im Thale","channel_of_trade":null},{"id":"DE-23023200","name":"Weber\u0026Seitz GmbH","lat":47.599593,"lng":9.884206,"site_brand":"aral","country_code":"DE","address":"Hauptstraße 79","city":"Lindenberg","state":null,"postcode":"88161","telephone":"+49 8381 927740","facilities":["car_wash","jet_wash","super_wash","shop","pay_at_pump_supported","outdoor_payment_terminal","loyalty","special_car_wash","open_saturday","open_sunday","ryd"],"products":["super_e5","super_98","e10"],"website":"https://tankstelle.aral.de/tankstelle/23023200","watchlist_id":"23023200","formatted_address":"Hauptstraße 79\n88161\nLindenberg","channel_of_trade":"DODO"},{"id":"AT-9906","name":"Lienz, Iseltalerstr. 25","lat":46.8298,"lng":12.7547,"site_brand":"bp","country_code":"AT","address":"Iseltalerstraße 25","city":"Lienz","state":null,"postcode":"9900","telephone":"+43 4852 62659","facilities":["tobacco","car_wash","high_speed_pump","truck_suitable_site","toilet","merkur","shop","bakery_bistro","restaurant","wild_bean_cafe","accepts_routex_cards","accepts_toll_payments","reminder_service","open_saturday","open_sunday"],"products":["ad_blue_cannister","diesel_on","ultimate","ultimate_diesel","ultimate_unleaded","unleaded_95"],"website":null,"watchlist_id":null,"formatted_address":"Iseltalerstraße 25\n9900\nLienz","channel_of_trade":null},{"id":"AT-9911","name":"Imlau 65","lat":47.4603427,"lng":13.1987387,"site_brand":"bp","country_code":"AT","address":"Imlau  65","city":"Imlau","state":null,"postcode":"5452","telephone":"+43 6468 5327","facilities":["tobacco","car_wash","high_speed_pump","truck_suitable_site","toilet","shop","bakery_bistro","wild_bean_cafe","accepts_routex_cards","accepts_toll_payments","reminder_service","open_saturday","open_sunday"],"products":["ad_blue_cannister","diesel_on","ultimate","ultimate_diesel","ultimate_unleaded","unleaded_95"],"website":null,"watchlist_id":null,"formatted_address":"Imlau  65\n5452\nImlau","channel_of_trade":null},{"id":"AT-17881","name":"Virgen,Virgentalstr. 39","lat":47.0017508,"lng":12.4644121,"site_brand":"bp","country_code":"AT","address":"Virgentalstraße 39","city":"Virgen","state":null,"postcode":"9972","telephone":"+43 4874 5267","facilities":["toilet","accepts_routex_cards","reminder_service","open_saturday","open_sunday"],"products":["ad_blue_cannister","diesel_on","ultimate","ultimate_diesel","ultimate_unleaded","unleaded_95"],"website":null,"watchlist_id":null,"formatted_address":"Virgentalstraße 39\n9972\nVirgen","channel_of_trade":null},{"id":"AT-28100","name":"Walchsee,Dorfstrasse 29","lat":47.6497977,"lng":12.3132161,"site_brand":"bp","country_code":"AT","address":"Dorfstraße 29","city":"Walchsee","state":null,"postcode":"6344","telephone":"+43 5374 562031","facilities":["tobacco","toilet","bakery_bistro","accepts_routex_cards","accepts_toll_payments","reminder_service","open_saturday","open_sunday"],"products":["ad_blue_cannister","diesel_on","ultimate","ultimate_diesel","ultimate_unleaded","unleaded_95"],"website":null,"watchlist_id":null,"formatted_address":"Dorfstraße 29\n6344\nWalchsee","channel_of_trade":null},{"id":"AT-28489","name":"Koessen, Huette 15","lat":47.6618416,"lng":12.4131225,"site_brand":"bp","country_code":"AT","address":"Hütte 15","city":"Kössen","state":null,"postcode":"6345","telephone":"+43 5375 6394","facilities":["tobacco","high_speed_pump","truck_suitable_site","toilet","accepts_routex_cards","accepts_toll_payments","reminder_service","open_saturday","open_sunday"],"products":["ad_blue_cannister","diesel_on","ultimate","ultimate_diesel","ultimate_unleaded","unleaded_95"],"website":null,"watchlist_id":null,"formatted_address":"Hütte 15\n6345\nKössen","channel_of_trade":null},{"id":"DE-19120600","name":"VEWAG Verwaltungsgesellschaft mbH","lat":47.500453,"lng":11.101443,"site_brand":"aral","country_code":"DE","address":"Hauptstraße 20","city":"Garmisch-Partenkirch","state":null,"postcode":"82467","telephone":"+49 8821 52733","facilities":["car_wash","shop","bistro","pay_at_pump_supported","outdoor_payment_terminal","loyalty","open_saturday","open_sunday","ryd"],"products":["ultimate","ultimate_diesel","ad_blue","super_e5","e10"],"website":"https://tankstelle.aral.de/tankstelle/19120600","watchlist_id":"19120600","formatted_address":"Hauptstraße 20\n82467\nGarmisch-Partenkirch","channel_of_trade":"JOBR"},{"id":"DE-19141000","name":"Adolf Präg GmbH\u0026Co. KG","lat":47.579327,"lng":10.741941,"site_brand":"aral","country_code":"DE","address":"König-Ludwig-Straße 2","city":"Schwangau","state":null,"postcode":"87645","telephone":"+49 8362 98270","facilities":["pay_at_pump_supported","outdoor_payment_terminal","loyalty","open_saturday","open_sunday","ryd"],"products":["ultimate","ultimate_diesel","lpg","super_e5","e10","truck_diesel"],"website":"https://tankstelle.aral.de/tankstelle/19141000","watchlist_id":"19141000","formatted_address":"König-Ludwig-Straße 2\n87645\nSchwangau","channel_of_trade":"JOBR"},{"id":"DE-19140900","name":"Adolf Präg GmbH\u0026Co. KG","lat":47.547694,"lng":9.728079,"site_brand":"aral","country_code":"DE","address":"Robert-Bosch-Straße 40","city":"Lindau","state":null,"postcode":"88131","telephone":"+49 8382 78767","facilities":["open_24_hours","pay_at_pump_supported","outdoor_payment_terminal","loyalty","open_saturday","open_sunday","ryd"],"products":["ultimate","ultimate_diesel","lpg","ad_blue","super_e5","e10","truck_diesel"],"website":"https://tankstelle.aral.de/tankstelle/19140900","watchlist_id":"19140900","formatted_address":"Robert-Bosch-Straße 40\n88131\nLindau","channel_of_trade":"JOBR"},{"id":"DE-19144100","name":"Johann Deisenhofer GmbH","lat":47.695372,"lng":9.758986,"site_brand":"aral","country_code":"DE","address":"Schomburger Straße 1","city":"Amtzell","state":null,"postcode":"88279","telephone":"+49 7520 6126","facilities":["loyalty","open_saturday","open_sunday","ryd"],"products":["ultimate","ultimate_diesel","lpg","ad_blue","super_e5","e10","truck_diesel"],"website":"https://tankstelle.aral.de/tankstelle/19144100","watchlist_id":"19144100","formatted_address":"Schomburger Straße 1\n88279\nAmtzell","channel_of_trade":"JOBR"},{"id":"DE-19144200","name":"Johann Deisenhofer GmbH","lat":47.693377,"lng":9.559551,"site_brand":"aral","country_code":"DE","address":"Hauptstraße 88","city":"Meckenbeuren","state":null,"postcode":"88074","telephone":"+49 7542 4251","facilities":["loyalty","open_saturday","open_sunday","ryd"],"products":["ultimate","lpg","super_e5","e10","truck_diesel"],"website":"https://tankstelle.aral.de/tankstelle/19144200","watchlist_id":"19144200","formatted_address":"Hauptstraße 88\n88074\nMeckenbeuren","channel_of_trade":"JOBR"},{"id":"DE-19137000","name":"Adolf Präg GmbH\u0026Co. KG","lat":47.592761,"lng":12.987441,"site_brand":"aral","country_code":"DE","address":"Seestraße 1","city":"Schönau am Königssee","state":null,"postcode":"83471","telephone":"+49 8652 95630","facilities":["pay_at_pump_supported","outdoor_payment_terminal","loyalty","open_saturday","open_sunday","ryd"],"products":["lpg","super_e5","super_98","e10","truck_diesel"],"website":"https://tankstelle.aral.de/tankstelle/19137000","watchlist_id":"19137000","formatted_address":"Seestraße 1\n83471\nSchönau am Königssee","channel_of_trade":"JOBR"},{"id":"DE-19136800","name":"Adolf Präg GmbH\u0026Co. KG","lat":47.523716,"lng":10.262306,"site_brand":"aral","country_code":"DE","address":"Illerstraße 12","city":"Sonthofen","state":null,"postcode":"87527","telephone":"+49 8321 3322","facilities":["pay_at_pump_supported","outdoor_payment_terminal","loyalty","open_saturday","open_sunday","ryd"],"products":["super_e5","super_98","e10","truck_diesel"],"website":"https://tankstelle.aral.de/tankstelle/19136800","watchlist_id":"19136800","formatted_address":"Illerstraße 12\n87527\nSonthofen","channel_of_trade":"JOBR"},{"id":"DE-19147500","name":"Adolf Präg GmbH\u0026Co. KG","lat":47.584783,"lng":9.854433,"site_brand":"aral","country_code":"DE","address":"Bahnhofstraße 44","city":"Scheidegg","state":null,"postcode":"88175","telephone":"+49 8381 81717","facilities":["pay_at_pump_supported","outdoor_payment_terminal","loyalty","open_saturday","open_sunday","ryd"],"products":["lpg","super_e5","super_98","e10"],"website":"https://tankstelle.aral.de/tankstelle/19147500","watchlist_id":"19147500","formatted_address":"Bahnhofstraße 44\n88175\nScheidegg","channel_of_trade":"JOBR"},{"id":"DE-3EF025","name":"Burger King","lat":47.626873,"lng":13.000721,"site_brand":"aral_pulse","country_code":"DE","address":"Bahnhofsplatz 4.","city":"Berchtesgaden","state":null,"postcode":"83471","telephone":"","facilities":["open_24_hours","electric_charging","open_saturday","open_sunday"],"products":["electric_charging"],"website":"https://tankstelle.aral.de/tankstelle/3EF025","watchlist_id":null,"formatted_address":"Bahnhofsplatz 4.\n83471\nBerchtesgaden","channel_of_trade":"EVDE"},{"id":"AT-525656333","name":"Kundl, Schieferrollstrasse 17","lat":47.4671099,"lng":11.9900426,"site_brand":"bp","country_code":"AT","address":"Schieferrollstraße 17","city":"Kundl","state":null,"postcode":"6250","telephone":"+43 5338 861136","facilities":["alcohol","tobacco","high_speed_pump","truck_suitable_site","toilet","accepts_routex_cards","accepts_toll_payments","reminder_service","open_saturday","open_sunday"],"products":["ad_blue_cannister","diesel_on","ultimate","ultimate_diesel","ultimate_unleaded","unleaded_95"],"website":null,"watchlist_id":null,"formatted_address":"Schieferrollstraße 17\n6250\nKundl","channel_of_trade":null},{"id":"AT-825158955","name":"St. Johann, Bundesstrasse 2","lat":47.334402,"lng":13.1893444,"site_brand":"bp","country_code":"AT","address":"Bundesstraße 2","city":"St. Johann im Pongau","state":null,"postcode":"5600","telephone":"+43 50 8300 3250","facilities":["alcohol","tobacco","high_speed_pump","truck_suitable_site","disabled_facilities","toilet","bakery_bistro","accepts_routex_cards","accepts_toll_payments","reminder_service","open_saturday","open_sunday"],"products":["ad_blue_cannister","ad_blue_pump","diesel_on","natural_gas","ultimate","ultimate_diesel","ultimate_unleaded","unleaded_95","ad_blue"],"website":null,"watchlist_id":null,"formatted_address":"Bundesstraße 2\n5600\nSt. Johann im Pongau","channel_of_trade":null},{"id":"AT-783031554","name":"Unken, Niederland 112","lat":47.665194,"lng":12.752882,"site_brand":"bp","country_code":"AT","address":"Niederland 112","city":"Unken","state":null,"postcode":"5091","telephone":"+43 50 8300 3400","facilities":["alcohol","tobacco","high_speed_pump","truck_suitable_site","disabled_facilities","toilet","accepts_routex_cards","accepts_toll_payments","reminder_service","open_saturday","open_sunday"],"products":["ad_blue_cannister","ad_blue_pump","diesel_on","ultimate","ultimate_diesel","ultimate_unleaded","unleaded_95","ad_blue"],"website":null,"watchlist_id":null,"formatted_address":"Niederland 112\n5091\nUnken","channel_of_trade":null},{"id":"AT-30818273","name":"Buch bei Jenbach, St. Margarethen 151b","lat":47.383316,"lng":11.771831,"site_brand":"bp","country_code":"AT","address":"St. Margarethen 151B","city":"Buch in Tirol","state":null,"postcode":"6220","telephone":"+43 1 522490900","facilities":["open_24_hours","accepts_routex_cards","reminder_service","open_saturday","open_sunday"],"products":["diesel_on","lpg","ultimate","ultimate_diesel","ultimate_unleaded","unleaded_95"],"website":null,"watchlist_id":"30818273","formatted_address":"St. Margarethen 151B\n6220\nBuch in Tirol","channel_of_trade":null},{"id":"AT-204660218","name":"Seefeld, Foehrenwald 498","lat":47.3279656,"lng":11.1986662,"site_brand":"bp","country_code":"AT","address":"Föhrenwand 498","city":"Seefeld in Tirol","state":null,"postcode":"6100","telephone":"+43 5212 20567","facilities":["tobacco","accepts_routex_cards","accepts_toll_payments","reminder_service","open_saturday","open_sunday"],"products":["ad_blue_cannister","ad_blue_pump","diesel_on","ultimate","ultimate_diesel","ultimate_unleaded","unleaded_95","ad_blue"],"website":null,"watchlist_id":null,"formatted_address":"Föhrenwand 498\n6100\nSeefeld in Tirol","channel_of_trade":null},{"id":"AT-58467099","name":"Innsbruck, Hallerstr. 164","lat":47.2754196,"lng":11.4340339,"site_brand":"bp","country_code":"AT","address":"Haller Straße 164","city":"Innsbruck","state":null,"postcode":"6020","telephone":"+43 512 260492","facilities":["tobacco","high_speed_pump","truck_suitable_site","accepts_routex_cards","accepts_toll_payments","reminder_service","open_saturday","open_sunday"],"products":["ad_blue_cannister","ad_blue_pump","diesel_on","ultimate","ultimate_diesel","ultimate_unleaded","unleaded_95","ad_blue"],"website":null,"watchlist_id":"58467099","formatted_address":"Haller Straße 164\n6020\nInnsbruck","channel_of_trade":null},{"id":"AT-1881041682","name":"T-HEITERWANG, FERNPASSSTRASSE","lat":47.4366856,"lng":10.7662369,"site_brand":"bp","country_code":"AT","address":"Gewerbegebiet 1","city":"Heiterwang","state":null,"postcode":"6611","telephone":"+43 676 4135228","facilities":["open_24_hours","accepts_routex_cards","accepts_toll_payments","open_saturday","open_sunday"],"products":["ad_blue_cannister","ad_blue_pump","diesel_on","lpg","ultimate","ultimate_diesel","ultimate_unleaded","unleaded_95","ad_blue"],"website":null,"watchlist_id":null,"formatted_address":"Gewerbegebiet 1\n6611\nHeiterwang","channel_of_trade":null},{"id":"AT-813823608","name":"K-TROEPOLACH, NR. 83","lat":46.615,"lng":13.2806,"site_brand":"bp","country_code":"AT","address":"Nr. 83","city":"Tröpolach","state":null,"postcode":"9631","telephone":"+43 4285 234","facilities":["open_24_hours","accepts_routex_cards","open_saturday","open_sunday"],"products":["ad_blue_cannister","ad_blue_pump","diesel_on","ultimate","ultimate_diesel","ultimate_unleaded","unleaded_95","ad_blue"],"website":null,"watchlist_id":null,"formatted_address":"Nr. 83\n9631\nTröpolach","channel_of_trade":null},{"id":"AT-48282150","name":"T-SOELL, WALD 1","lat":47.4994,"lng":12.1883,"site_brand":"bp","country_code":"AT","address":"Wald 1","city":"Söll","state":null,"postcode":"6306","telephone":"+43 50 8300","facilities":["accepts_routex_cards","accepts_toll_payments","reminder_service","open_saturday","open_sunday"],"products":["ad_blue_cannister","ad_blue_pump","diesel_on","ultimate","ultimate_diesel","ultimate_unleaded","unleaded_95","ad_blue"],"website":null,"watchlist_id":"48282150","formatted_address":"Wald 1\n6306\nSöll","channel_of_trade":null},{"id":"AT-1943201263","name":"GOING","lat":47.5158713,"lng":12.3186388,"site_brand":"bp","country_code":"AT","address":"Innsbrucker Straße 5","city":"Going am Wilden Kaiser","state":null,"postcode":"6353","telephone":"+43 5358 43949","facilities":["accepts_routex_cards","accepts_toll_payments","reminder_service","open_saturday","open_sunday"],"products":["ad_blue_cannister","diesel_on","ultimate","ultimate_diesel","ultimate_unleaded","unleaded_95"],"website":null,"watchlist_id":null,"formatted_address":"Innsbrucker Straße 5\n6353\nGoing am Wilden Kaiser","channel_of_trade":null},{"id":"AT-1172183815","name":"Maria Alm, Hochkönigstraße 9","lat":47.4079407,"lng":12.8942825,"site_brand":"bp","country_code":"AT","address":"Hochkönigstraße 9","city":"Maria Alm","state":null,"postcode":"5761","telephone":"+43 6584 7759","facilities":["toilet","shop","accepts_routex_cards","accepts_toll_payments","reminder_service","open_saturday","open_sunday"],"products":["ad_blue_cannister","diesel_on","ultimate","ultimate_diesel","unleaded_95"],"website":null,"watchlist_id":null,"formatted_address":"Hochkönigstraße 9\n5761\nMaria Alm","channel_of_trade":null},{"id":"AT-232628006","name":"GRIES/BRENNER,WESTUFER","lat":47.0378548,"lng":11.4732324,"site_brand":"bp","country_code":"AT","address":"Westufer","city":"Gries am Brenner","state":null,"postcode":"6156","telephone":"+43 5274 87288","facilities":["open_24_hours","wifi","motorway_site","shop","wild_bean_cafe","accepts_routex_cards","open_saturday","open_sunday"],"products":["ad_blue_cannister","ad_blue_pump","diesel_on","hvo","ultimate","ultimate_diesel","ultimate_unleaded","unleaded_95","ad_blue"],"website":null,"watchlist_id":null,"formatted_address":"Westufer\n6156\nGries am Brenner","channel_of_trade":null},{"id":"AT-819646853","name":"Wagrain, Markt 130","lat":47.3365068,"lng":13.3028488,"site_brand":"bp","country_code":"AT","address":"Markt 130","city":"Wagrain","state":null,"postcode":"5602","telephone":"+43 6413 8289","facilities":["toilet","shop","accepts_routex_cards","accepts_toll_payments","reminder_service","open_saturday","open_sunday"],"products":["ad_blue_cannister","ad_blue_pump","diesel_on","ultimate","ultimate_diesel","ultimate_unleaded","unleaded_95","ad_blue"],"website":null,"watchlist_id":null,"formatted_address":"Markt 130\n5602\nWagrain","channel_of_trade":null},{"id":"AT-1268418690","name":"Radstadt, Salzburger Str. 43","lat":47.386639,"lng":13.450906,"site_brand":"bp","country_code":"AT","address":"Salzburger Straße 43","city":"Radstadt","state":null,"postcode":"5550","telephone":"+43 6452 4384","facilities":["toilet","accepts_routex_cards","accepts_toll_payments","reminder_service","open_saturday","open_sunday"],"products":["ad_blue_cannister","ad_blue_pump","diesel_on","ultimate","ultimate_diesel","ultimate_unleaded","unleaded_95","ad_blue"],"website":null,"watchlist_id":null,"formatted_address":"Salzburger Straße 43\n5550\nRadstadt","channel_of_trade":null},{"id":"AT-1289846694","name":"Taxenbach, Bundesstr. 6","lat":47.2932261,"lng":12.9690655,"site_brand":"bp","country_code":"AT","address":"Bundesstraße 6","city":"Taxenbach","state":null,"postcode":"5550","telephone":"+43 6543 6121","facilities":["toilet","shop","accepts_routex_cards","accepts_toll_payments","reminder_service","open_saturday","open_sunday"],"products":["ad_blue_cannister","diesel_on","ultimate","ultimate_diesel","ultimate_unleaded","unleaded_95"],"website":null,"watchlist_id":null,"formatted_address":"Bundesstraße 6\n5550\nTaxenbach","channel_of_trade":null},{"id":"AT-234664623","name":"Zell am See, Brucker Bundesstr. 57","lat":47.2968228,"lng":12.7960715,"site_brand":"bp","country_code":"AT","address":"Brucker Bundesstraße 57","city":"Zell am See","state":null,"postcode":"5700","telephone":"+43 6542 53858","facilities":["toilet","shop","accepts_routex_cards","accepts_toll_payments","reminder_service","open_saturday","open_sunday"],"products":["ad_blue_cannister","diesel_on","ultimate","ultimate_diesel","ultimate_unleaded","unleaded_95"],"website":null,"watchlist_id":null,"formatted_address":"Brucker Bundesstraße 57\n5700\nZell am See","channel_of_trade":null},{"id":"CH-1879108753","name":"BP Service Diepoldsau","lat":47.38848,"lng":9.65159,"site_brand":"bp","country_code":"CH","address":"Tramstrasse 19","city":"Diepoldsau","state":null,"postcode":"9444","telephone":"+41 848 848 490","facilities":["shop","accepts_routex_cards","automatic_site","open_saturday","open_sunday"],"products":[],"website":null,"watchlist_id":null,"formatted_address":"Tramstrasse 19\n9444\nDiepoldsau","channel_of_trade":null},{"id":"CH-599662041","name":"BP Tankstelle Heiden","lat":47.44398,"lng":9.5324,"site_brand":"bp","country_code":"CH","address":"Rosentalstrasse 1","city":"Heiden","state":null,"postcode":"9410","telephone":"+41 848 848 490","facilities":["accepts_routex_cards","automatic_site","open_saturday","open_sunday"],"products":[],"website":null,"watchlist_id":null,"formatted_address":"Rosentalstrasse 1\n9410\nHeiden","channel_of_trade":null},{"id":"CH-651424714","name":"BP Service St. Moritz","lat":46.48495,"lng":9.83478,"site_brand":"bp","country_code":"CH","address":"Via San Gian 21","city":"St. Moritz","state":null,"postcode":"7500","telephone":"+41 81 511 01 57","facilities":["alcohol","lotto","tobacco","truck_suitable_site","shop","bakery_bistro","accepts_routex_cards","open_saturday","open_sunday"],"products":["ad_blue_cannister"],"website":null,"watchlist_id":null,"formatted_address":"Via San Gian 21\n7500\nSt. Moritz","channel_of_trade":null},{"id":"CH-233378516","name":"BP Tankstelle Klosters - Dorf","lat":46.883759,"lng":9.876583,"site_brand":"bp","country_code":"CH","address":"Madrisastrasse 3","city":"Klosters Dorf","state":null,"postcode":"7252","telephone":"+41 848 848 490","facilities":["accepts_routex_cards","automatic_site","open_saturday","open_sunday"],"products":[],"website":null,"watchlist_id":null,"formatted_address":"Madrisastrasse 3\n7252\nKlosters Dorf","channel_of_trade":null},{"id":"CH-267976836","name":"BP Tankstelle Heerbrugg","lat":47.416472,"lng":9.633078,"site_brand":"bp","country_code":"CH","address":"Auerstrasse 34","city":"Heerbrugg","state":null,"postcode":"9435","telephone":"+41 848 848 490","facilities":["accepts_routex_cards","automatic_site","open_saturday","open_sunday"],"products":[],"website":null,"watchlist_id":null,"formatted_address":"Auerstrasse 34\n9435\nHeerbrugg","channel_of_trade":null},{"id":"CH-302105226","name":"BP Tankstelle Chur Ringstrasse","lat":46.84846,"lng":9.51418,"site_brand":"bp","country_code":"CH","address":"Ringstrasse 5","city":"Chur","state":null,"postcode":"7000","telephone":"+41 848 848 490","facilities":["accepts_routex_cards","automatic_site","open_saturday","open_sunday"],"products":["ad_blue_pump","ad_blue"],"website":null,"watchlist_id":null,"formatted_address":"Ringstrasse 5\n7000\nChur","channel_of_trade":null},{"id":"CH-1878397877","name":"BP Service Mustair","lat":46.634,"lng":10.45738,"site_brand":"bp","country_code":"CH","address":"Parc Rom","city":"Mustair","state":null,"postcode":"7537","telephone":"+41 81 858 51 69","facilities":["alcohol","lotto","tobacco","truck_suitable_site","shop","bakery_bistro","accepts_routex_cards","open_saturday","open_sunday"],"products":["ad_blue_cannister"],"website":null,"watchlist_id":null,"formatted_address":"Parc Rom\n7537\nMustair","channel_of_trade":null},{"id":"CH-587121524","name":"BP Service Acla da Fans","lat":46.955002,"lng":10.43562,"site_brand":"bp","country_code":"CH","address":"Bain da Fans 255","city":"Martina","state":null,"postcode":"7560","telephone":"+41 81 861 84 20","facilities":["alcohol","lotto","tobacco","truck_suitable_site","shop","bakery_bistro","accepts_routex_cards","open_saturday","open_sunday"],"products":["ad_blue_cannister"],"website":null,"watchlist_id":null,"formatted_address":"Bain da Fans 255\n7560\nMartina","channel_of_trade":null},{"id":"CH-1073543609","name":"BP Tankstelle Maloja","lat":46.400176,"lng":9.695533,"site_brand":"bp","country_code":"CH","address":"Strada Cantonale 344","city":"Maloja","state":null,"postcode":"7516","telephone":"+41 848 848 490","facilities":["accepts_routex_cards","automatic_site","open_saturday","open_sunday"],"products":[],"website":null,"watchlist_id":null,"formatted_address":"Strada Cantonale 344\n7516\nMaloja","channel_of_trade":null},{"id":"CH-791660407","name":"BP Service Rheintal West","lat":47.145934,"lng":9.500417,"site_brand":"bp","country_code":"CH","address":"Fosera 2245","city":"Buchs SG","state":null,"postcode":"9470","telephone":"+41 71 913 33 33","facilities":["alcohol","lotto","tobacco","toilet","motorway_site","shop","bakery_bistro","bistro","restaurant","accepts_routex_cards","open_saturday","open_sunday"],"products":["ad_blue_cannister"],"website":null,"watchlist_id":null,"formatted_address":"Fosera 2245\n9470\nBuchs SG","channel_of_trade":null},{"id":"CH-688127342","name":"BP Service Rheintal Ost","lat":47.146255,"lng":9.501092,"site_brand":"bp","country_code":"CH","address":"Fosera 2826","city":"Buchs SG","state":null,"postcode":"9470","telephone":"+41 71 913 33 33","facilities":["alcohol","lotto","tobacco","toilet","motorway_site","shop","bakery_bistro","bistro","restaurant","accepts_routex_cards","open_saturday","open_sunday"],"products":["ad_blue_cannister"],"website":null,"watchlist_id":null,"formatted_address":"Fosera 2826\n9470\nBuchs SG","channel_of_trade":null},{"id":"CH-1777200757","name":"BP Tansktelle Luchingen","lat":47.3887,"lng":9.56129,"site_brand":"bp","country_code":"CH","address":"Rorschacherstrasse 132","city":"Altstatten SG","state":null,"postcode":"9450","telephone":"+41 848 848 490","facilities":["accepts_routex_cards","automatic_site","open_saturday","open_sunday"],"products":[],"website":null,"watchlist_id":null,"formatted_address":"Rorschacherstrasse 132\n9450\nAltstatten SG","channel_of_trade":null},{"id":"CH-1054613063","name":"BP Tankstelle Altstatten","lat":47.37938,"lng":9.54472,"site_brand":"bp","country_code":"CH","address":"Rorschacherstrasse 24","city":"Altstatten SG","state":null,"postcode":"9450","telephone":"+41 848 848 490","facilities":["accepts_routex_cards","automatic_site","open_saturday","open_sunday"],"products":[],"website":null,"watchlist_id":null,"formatted_address":"Rorschacherstrasse 24\n9450\nAltstatten SG","channel_of_trade":null},{"id":"CH-1239665779","name":"BP Service Kriessern","lat":47.35923,"lng":9.60888,"site_brand":"bp","country_code":"CH","address":"Schutzenwiese 1","city":"Kriessern","state":null,"postcode":"9451","telephone":"+41 71 511 13 78","facilities":["alcohol","lotto","tobacco","car_wash","truck_suitable_site","shop","bakery_bistro","accepts_routex_cards","open_saturday","open_sunday"],"products":["ad_blue_cannister"],"website":null,"watchlist_id":null,"formatted_address":"Schutzenwiese 1\n9451\nKriessern","channel_of_trade":null},{"id":"CH-45108349","name":"BP Service Kublis","lat":46.91381,"lng":9.77179,"site_brand":"bp","country_code":"CH","address":"Hauptstrasse 22","city":"Kublis","state":null,"postcode":"7240","telephone":"+41 81 511 03 53","facilities":["alcohol","lotto","tobacco","car_wash","truck_suitable_site","shop","bakery_bistro","accepts_routex_cards","open_saturday","open_sunday"],"products":["ad_blue_cannister","ultimate","ultimate_diesel"],"website":null,"watchlist_id":"45108349","formatted_address":"Hauptstrasse 22\n7240\nKublis","channel_of_trade":null},{"id":"CH-1610764763","name":"BP Service Heidiland, A13","lat":47.011199,"lng":9.512288,"site_brand":"bp","country_code":"CH","address":"Autobahnraststatte A 13","city":"Maienfeld","state":null,"postcode":"7304","telephone":"+41 81 511 03 38","facilities":["alcohol","lotto","tobacco","truck_suitable_site","toilet","motorway_site","shop","bakery_bistro","bistro","restaurant","accepts_routex_cards","open_saturday","open_sunday"],"products":["ad_blue_cannister","ultimate","ultimate_diesel"],"website":null,"watchlist_id":null,"formatted_address":"Autobahnraststatte A 13\n7304\nMaienfeld","channel_of_trade":null},{"id":"AT-2034212027","name":"T-INNSBRUCK, HALLERSTR. 100","lat":47.277588,"lng":11.424257,"site_brand":"bp","country_code":"AT","address":"Hallerstraße 100","city":"Innsbruck","state":null,"postcode":"6020","telephone":"+43 512 209094","facilities":["car_wash","shop","wild_bean_cafe","accepts_routex_cards","accepts_toll_payments","open_saturday","open_sunday"],"products":["ad_blue_cannister","diesel_on","ultimate","ultimate_diesel","ultimate_unleaded","unleaded_95"],"website":null,"watchlist_id":null,"formatted_address":"Hallerstraße 100\n6020\nInnsbruck","channel_of_trade":null}],"clusters":[]}