{"locations":[{"id":"AT-37","name":"Peilstein, Hanriederstr. 43","lat":48.6205,"lng":13.8857,"site_brand":"bp","country_code":"AT","address":"Hanriederstraße 43","city":"Peilstein im Mühlviertel","state":null,"postcode":"4153","telephone":"+43 7287 752848","facilities":["high_speed_pump","truck_suitable_site","toilet","accepts_routex_cards","reminder_service","open_saturday","open_sunday"],"products":["ad_blue_cannister","ad_blue_pump","diesel_on","ultimate","ultimate_diesel","ultimate_unleaded","unleaded_95","ad_blue"],"website":null,"watchlist_id":null,"formatted_address":"Hanriederstraße 43\n4153\nPeilstein im Mühlviertel","channel_of_trade":null},{"id":"AT-349","name":"Alland (A21)","lat":48.070115,"lng":16.06662,"site_brand":"bp","country_code":"AT","address":"Außenringautobahn A21","city":"Alland","state":null,"postcode":"2534","telephone":"+43 2258 76180","facilities":["open_24_hours","tobacco","high_speed_pump","truck_parking","truck_suitable_site","disabled_facilities","toilet","wifi","aral_store","motorway_site","supermarket","shop","bakery_bistro","ms_simply_food","restaurant","wild_bean_cafe","accepts_routex_cards","accepts_toll_payments","reminder_service","open_saturday","open_sunday"],"products":["ad_blue_cannister","ad_blue_pump","diesel_on","electricity","hvo","ultimate","ultimate_diesel","ultimate_unleaded","unleaded_95","ad_blue"],"website":null,"watchlist_id":null,"formatted_address":"Außenringautobahn A21\n2534\nAlland","channel_of_trade":null},{"id":"AT-354","name":"Amstetten, Ybbsstr. 39","lat":48.1166141,"lng":14.8716214,"site_brand":"bp","country_code":"AT","address":"Ybbsstraße 39","city":"Amstetten","state":null,"postcode":"3300","telephone":"+43 7472 68222","facilities":["tobacco","car_wash","toilet","shop","accepts_routex_cards","accepts_toll_payments","reminder_service","open_saturday","open_sunday"],"products":["ad_blue_cannister","diesel_on","ultimate","ultimate_diesel","ultimate_unleaded","unleaded_95"],"website":null,"watchlist_id":null,"formatted_address":"Ybbsstraße 39\n3300\nAmstetten","channel_of_trade":null},{"id":"AT-358","name":"Ansfelden/Autobahn, Nord","lat":48.214988,"lng":14.283562,"site_brand":"bp","country_code":"AT","address":"Westautobahn A1","city":"Ansfelden","state":null,"postcode":"4052","telephone":"+43 7229 87115","facilities":["open_24_hours","tobacco","high_speed_pump","truck_parking","truck_suitable_site","disabled_facilities","toilet","wifi","motorway_site","shop","bakery_bistro","restaurant","wild_bean_cafe","accepts_routex_cards","accepts_toll_payments","reminder_service","open_saturday","open_sunday"],"products":["ad_blue_cannister","ad_blue_pump","diesel_on","ultimate","ultimate_diesel","ultimate_unleaded","unleaded_95","ad_blue"],"website":null,"watchlist_id":null,"formatted_address":"Westautobahn A1\n4052\nAnsfelden","channel_of_trade":null},{"id":"AT-359","name":"Ansfelden, Traunuferstr. 4/Frein","lat":48.2308289,"lng":14.3050653,"site_brand":"bp","country_code":"AT","address":"Traunuferstraße 4","city":"Ansfelden-Freindorf","state":null,"postcode":"4052","telephone":"+43 664 9132069","facilities":["car_wash","high_speed_pump","truck_suitable_site","toilet","shop","bakery_bistro","accepts_routex_cards","accepts_toll_payments","reminder_service","open_saturday","open_sunday"],"products":["ad_blue_cannister","diesel_on","red_diesel","ultimate","ultimate_diesel","ultimate_unleaded","unleaded_95"],"website":null,"watchlist_id":null,"formatted_address":"Traunuferstraße 4\n4052\nAnsfelden-Freindorf","channel_of_trade":null},{"id":"AT-370","name":"Ulrichsberg, Dreisesselbergstr. 18","lat":48.6793,"lng":13.9083,"site_brand":"bp","country_code":"AT","address":"Dreisesselbergstraße 18","city":"Ulrichsberg","state":null,"postcode":"4161","telephone":"+43 7288 8363","facilities":["tobacco","high_speed_pump","truck_suitable_site","toilet","accepts_routex_cards","reminder_service","open_saturday","open_sunday"],"products":["ad_blue_cannister","ad_blue_pump","diesel_on","ultimate","ultimate_diesel","ultimate_unleaded","unleaded_95","ad_blue"],"website":null,"watchlist_id":null,"formatted_address":"Dreisesselbergstraße 18\n4161\nUlrichsberg","channel_of_trade":null},{"id":"AT-376","name":"Boeheimkirchen, Stockhofstr. 1","lat":48.1909328,"lng":15.7660241,"site_brand":"bp","country_code":"AT","address":"Hainfelderstraße","city":"Böheimkirchen","state":null,"postcode":"3071","telephone":"+43 2743 3265","facilities":["tobacco","car_wash","high_speed_pump","truck_suitable_site","truck_wash","toilet","shop","accepts_routex_cards","accepts_toll_payments","reminder_service","open_saturday","open_sunday"],"products":["ad_blue_cannister","diesel_on","red_diesel","ultimate","ultimate_diesel","ultimate_unleaded","unleaded_95"],"website":null,"watchlist_id":null,"formatted_address":"Hainfelderstraße\n3071\nBöheimkirchen","channel_of_trade":null},{"id":"AT-410","name":"Frohsdorf, Wr.Neustaedterstr. 120","lat":47.7550212,"lng":16.2528991,"site_brand":"bp","country_code":"AT","address":"Wiener Neustädter Straße 120","city":"Frohsdorf","state":null,"postcode":"2821","telephone":"0800223350","facilities":["open_24_hours","toilet","accepts_routex_cards","reminder_service","open_saturday","open_sunday"],"products":["diesel_on","unleaded_95"],"website":null,"watchlist_id":null,"formatted_address":"Wiener Neustädter Straße 120\n2821\nFrohsdorf","channel_of_trade":null},{"id":"AT-416","name":"Gaweinstal, Wienerstr. 35","lat":48.472861,"lng":16.588735,"site_brand":"bp","country_code":"AT","address":"Wienerstraße 35","city":"Gaweinstal","state":null,"postcode":"2191","telephone":"+43 2574 2183","facilities":["tobacco","car_wash","high_speed_pump","truck_suitable_site","toilet","shop","wild_bean_cafe","accepts_routex_cards","accepts_toll_payments","reminder_service","open_saturday","open_sunday"],"products":["ad_blue_cannister","diesel_on","ultimate","ultimate_diesel","ultimate_unleaded","unleaded_95"],"website":null,"watchlist_id":null,"formatted_address":"Wienerstraße 35\n2191\nGaweinstal","channel_of_trade":null},{"id":"AT-417","name":"Geiersberg, Pramerdorf 13","lat":48.1987,"lng":13.6049,"site_brand":"bp","country_code":"AT","address":"Pramerdorf 13","city":"Geiersberg","state":null,"postcode":"4922","telephone":"+43 7732 2288","facilities":["tobacco","high_speed_pump","truck_suitable_site","toilet","shop","accepts_routex_cards","accepts_toll_payments","reminder_service","open_saturday","open_sunday"],"products":["ad_blue_cannister","ad_blue_pump","diesel_on","hvo","ultimate","ultimate_diesel","ultimate_unleaded","unleaded_95","ad_blue"],"website":null,"watchlist_id":null,"formatted_address":"Pramerdorf 13\n4922\nGeiersberg","channel_of_trade":null},{"id":"AT-418","name":"Gerasdorf, Leopoldauerstr. 7","lat":48.2942543,"lng":16.4675981,"site_brand":"bp","country_code":"AT","address":"Leopoldauerstraße 1","city":"Gerasdorf","state":null,"postcode":"2201","telephone":"+43 2246 2334","facilities":["tobacco","car_wash","high_speed_pump","truck_suitable_site","toilet","shop","wild_bean_cafe","accepts_routex_cards","accepts_toll_payments","reminder_service","open_saturday","open_sunday"],"products":["ad_blue_cannister","diesel_on","ultimate","ultimate_diesel","ultimate_unleaded","unleaded_95"],"website":null,"watchlist_id":null,"formatted_address":"Leopoldauerstraße 1\n2201\nGerasdorf","channel_of_trade":null},{"id":"AT-453","name":"Guntramsdorf, A2","lat":48.0341287,"lng":16.3379655,"site_brand":"bp","country_code":"AT","address":"Autobahn A2","city":"Guntramsdorf West","state":null,"postcode":"2353","telephone":"+43 2236 52003","facilities":["open_24_hours","tobacco","high_speed_pump","truck_parking","truck_suitable_site","disabled_facilities","toilet","wifi","motorway_site","shop","bakery_bistro","restaurant","wild_bean_cafe","accepts_routex_cards","accepts_toll_payments","reminder_service","open_saturday","open_sunday"],"products":["ad_blue_cannister","ad_blue_pump","diesel_on","hvo","ultimate","ultimate_diesel","ultimate_unleaded","unleaded_95","ad_blue"],"website":null,"watchlist_id":null,"formatted_address":"Autobahn A2\n2353\nGuntramsdorf West","channel_of_trade":null},{"id":"AT-456","name":"Haag/Autobahn, Westautobahn A1","lat":48.1394515,"lng":14.5792436,"site_brand":"bp","country_code":"AT","address":"Westautobahn A1","city":"Haag","state":null,"postcode":"3350","telephone":"+43 7434 42153","facilities":["open_24_hours","tobacco","high_speed_pump","truck_parking","truck_suitable_site","toilet","wifi","motorway_site","shop","bakery_bistro","restaurant","wild_bean_cafe","accepts_routex_cards","accepts_toll_payments","reminder_service","open_saturday","open_sunday"],"products":["ad_blue_cannister","ad_blue_pump","diesel_on","ultimate","ultimate_diesel","ultimate_unleaded","unleaded_95","ad_blue"],"website":null,"watchlist_id":null,"formatted_address":"Westautobahn A1\n3350\nHaag","channel_of_trade":null},{"id":"AT-462","name":"Heidenreichstein, Klein Pertholz 58","lat":48.850263,"lng":15.096532,"site_brand":"bp","country_code":"AT","address":"Klein Pertholz 58","city":"Heidenreichstein","state":null,"postcode":"3860","telephone":"+43 2862 52127","facilities":["tobacco","car_wash","high_speed_pump","truck_suitable_site","toilet","wifi","shop","accepts_routex_cards","accepts_toll_payments","reminder_service","open_saturday","open_sunday"],"products":["ad_blue_cannister","diesel_on","red_diesel","ultimate","ultimate_diesel","ultimate_unleaded","unleaded_95"],"website":null,"watchlist_id":null,"formatted_address":"Klein Pertholz 58\n3860\nHeidenreichstein","channel_of_trade":null},{"id":"AT-526","name":"Lindach/Autobahn, Westautobahn A1","lat":48.0040507,"lng":13.8513135,"site_brand":"bp","country_code":"AT","address":"Westautobahn A1","city":"Lindach","state":null,"postcode":"4663","telephone":"+43 7613 8460","facilities":["open_24_hours","tobacco","high_speed_pump","truck_parking","truck_suitable_site","disabled_facilities","toilet","wifi","motorway_site","shop","bakery_bistro","restaurant","wild_bean_cafe","accepts_routex_cards","accepts_toll_payments","reminder_service","open_saturday","open_sunday"],"products":["ad_blue_cannister","ad_blue_pump","diesel_on","ultimate","ultimate_diesel","ultimate_unleaded","unleaded_95","ad_blue"],"website":null,"watchlist_id":null,"formatted_address":"Westautobahn A1\n4663\nLindach","channel_of_trade":null},{"id":"AT-541","name":"Linz-Urfahr, Wildbergstr. 16","lat":48.3147745,"lng":14.2859886,"site_brand":"bp","country_code":"AT","address":"Wildbergstraße 16","city":"Linz-Urfahr","state":null,"postcode":"4040","telephone":"+43 732 732586","facilities":["open_24_hours","tobacco","car_wash","high_speed_pump","truck_suitable_site","toilet","shop","bakery_bistro","wild_bean_cafe","accepts_routex_cards","accepts_toll_payments","reminder_service","open_saturday","open_sunday"],"products":["ad_blue_cannister","diesel_on","ultimate","ultimate_diesel","ultimate_unleaded","unleaded_95"],"website":null,"watchlist_id":null,"formatted_address":"Wildbergstraße 16\n4040\nLinz-Urfahr","channel_of_trade":null},{"id":"AT-553","name":"Merkenstetten, Stock 11","lat":48.039127,"lng":15.14372,"site_brand":"bp","country_code":"AT","address":"Stock 11","city":"Merkenstetten","state":null,"postcode":"3251","telephone":"+43 7489 2481","facilities":["tobacco","car_wash","high_speed_pump","truck_suitable_site","toilet","shop","accepts_routex_cards","accepts_toll_payments","reminder_service","open_saturday","open_sunday"],"products":["ad_blue_cannister","ad_blue_pump","diesel_on","ultimate","ultimate_diesel","ultimate_unleaded","unleaded_95","ad_blue"],"website":null,"watchlist_id":null,"formatted_address":"Stock 11\n3251\nMerkenstetten","channel_of_trade":null},{"id":"AT-555","name":"Michaelnbach, Stauffstr. 6","lat":48.2891,"lng":13.8334,"site_brand":"bp","country_code":"AT","address":"Stauffstraße 6","city":"Michaelnbach","state":null,"postcode":"4712","telephone":"+43 7277 2520","facilities":["toilet","shop","accepts_routex_cards","reminder_service","open_saturday","open_sunday"],"products":["ad_blue_pump","diesel_on","ultimate","ultimate_diesel","ultimate_unleaded","unleaded_95","ad_blue"],"website":null,"watchlist_id":null,"formatted_address":"Stauffstraße 6\n4712\nMichaelnbach","channel_of_trade":null},{"id":"AT-572","name":"Neusiedl/See, Wienerstr. 69","lat":47.9580858,"lng":16.8352404,"site_brand":"bp","country_code":"AT","address":"Wienerstraße 69","city":"Neusiedl am See","state":null,"postcode":"7100","telephone":"+43 2167 314412","facilities":["open_24_hours","tobacco","car_wash","high_speed_pump","truck_suitable_site","toilet","shop","accepts_routex_cards","accepts_toll_payments","reminder_service","open_saturday","open_sunday"],"products":["ad_blue_cannister","diesel_on","ultimate","ultimate_diesel","ultimate_unleaded","unleaded_95"],"website":null,"watchlist_id":null,"formatted_address":"Wienerstraße 69\n7100\nNeusiedl am See","channel_of_trade":null},{"id":"AT-590","name":"Pregarten, Tragweinerstr. 31","lat":48.3534,"lng":14.5359,"site_brand":"bp","country_code":"AT","address":"Tragweinerstraße 31","city":"Pregarten","state":null,"postcode":"4230","telephone":"+43 7236 2230","facilities":["open_24_hours","tobacco","toilet","shop","accepts_routex_cards","accepts_toll_payments","reminder_service","open_saturday","open_sunday"],"products":["ad_blue_cannister","diesel_on","red_diesel","ultimate","ultimate_diesel","ultimate_unleaded","unleaded_95"],"website":null,"watchlist_id":null,"formatted_address":"Tragweinerstraße 31\n4230\nPregarten","channel_of_trade":null},{"id":"AT-603","name":"Rohrbach, Scheiblberg 44","lat":48.5596,"lng":13.9871,"site_brand":"bp","country_code":"AT","address":"Scheiblberg 44","city":"Berg bei Rohrbach","state":null,"postcode":"4150","telephone":"+43 7288 8363","facilities":["open_24_hours","high_speed_pump","truck_suitable_site","toilet","accepts_routex_cards","reminder_service","open_saturday","open_sunday"],"products":["ad_blue_pump","diesel_on","ultimate","ultimate_diesel","ultimate_unleaded","unleaded_95","ad_blue"],"website":null,"watchlist_id":null,"formatted_address":"Scheiblberg 44\n4150\nBerg bei Rohrbach","channel_of_trade":null},{"id":"AT-622","name":"Sierning, Steyrerstr. 29","lat":48.0462164,"lng":14.3131072,"site_brand":"bp","country_code":"AT","address":"Steyrerstraße 29","city":"Sierning","state":null,"postcode":"4522","telephone":"+43 7259 2421","facilities":["tobacco","high_speed_pump","truck_suitable_site","toilet","accepts_routex_cards","reminder_service","open_saturday","open_sunday"],"products":["ad_blue_cannister","diesel_on","ultimate","ultimate_diesel","ultimate_unleaded","unleaded_95"],"website":null,"watchlist_id":null,"formatted_address":"Steyrerstraße 29\n4522\nSierning","channel_of_trade":null},{"id":"AT-627","name":"Spratzern, Mariazellerstr. 182","lat":48.1792415,"lng":15.6155487,"site_brand":"bp","country_code":"AT","address":"Mariazellerstraße 182","city":"Spratzern","state":null,"postcode":"3106","telephone":"+43 2742 74960","facilities":["open_24_hours","tobacco","car_wash","high_speed_pump","truck_suitable_site","toilet","merkur","shop","bakery_bistro","wild_bean_cafe","accepts_routex_cards","accepts_toll_payments","reminder_service","open_saturday","open_sunday"],"products":["ad_blue_cannister","ad_blue_pump","diesel_on","ultimate","ultimate_diesel","ultimate_unleaded","unleaded_95","ad_blue"],"website":null,"watchlist_id":null,"formatted_address":"Mariazellerstraße 182\n3106\nSpratzern","channel_of_trade":null},{"id":"AT-639","name":"St. Martin im Muehlkreis, Adsdorf 13","lat":48.4338,"lng":14.0433,"site_brand":"bp","country_code":"AT","address":"Adsdorf 13","city":"St. Martin im Mühlkreis","state":null,"postcode":"4113","telephone":"+43 7232 22350","facilities":["open_24_hours","tobacco","high_speed_pump","truck_suitable_site","toilet","shop","accepts_routex_cards","accepts_toll_payments","reminder_service","open_saturday","open_sunday"],"products":["ad_blue_cannister","ad_blue_pump","diesel_on","ultimate","ultimate_diesel","ultimate_unleaded","unleaded_95","ad_blue"],"website":null,"watchlist_id":null,"formatted_address":"Adsdorf 13\n4113\nSt. Martin im Mühlkreis","channel_of_trade":null},{"id":"AT-642","name":"Stockerau, Pragerstr./Hornerstr.","lat":48.3859492,"lng":16.1987658,"site_brand":"bp","country_code":"AT","address":"Pragerstraße/Hornerstraße","city":"Stockerau","state":null,"postcode":"2000","telephone":"+43 2266 62438","facilities":["tobacco","car_wash","high_speed_pump","truck_suitable_site","toilet","bakery_bistro","accepts_routex_cards","accepts_toll_payments","reminder_service","open_saturday","open_sunday"],"products":["ad_blue_cannister","diesel_on","ultimate","ultimate_diesel","ultimate_unleaded","unleaded_95"],"website":null,"watchlist_id":null,"formatted_address":"Pragerstraße/Hornerstraße\n2000\nStockerau","channel_of_trade":null},{"id":"AT-654","name":"St. Ulrich/Garsten, Eisenstr. 85","lat":48.0011,"lng":14.4104,"site_brand":"bp","country_code":"AT","address":"Eisenstraße 85","city":"St. Ulrich/Garsten","state":null,"postcode":"4451","telephone":"+43 7252 54161","facilities":["tobacco","car_wash","high_speed_pump","truck_suitable_site","toilet","shop","wild_bean_cafe","accepts_routex_cards","accepts_toll_payments","reminder_service","open_saturday","open_sunday"],"products":["ad_blue_cannister","diesel_on","ultimate","ultimate_diesel","ultimate_unleaded","unleaded_95"],"website":null,"watchlist_id":null,"formatted_address":"Eisenstraße 85\n4451\nSt. Ulrich/Garsten","channel_of_trade":null},{"id":"AT-655","name":"St. Valentin, Werkstr. 4","lat":48.171167,"lng":14.5123446,"site_brand":"bp","country_code":"AT","address":"Werkstraße 4","city":"St. Valentin","state":null,"postcode":"4300","telephone":"+43 7435 52224","facilities":["tobacco","car_wash","toilet","shop","accepts_routex_cards","accepts_toll_payments","reminder_service","open_saturday","open_sunday"],"products":["ad_blue_cannister","diesel_on","ultimate","ultimate_diesel","ultimate_unleaded","unleaded_95"],"website":null,"watchlist_id":null,"formatted_address":"Werkstraße 4\n4300\nSt. Valentin","channel_of_trade":null},{"id":"AT-673","name":"Grein, Ufer 4","lat":48.2229,"lng":14.8503,"site_brand":"bp","country_code":"AT","address":"Ufer 4","city":"Grein","state":null,"postcode":"4360","telephone":"","facilities":["tobacco","car_wash","high_speed_pump","truck_suitable_site","toilet","shop","bakery_bistro","bistro","accepts_routex_cards","accepts_toll_payments","reminder_service","open_saturday","open_sunday"],"products":["ad_blue_cannister","diesel_on","ultimate","ultimate_diesel","ultimate_unleaded","unleaded_95"],"website":null,"watchlist_id":null,"formatted_address":"Ufer 4\n4360\nGrein","channel_of_trade":null},{"id":"AT-702","name":"Wien 12, Altmannsdorferstr. 94","lat":48.162186,"lng":16.3172537,"site_brand":"bp","country_code":"AT","address":"Altmannsdorferstraße 94","city":"Wien","state":null,"postcode":"1120","telephone":"+43 1 8043718","facilities":["open_24_hours","tobacco","high_speed_pump","truck_suitable_site","toilet","merkur","shop","bakery_bistro","wild_bean_cafe","accepts_routex_cards","accepts_toll_payments","reminder_service","open_saturday","open_sunday"],"products":["ad_blue_cannister","diesel_on","ultimate","ultimate_diesel","ultimate_unleaded","unleaded_95"],"website":null,"watchlist_id":null,"formatted_address":"Altmannsdorferstraße 94\n1120\nWien","channel_of_trade":null},{"id":"AT-703","name":"Wien 12, Altmannsdorferstr. 117","lat":48.1609269,"lng":16.3186078,"site_brand":"bp","country_code":"AT","address":"Altmannsdorferstraße 117","city":"Wien","state":null,"postcode":"1120","telephone":"+43 1 6678737","facilities":["open_24_hours","tobacco","high_speed_pump","truck_suitable_site","toilet","merkur","shop","bakery_bistro","wild_bean_cafe","accepts_routex_cards","accepts_toll_payments","reminder_service","open_saturday","open_sunday"],"products":["ad_blue_cannister","diesel_on","ultimate","ultimate_diesel","ultimate_unleaded","unleaded_95"],"website":null,"watchlist_id":null,"formatted_address":"Altmannsdorferstraße 117\n1120\nWien","channel_of_trade":null},{"id":"AT-706","name":"Wien 03, Arsenalstr. 5B","lat":48.1777,"lng":16.3929,"site_brand":"bp","country_code":"AT","address":"Arsenalstraße 5b","city":"Wien","state":null,"postcode":"1030","telephone":"+43 1 7982552","facilities":["open_24_hours","tobacco","car_wash","high_speed_pump","truck_suitable_site","toilet","shop","bakery_bistro","wild_bean_cafe","accepts_routex_cards","accepts_toll_payments","reminder_service","open_saturday","open_sunday"],"products":["ad_blue_cannister","diesel_on","ultimate","ultimate_diesel","ultimate_unleaded","unleaded_95"],"website":null,"watchlist_id":null,"formatted_address":"Arsenalstraße 5b\n1030\nWien","channel_of_trade":null},{"id":"AT-707","name":"Wien 21, Bruennerstr. 57A","lat":48.267139,"lng":16.402564,"site_brand":"bp","country_code":"AT","address":"Brünnerstraße 57c","city":"Wien","state":null,"postcode":"1210","telephone":"+43 1 2782239","facilities":["open_24_hours","tobacco","car_wash","high_speed_pump","truck_suitable_site","toilet","shop","bakery_bistro","wild_bean_cafe","accepts_routex_cards","accepts_toll_payments","reminder_service","open_saturday","open_sunday"],"products":["ad_blue_cannister","diesel_on","ultimate","ultimate_diesel","ultimate_unleaded","unleaded_95"],"website":null,"watchlist_id":null,"formatted_address":"Brünnerstraße 57c\n1210\nWien","channel_of_trade":null},{"id":"DE-19120400","name":"Franziska Bauer","lat":48.654014,"lng":13.620601,"site_brand":"aral","country_code":"DE","address":"Josef-Greschniok-Straße 1","city":"Hauzenberg","state":null,"postcode":"94051","telephone":"+49 8586 1342","facilities":["car_wash","jet_wash","super_wash","shop","pay_at_pump_supported","outdoor_payment_terminal","loyalty","special_car_wash","vda","open_saturday","open_sunday","ryd"],"products":["ultimate","ultimate_diesel","super_e5","e10"],"website":"https://tankstelle.aral.de/tankstelle/19120400","watchlist_id":"19120400","formatted_address":"Josef-Greschniok-Straße 1\n94051\nHauzenberg","channel_of_trade":"DODO"},{"id":"AT-720","name":"Wien 21, Einzingerstr. 2","lat":48.2825,"lng":16.3799,"site_brand":"bp","country_code":"AT","address":"Einzingergasse 2","city":"Wien","state":null,"postcode":"1210","telephone":"+43 1 2704191","facilities":["open_24_hours","tobacco","car_wash","high_speed_pump","truck_suitable_site","toilet","merkur","shop","bakery_bistro","wild_bean_cafe","accepts_routex_cards","accepts_toll_payments","reminder_service","open_saturday","open_sunday"],"products":["ad_blue_cannister","diesel_on","ultimate","ultimate_diesel","ultimate_unleaded","unleaded_95"],"website":null,"watchlist_id":null,"formatted_address":"Einzingergasse 2\n1210\nWien","channel_of_trade":null},{"id":"AT-722","name":"Wien 03, Erdbergstr. 184","lat":48.193174,"lng":16.410318,"site_brand":"bp","country_code":"AT","address":"Erdbergstraße 184","city":"Wien","state":null,"postcode":"1030","telephone":"+43 1 7963275","facilities":["open_24_hours","tobacco","car_wash","toilet","shop","wild_bean_cafe","accepts_routex_cards","reminder_service","open_saturday","open_sunday"],"products":["ad_blue_cannister","ad_blue_pump","diesel_on","ultimate","ultimate_diesel","ultimate_unleaded","unleaded_95","ad_blue"],"website":null,"watchlist_id":null,"formatted_address":"Erdbergstraße 184\n1030\nWien","channel_of_trade":null},{"id":"AT-723","name":"Wien 22, Erzherzog Karlstr. 253","lat":48.2206,"lng":16.4799,"site_brand":"bp","country_code":"AT","address":"Erzherzog-Karl-Straße 253","city":"Wien","state":null,"postcode":"1220","telephone":"+43 1 2821480","facilities":["tobacco","car_wash","high_speed_pump","truck_suitable_site","toilet","shop","bakery_bistro","wild_bean_cafe","accepts_routex_cards","accepts_toll_payments","reminder_service","open_saturday","open_sunday"],"products":["ad_blue_cannister","diesel_on","ultimate","ultimate_diesel","ultimate_unleaded","unleaded_95"],"website":null,"watchlist_id":null,"formatted_address":"Erzherzog-Karl-Straße 253\n1220\nWien","channel_of_trade":null},{"id":"AT-724","name":"Wien 12, Am Fasangarten 9","lat":48.1708611,"lng":16.305914,"site_brand":"bp","country_code":"AT","address":"Am Fasangarten 9","city":"Wien","state":null,"postcode":"1120","telephone":"+43 1 8135374","facilities":["tobacco","car_wash","high_speed_pump","truck_suitable_site","toilet","shop","bakery_bistro","wild_bean_cafe","accepts_routex_cards","accepts_toll_payments","reminder_service","open_saturday","open_sunday"],"products":["ad_blue_cannister","diesel_on","truck_diesel","ultimate","ultimate_diesel","ultimate_unleaded","unleaded_95"],"website":null,"watchlist_id":null,"formatted_address":"Am Fasangarten 9\n1120\nWien","channel_of_trade":null},{"id":"AT-725","name":"Wien 03, Franzosengraben 18","lat":48.1868885,"lng":16.4129331,"site_brand":"bp","country_code":"AT","address":"Franzosengraben","city":"Wien","state":null,"postcode":"1030","telephone":"+43 676 9209718","facilities":["tobacco","high_speed_pump","truck_suitable_site","toilet","merkur","shop","bakery_bistro","wild_bean_cafe","accepts_routex_cards","accepts_toll_payments","reminder_service","open_saturday","open_sunday"],"products":["ad_blue_cannister","ad_blue_pump","diesel_on","ultimate","ultimate_diesel","ultimate_unleaded","unleaded_95","ad_blue"],"website":null,"watchlist_id":null,"formatted_address":"Franzosengraben\n1030\nWien","channel_of_trade":null},{"id":"AT-726","name":"Wien 01, Franz Josefskai 17/Morzinpl.","lat":48.212817,"lng":16.375256,"site_brand":"bp","country_code":"AT","address":"Franz Josefskai/Morzinpl","city":"Wien","state":null,"postcode":"1010","telephone":"+43 1 5337398","facilities":["tobacco","high_speed_pump","truck_suitable_site","toilet","shop","bakery_bistro","wild_bean_cafe","accepts_routex_cards","accepts_toll_payments","reminder_service","open_saturday","open_sunday"],"products":["ad_blue_cannister","diesel_on","ultimate","ultimate_diesel","ultimate_unleaded","unleaded_95"],"website":null,"watchlist_id":null,"formatted_address":"Franz Josefskai/Morzinpl\n1010\nWien","channel_of_trade":null},{"id":"AT-727","name":"Wien 16, Gablenzgasse 72","lat":48.2059,"lng":16.3218,"site_brand":"bp","country_code":"AT","address":"Gablenzgasse 72","city":"Wien","state":null,"postcode":"1160","telephone":"+43 1 4921006","facilities":["tobacco","high_speed_pump","truck_suitable_site","toilet","merkur","shop","bakery_bistro","wild_bean_cafe","accepts_routex_cards","reminder_service","open_saturday","open_sunday"],"products":["ad_blue_cannister","diesel_on","ultimate","ultimate_diesel","ultimate_unleaded","unleaded_95"],"website":null,"watchlist_id":null,"formatted_address":"Gablenzgasse 72\n1160\nWien","channel_of_trade":null},{"id":"AT-728","name":"Wien 12, Gaudenzdorfer Guertel 77","lat":48.187575,"lng":16.339478,"site_brand":"bp","country_code":"AT","address":"Gaudenzdorfer Gürtel 75","city":"Wien","state":null,"postcode":"1120","telephone":"+43 1 8155177","facilities":["open_24_hours","tobacco","high_speed_pump","truck_suitable_site","toilet","merkur","shop","bakery_bistro","wild_bean_cafe","accepts_routex_cards","accepts_toll_payments","reminder_service","open_saturday","open_sunday"],"products":["ad_blue_cannister","diesel_on","ultimate","ultimate_diesel","ultimate_unleaded","unleaded_95"],"website":null,"watchlist_id":null,"formatted_address":"Gaudenzdorfer Gürtel 75\n1120\nWien","channel_of_trade":null},{"id":"AT-734","name":"Wien 17, Hernalser Hauptstr. 32-34","lat":48.2171142,"lng":16.3382813,"site_brand":"bp","country_code":"AT","address":"Hernalser Hauptstraße 32-34","city":"Wien","state":null,"postcode":"1170","telephone":"+43 1 4064649","facilities":["tobacco","car_wash","high_speed_pump","truck_suitable_site","toilet","merkur","shop","bakery_bistro","wild_bean_cafe","accepts_routex_cards","accepts_toll_payments","reminder_service","open_saturday","open_sunday"],"products":["ad_blue_cannister","diesel_on","ultimate","ultimate_diesel","ultimate_unleaded","unleaded_95"],"website":null,"watchlist_id":null,"formatted_address":"Hernalser Hauptstraße 32-34\n1170\nWien","channel_of_trade":null},{"id":"AT-735","name":"Wien 20, Handelskai 90","lat":48.2431,"lng":16.3841,"site_brand":"bp","country_code":"AT","address":"Handelskai 90","city":"Wien","state":null,"postcode":"1200","telephone":"0800223350","facilities":["accepts_routex_cards","reminder_service","open_saturday","open_sunday"],"products":["diesel_on","unleaded_95"],"website":null,"watchlist_id":null,"formatted_address":"Handelskai 90\n1200\nWien","channel_of_trade":null},{"id":"AT-737","name":"Wien 02, Handelskai 276-280/Offbg.","lat":48.216659,"lng":16.416943,"site_brand":"bp","country_code":"AT","address":"Handelskai 276-280","city":"Wien","state":null,"postcode":"1020","telephone":"+43 676 9209714","facilities":["open_24_hours","tobacco","car_wash","high_speed_pump","truck_suitable_site","toilet","merkur","shop","bakery_bistro","wild_bean_cafe","accepts_routex_cards","accepts_toll_payments","reminder_service","open_saturday","open_sunday"],"products":["ad_blue_cannister","diesel_on","ultimate","ultimate_diesel","ultimate_unleaded","unleaded_95"],"website":null,"watchlist_id":null,"formatted_address":"Handelskai 276-280\n1020\nWien","channel_of_trade":null},{"id":"AT-738","name":"Wien 14, Hadikgasse 252/Kefergasse","lat":48.1927411,"lng":16.2775969,"site_brand":"bp","country_code":"AT","address":"Hadikgasse/Kefergasse","city":"Wien","state":null,"postcode":"1140","telephone":"+43 1 9141238","facilities":["open_24_hours","tobacco","car_wash","truck_suitable_site","toilet","merkur","shop","bakery_bistro","wild_bean_cafe","accepts_routex_cards","accepts_toll_payments","reminder_service","open_saturday","open_sunday"],"products":["ad_blue_cannister","diesel_on","ultimate","ultimate_diesel","ultimate_unleaded","unleaded_95"],"website":null,"watchlist_id":null,"formatted_address":"Hadikgasse/Kefergasse\n1140\nWien","channel_of_trade":null},{"id":"AT-739","name":"Wien 19, Heiligenstaedterstr. 77","lat":48.2440263,"lng":16.3615186,"site_brand":"bp","country_code":"AT","address":"Heiligenstädterstraße 77","city":"Wien","state":null,"postcode":"1190","telephone":"+43 1 3681494","facilities":["open_24_hours","tobacco","car_wash","high_speed_pump","truck_suitable_site","toilet","merkur","shop","bakery_bistro","wild_bean_cafe","accepts_routex_cards","accepts_toll_payments","reminder_service","open_saturday","open_sunday"],"products":["ad_blue_cannister","diesel_on","ultimate","ultimate_diesel","ultimate_unleaded","unleaded_95"],"website":null,"watchlist_id":null,"formatted_address":"Heiligenstädterstraße 77\n1190\nWien","channel_of_trade":null},{"id":"AT-742","name":"Wien 13, Hietz. Kai 133-135","lat":48.1915,"lng":16.2798,"site_brand":"bp","country_code":"AT","address":"Hietzinger Kai 133-135","city":"Wien","state":null,"postcode":"1130","telephone":"+43 1 8771451","facilities":["open_24_hours","tobacco","car_wash","high_speed_pump","truck_suitable_site","toilet","merkur","shop","bakery_bistro","wild_bean_cafe","accepts_routex_cards","accepts_toll_payments","reminder_service","open_saturday","open_sunday"],"products":["ad_blue_cannister","diesel_on","ultimate","ultimate_diesel","ultimate_unleaded","unleaded_95"],"website":null,"watchlist_id":null,"formatted_address":"Hietzinger Kai 133-135\n1130\nWien","channel_of_trade":null},{"id":"AT-744","name":"Wien 11, Kaiser Ebersdorfer Str. 248-250","lat":48.1596809,"lng":16.4577638,"site_brand":"bp","country_code":"AT","address":"Kaiser Ebersdorferstraße 248-250","city":"Wien","state":null,"postcode":"1110","telephone":"+43 676 5606735","facilities":["tobacco","car_wash","high_speed_pump","truck_suitable_site","toilet","merkur","shop","bakery_bistro","wild_bean_cafe","accepts_routex_cards","accepts_toll_payments","reminder_service","open_saturday","open_sunday"],"products":["ad_blue_cannister","diesel_on","ultimate","ultimate_diesel","ultimate_unleaded","unleaded_95"],"website":null,"watchlist_id":null,"formatted_address":"Kaiser Ebersdorferstraße 248-250\n1110\nWien","channel_of_trade":null},{"id":"AT-746","name":"Wien 19, Krottenbachstr. 17","lat":48.240355,"lng":16.341965,"site_brand":"bp","country_code":"AT","address":"Krottenbachstraße 17","city":"Wien","state":null,"postcode":"1190","telephone":"+43 1 3681379","facilities":["tobacco","high_speed_pump","truck_suitable_site","toilet","merkur","shop","bakery_bistro","wild_bean_cafe","accepts_routex_cards","accepts_toll_payments","reminder_service","open_saturday","open_sunday"],"products":["ad_blue_cannister","diesel_on","ultimate","ultimate_diesel","ultimate_unleaded","unleaded_95"],"website":null,"watchlist_id":null,"formatted_address":"Krottenbachstraße 17\n1190\nWien","channel_of_trade":null},{"id":"AT-748","name":"Wien 10, Laxenburgerstr. 2A","lat":48.183289,"lng":16.373414,"site_brand":"bp","country_code":"AT","address":"Laxenburgerstraße","city":"Wien","state":null,"postcode":"1100","telephone":"+43 1 6044132","facilities":["open_24_hours","tobacco","car_wash","high_speed_pump","truck_suitable_site","toilet","shop","bakery_bistro","wild_bean_cafe","accepts_routex_cards","accepts_toll_payments","reminder_service","open_saturday","open_sunday"],"products":["ad_blue_cannister","diesel_on","ultimate","ultimate_diesel","ultimate_unleaded","unleaded_95"],"website":null,"watchlist_id":null,"formatted_address":"Laxenburgerstraße\n1100\nWien","channel_of_trade":null},{"id":"AT-751","name":"Wien 06, Linke Wienzeile 90-92","lat":48.1948633,"lng":16.3537291,"site_brand":"bp","country_code":"AT","address":"Linke Wienzeile 90-92","city":"Wien","state":null,"postcode":"1060","telephone":"+43 1 5856962","facilities":["tobacco","high_speed_pump","truck_suitable_site","toilet","shop","bakery_bistro","wild_bean_cafe","accepts_routex_cards","accepts_toll_payments","reminder_service","open_saturday","open_sunday"],"products":["ad_blue_cannister","diesel_on","ultimate","ultimate_diesel","ultimate_unleaded","unleaded_95"],"website":null,"watchlist_id":null,"formatted_address":"Linke Wienzeile 90-92\n1060\nWien","channel_of_trade":null},{"id":"AT-752","name":"Wien 14, Linzerstr. 135-137","lat":48.1934,"lng":16.3017,"site_brand":"bp","country_code":"AT","address":"Linzer Straße 135-137","city":"Wien","state":null,"postcode":"1140","telephone":"+43 1 9854327","facilities":["tobacco","car_wash","high_speed_pump","truck_suitable_site","toilet","merkur","shop","bakery_bistro","wild_bean_cafe","accepts_routex_cards","accepts_toll_payments","reminder_service","open_saturday","open_sunday"],"products":["ad_blue_cannister","diesel_on","ultimate","ultimate_diesel","ultimate_unleaded","unleaded_95"],"website":null,"watchlist_id":null,"formatted_address":"Linzer Straße 135-137\n1140\nWien","channel_of_trade":null},{"id":"AT-754","name":"Wien 05, Margaretenguertel 43-45","lat":48.1798,"lng":16.3517,"site_brand":"bp","country_code":"AT","address":"Margaretengürtel 43-45","city":"Wien","state":null,"postcode":"1050","telephone":"+43 1 5480292","facilities":["open_24_hours","tobacco","car_wash","high_speed_pump","truck_suitable_site","toilet","merkur","shop","bakery_bistro","wild_bean_cafe","accepts_routex_cards","accepts_toll_payments","reminder_service","open_saturday","open_sunday"],"products":["ad_blue_cannister","diesel_on","ultimate","ultimate_diesel","ultimate_unleaded","unleaded_95"],"website":null,"watchlist_id":null,"formatted_address":"Margaretengürtel 43-45\n1050\nWien","channel_of_trade":null},{"id":"AT-765","name":"Wien 10, Triesterstr. 104","lat":48.1573,"lng":16.3411,"site_brand":"bp","country_code":"AT","address":"Triesterstraße 104","city":"Wien","state":null,"postcode":"1100","telephone":"+43 1 6674134","facilities":["open_24_hours","tobacco","car_wash","high_speed_pump","truck_suitable_site","toilet","merkur","shop","bakery_bistro","wild_bean_cafe","accepts_routex_cards","accepts_toll_payments","reminder_service","open_saturday","open_sunday"],"products":["ad_blue_cannister","diesel_on","ultimate","ultimate_diesel","ultimate_unleaded","unleaded_95"],"website":null,"watchlist_id":null,"formatted_address":"Triesterstraße 104\n1100\nWien","channel_of_trade":null},{"id":"AT-766","name":"Wien 10, Triesterstr. 153","lat":48.1565,"lng":16.3416,"site_brand":"bp","country_code":"AT","address":"Triesterstraße 153","city":"Wien","state":null,"postcode":"1100","telephone":"+43 1 6167464","facilities":["open_24_hours","tobacco","car_wash","high_speed_pump","truck_suitable_site","toilet","merkur","shop","bakery_bistro","wild_bean_cafe","accepts_routex_cards","accepts_toll_payments","reminder_service","open_saturday","open_sunday"],"products":["ad_blue_cannister","ad_blue_pump","diesel_on","ultimate","ultimate_diesel","ultimate_unleaded","unleaded_95","ad_blue"],"website":null,"watchlist_id":null,"formatted_address":"Triesterstraße 153\n1100\nWien","channel_of_trade":null},{"id":"AT-768","name":"Wien 12, Wienerbergstr. 29","lat":48.1709,"lng":16.3368,"site_brand":"bp","country_code":"AT","address":"Wienerbergstraße 29","city":"Wien","state":null,"postcode":"1120","telephone":"+43 1 8156279","facilities":["tobacco","car_wash","high_speed_pump","truck_suitable_site","toilet","merkur","shop","bakery_bistro","wild_bean_cafe","accepts_routex_cards","accepts_toll_payments","reminder_service","open_saturday","open_sunday"],"products":["ad_blue_cannister","diesel_on","ultimate","ultimate_diesel","ultimate_unleaded","unleaded_95"],"website":null,"watchlist_id":null,"formatted_address":"Wienerbergstraße 29\n1120\nWien","channel_of_trade":null},{"id":"AT-769","name":"Wien 22, Wr. Nordrandstr. B302 Gew. Park Stadlau","lat":48.2476153,"lng":16.4658336,"site_brand":"bp","country_code":"AT","address":"Gewerbeparkstr.On1 Gew.Park Stadlau","city":"Wien","state":null,"postcode":"1220","telephone":"+43 1 7344935","facilities":["open_24_hours","tobacco","car_wash","high_speed_pump","truck_parking","truck_suitable_site","toilet","shop","bakery_bistro","wild_bean_cafe","accepts_routex_cards","accepts_toll_payments","reminder_service","open_saturday","open_sunday"],"products":["ad_blue_cannister","ad_blue_pump","diesel_on","ultimate","ultimate_diesel","ultimate_unleaded","unleaded_95","ad_blue"],"website":null,"watchlist_id":null,"formatted_address":"Gewerbeparkstr.On1 Gew.Park Stadlau\n1220\nWien","channel_of_trade":null},{"id":"AT-770","name":"Wien 11, Zinnergasse 4","lat":48.1612,"lng":16.4715,"site_brand":"bp","country_code":"AT","address":"Zinnergasse 4","city":"Wien","state":null,"postcode":"1110","telephone":"+43 1 7676404","facilities":["tobacco","car_wash","high_speed_pump","truck_suitable_site","toilet","shop","bakery_bistro","wild_bean_cafe","accepts_routex_cards","accepts_toll_payments","reminder_service","open_saturday","open_sunday"],"products":["ad_blue_cannister","diesel_on","ultimate","ultimate_diesel","ultimate_unleaded","unleaded_95"],"website":null,"watchlist_id":null,"formatted_address":"Zinnergasse 4\n1110\nWien","channel_of_trade":null},{"id":"AT-771","name":"Wieselburg, Zur Autobahn 2","lat":48.135225,"lng":15.141678,"site_brand":"bp","country_code":"AT","address":"Zur Autobahn 2","city":"Wieselburg","state":null,"postcode":"3250","telephone":"+43 7416 58788","facilities":["tobacco","car_wash","high_speed_pump","truck_suitable_site","toilet","shop","bakery_bistro","wild_bean_cafe","accepts_routex_cards","accepts_toll_payments","reminder_service","open_saturday","open_sunday"],"products":["ad_blue_cannister","diesel_on","ultimate","ultimate_diesel","ultimate_unleaded","unleaded_95"],"website":null,"watchlist_id":null,"formatted_address":"Zur Autobahn 2\n3250\nWieselburg","channel_of_trade":null},{"id":"AT-772","name":"Linz-Auhof, Altenberger Str. 7","lat":48.3316879,"lng":14.3173009,"site_brand":"bp","country_code":"AT","address":"Altenberger Straße 7","city":"Linz-Auhof","state":null,"postcode":"4040","telephone":"+43 732 245847","facilities":["open_24_hours","tobacco","car_wash","high_speed_pump","truck_suitable_site","toilet","merkur","shop","wild_bean_cafe","accepts_routex_cards","accepts_toll_payments","reminder_service","open_saturday","open_sunday"],"products":["ad_blue_cannister","diesel_on","ultimate","ultimate_diesel","ultimate_unleaded","unleaded_95"],"website":null,"watchlist_id":null,"formatted_address":"Altenberger Straße 7\n4040\nLinz-Auhof","channel_of_trade":null},{"id":"AT-778","name":"Woellersdorf, Autobahnzubringer","lat":47.859765,"lng":16.180752,"site_brand":"bp","country_code":"AT","address":"Bundesstraße 21, 406","city":"Wöllersdorf","state":null,"postcode":"2752","telephone":"+43 2633 42822","facilities":["tobacco","high_speed_pump","truck_suitable_site","toilet","shop","bakery_bistro","bistro","accepts_routex_cards","accepts_toll_payments","reminder_service","open_saturday","open_sunday"],"products":["ad_blue_cannister","diesel_on","ultimate","ultimate_diesel","ultimate_unleaded","unleaded_95"],"website":null,"watchlist_id":null,"formatted_address":"Bundesstraße 21, 406\n2752\nWöllersdorf","channel_of_trade":null},{"id":"AT-781","name":"Wr. Neudorf, IZ Sued II","lat":48.0788244,"lng":16.323924,"site_brand":"bp","country_code":"AT","address":"Industriezentrum Süd II","city":"Wiener Neudorf","state":null,"postcode":"2351","telephone":"+43 2236 62430","facilities":["tobacco","car_wash","high_speed_pump","truck_suitable_site","toilet","shop","bakery_bistro","wild_bean_cafe","accepts_routex_cards","accepts_toll_payments","reminder_service","open_saturday","open_sunday"],"products":["ad_blue_cannister","ad_blue_pump","diesel_on","ultimate","ultimate_diesel","ultimate_unleaded","unleaded_95","ad_blue"],"website":null,"watchlist_id":null,"formatted_address":"Industriezentrum Süd II\n2351\nWiener Neudorf","channel_of_trade":null},{"id":"AT-784","name":"Ybbsitz, Alte Poststr. 23","lat":47.9486638,"lng":14.8964086,"site_brand":"bp","country_code":"AT","address":"Alte Poststraße 25","city":"Ybbsitz","state":null,"postcode":"3341","telephone":"+43 7443 86514","facilities":["open_24_hours","tobacco","car_wash","high_speed_pump","truck_suitable_site","toilet","shop","accepts_routex_cards","reminder_service","open_saturday","open_sunday"],"products":["ad_blue_cannister","diesel_on","ultimate","ultimate_diesel","ultimate_unleaded","unleaded_95"],"website":null,"watchlist_id":null,"formatted_address":"Alte Poststraße 25\n3341\nYbbsitz","channel_of_trade":null},{"id":"AT-7070","name":"Traun, Kremstal Bundesstr. 76","lat":48.2271886,"lng":14.2343832,"site_brand":"bp","country_code":"AT","address":"Kremstal Bundestraße 76","city":"Traun","state":null,"postcode":"4050","telephone":"+43 7229 61291","facilities":["open_24_hours","tobacco","car_wash","high_speed_pump","truck_suitable_site","toilet","shop","wild_bean_cafe","accepts_routex_cards","accepts_toll_payments","reminder_service","open_saturday","open_sunday"],"products":["ad_blue_cannister","diesel_on","ultimate","ultimate_diesel","ultimate_unleaded","unleaded_95"],"website":null,"watchlist_id":null,"formatted_address":"Kremstal Bundestraße 76\n4050\nTraun","channel_of_trade":null},{"id":"AT-8758","name":"Schwechat-Flughafen, Ausfahrtsstr. 1","lat":48.124809,"lng":16.561996,"site_brand":"bp","country_code":"AT","address":"Ausfahrtsstraße","city":"Schwechat-Flughafen","state":null,"postcode":"1300","telephone":"+43 1 700732618","facilities":["open_24_hours","tobacco","car_wash","high_speed_pump","truck_suitable_site","toilet","shop","bakery_bistro","wild_bean_cafe","accepts_routex_cards","accepts_toll_payments","reminder_service","open_saturday","open_sunday"],"products":["ad_blue_cannister","diesel_on","ultimate","ultimate_diesel","ultimate_unleaded","unleaded_95"],"website":null,"watchlist_id":null,"formatted_address":"Ausfahrtsstraße\n1300\nSchwechat-Flughafen","channel_of_trade":null},{"id":"AT-8955","name":"Natschbach, Schnellstr. S6","lat":47.7067365,"lng":16.102159,"site_brand":"bp","country_code":"AT","address":"Schnellstraße S 6","city":"Natschbach","state":null,"postcode":"2620","telephone":"+43 2635 69714","facilities":["open_24_hours","tobacco","high_speed_pump","truck_suitable_site","toilet","bakery_bistro","accepts_routex_cards","accepts_toll_payments","reminder_service","open_saturday","open_sunday"],"products":["ad_blue_cannister","diesel_on","ultimate","ultimate_diesel","ultimate_unleaded","unleaded_95"],"website":null,"watchlist_id":null,"formatted_address":"Schnellstraße S 6\n2620\nNatschbach","channel_of_trade":null},{"id":"AT-8956","name":"Sattledt","lat":48.0670337,"lng":14.033948,"site_brand":"bp","country_code":"AT","address":"Voralpenkreuz A8","city":"Sattledt/Voralpenkreuz","state":null,"postcode":"4642","telephone":"+43 7244 20189","facilities":["open_24_hours","tobacco","high_speed_pump","truck_parking","truck_suitable_site","toilet","wifi","motorway_site","shop","bakery_bistro","restaurant","wild_bean_cafe","accepts_routex_cards","accepts_toll_payments","reminder_service","open_saturday","open_sunday"],"products":["ad_blue_cannister","ad_blue_pump","diesel_on","ultimate","ultimate_diesel","ultimate_unleaded","unleaded_95","ad_blue"],"website":null,"watchlist_id":null,"formatted_address":"Voralpenkreuz A8\n4642\nSattledt/Voralpenkreuz","channel_of_trade":null},{"id":"AT-8957","name":"St. Poelten, Mariazellerstr. 264","lat":48.1574248,"lng":15.6142557,"site_brand":"bp","country_code":"AT","address":"Mariazeller Straße 264","city":"St. Pölten","state":null,"postcode":"3100","telephone":"+43 2742 883738","facilities":["tobacco","car_wash","high_speed_pump","truck_suitable_site","toilet","shop","bakery_bistro","wild_bean_cafe","accepts_routex_cards","accepts_toll_payments","reminder_service","open_saturday","open_sunday"],"products":["ad_blue_cannister","diesel_on","ultimate","ultimate_diesel","ultimate_unleaded","unleaded_95"],"website":null,"watchlist_id":null,"formatted_address":"Mariazeller Straße 264\n3100\nSt. Pölten","channel_of_trade":null},{"id":"AT-8961","name":"Voellerndorf Truck-only, A1","lat":48.176044,"lng":15.556898,"site_brand":"bp","country_code":"AT","address":"An Der Raststation-Lkw","city":"Völlerndorf/St.Pölten","state":null,"postcode":"3385","telephone":"0800223350","facilities":["open_24_hours","high_speed_pump","truck_parking","truck_suitable_site","toilet","motorway_site","shop","bakery_bistro","bistro","restaurant","accepts_routex_cards","reminder_service","open_saturday","open_sunday"],"products":["ad_blue_pump","diesel_on","hvo","ad_blue"],"website":null,"watchlist_id":null,"formatted_address":"An Der Raststation-Lkw\n3385\nVöllerndorf/St.Pölten","channel_of_trade":null},{"id":"AT-9833","name":"Pressbaum, Hauptstr. 54","lat":48.1803,"lng":16.078,"site_brand":"bp","country_code":"AT","address":"Hauptstraße 54","city":"Pressbaum","state":null,"postcode":"3021","telephone":"+43 2233 52543","facilities":["tobacco","car_wash","high_speed_pump","truck_suitable_site","toilet","merkur","shop","bakery_bistro","restaurant","wild_bean_cafe","accepts_routex_cards","accepts_toll_payments","reminder_service","open_saturday","open_sunday"],"products":["ad_blue_cannister","diesel_on","ultimate","ultimate_diesel","ultimate_unleaded","unleaded_95"],"website":null,"watchlist_id":null,"formatted_address":"Hauptstraße 54\n3021\nPressbaum","channel_of_trade":null},{"id":"AT-9836","name":"Traiskirchen, Wiener Str. 58","lat":48.021232,"lng":16.297963,"site_brand":"bp","country_code":"AT","address":"Wiener Straße 58","city":"Traiskirchen","state":null,"postcode":"2514","telephone":"+43 2252 52359","facilities":["tobacco","car_wash","high_speed_pump","truck_suitable_site","toilet","shop","wild_bean_cafe","accepts_routex_cards","accepts_toll_payments","reminder_service","open_saturday","open_sunday"],"products":["ad_blue_cannister","diesel_on","ultimate","ultimate_diesel","ultimate_unleaded","unleaded_95"],"website":null,"watchlist_id":null,"formatted_address":"Wiener Straße 58\n2514\nTraiskirchen","channel_of_trade":null},{"id":"AT-9850","name":"Berndorf, Leobersdorfer Str. 12","lat":47.9436,"lng":16.1115,"site_brand":"bp","country_code":"AT","address":"Leobersdorfer Straße 12","city":"Berndorf","state":null,"postcode":"2560","telephone":"+43 2672 82579","facilities":["tobacco","car_wash","high_speed_pump","truck_suitable_site","toilet","merkur","shop","bakery_bistro","wild_bean_cafe","accepts_routex_cards","accepts_toll_payments","reminder_service","open_saturday","open_sunday"],"products":["ad_blue_cannister","diesel_on","ultimate","ultimate_diesel","ultimate_unleaded","unleaded_95"],"website":null,"watchlist_id":null,"formatted_address":"Leobersdorfer Straße 12\n2560\nBerndorf","channel_of_trade":null},{"id":"AT-9851","name":"Wien 10, Triesterstr. 68","lat":48.1656,"lng":16.3465,"site_brand":"bp","country_code":"AT","address":"Triesterstraße 68","city":"Wien","state":null,"postcode":"1100","telephone":"+43 1 6676173","facilities":["open_24_hours","tobacco","car_wash","high_speed_pump","truck_suitable_site","toilet","merkur","shop","bakery_bistro","wild_bean_cafe","accepts_routex_cards","accepts_toll_payments","reminder_service","shop_open_24_hours","open_saturday","open_sunday"],"products":["ad_blue_cannister","auto_gas","diesel_on","natural_gas","ultimate","ultimate_diesel","ultimate_unleaded","unleaded_95"],"website":null,"watchlist_id":null,"formatted_address":"Triesterstraße 68\n1100\nWien","channel_of_trade":null},{"id":"AT-9861","name":"Steyrermuehl, Laakirchner Hauptstr. 43","lat":47.9893129,"lng":13.811732,"site_brand":"bp","country_code":"AT","address":"Laakirchner Hauptstraße 43","city":"Steyrermühl","state":null,"postcode":"4662","telephone":"+43 7613 2217","facilities":["tobacco","car_wash","high_speed_pump","truck_suitable_site","toilet","merkur","shop","bakery_bistro","wild_bean_cafe","accepts_routex_cards","accepts_toll_payments","reminder_service","open_saturday","open_sunday"],"products":["ad_blue_cannister","diesel_on","hvo","ultimate","ultimate_diesel","ultimate_unleaded","unleaded_95"],"website":null,"watchlist_id":null,"formatted_address":"Laakirchner Hauptstraße 43\n4662\nSteyrermühl","channel_of_trade":null},{"id":"AT-9873","name":"Voellerndorf, Autobahn, PKW","lat":48.1774881,"lng":15.5527113,"site_brand":"bp","country_code":"AT","address":"Autobahn St.Pölten-Pkw","city":"Völlerndorf/St.Pölten","state":null,"postcode":"3385","telephone":"+43 2749 2511","facilities":["open_24_hours","tobacco","high_speed_pump","truck_suitable_site","toilet","wifi","motorway_site","shop","bakery_bistro","restaurant","wild_bean_cafe","accepts_routex_cards","accepts_toll_payments","reminder_service","open_saturday","open_sunday"],"products":["ad_blue_cannister","diesel_on","ultimate","ultimate_diesel","ultimate_unleaded","unleaded_95"],"website":null,"watchlist_id":null,"formatted_address":"Autobahn St.Pölten-Pkw\n3385\nVöllerndorf/St.Pölten","channel_of_trade":null},{"id":"AT-9884","name":"Aistersheim (A8)","lat":48.1789656,"lng":13.7470789,"site_brand":"bp","country_code":"AT","address":"Innkreisautobahn A8","city":"Aistersheim","state":null,"postcode":"4676","telephone":"+43 7734 2232","facilities":["open_24_hours","tobacco","high_speed_pump","truck_parking","truck_suitable_site","toilet","wifi","motorway_site","shop","bakery_bistro","restaurant","wild_bean_cafe","accepts_routex_cards","accepts_toll_payments","reminder_service","open_saturday","open_sunday"],"products":["ad_blue_cannister","ad_blue_pump","diesel_on","hvo","ultimate","ultimate_diesel","ultimate_unleaded","unleaded_95","ad_blue"],"website":null,"watchlist_id":null,"formatted_address":"Innkreisautobahn A8\n4676\nAistersheim","channel_of_trade":null},{"id":"AT-9885","name":"Marchtrenk, Linzerstr. 62","lat":48.1914,"lng":14.1214,"site_brand":"bp","country_code":"AT","address":"Linzerstraße 62","city":"Marchtrenk","state":null,"postcode":"4614","telephone":"+43 7243 54456","facilities":["open_24_hours","tobacco","car_wash","high_speed_pump","truck_suitable_site","toilet","shop","bakery_bistro","wild_bean_cafe","accepts_routex_cards","accepts_toll_payments","reminder_service","open_saturday","open_sunday"],"products":["ad_blue_cannister","diesel_on","ultimate","ultimate_diesel","ultimate_unleaded","unleaded_95"],"website":null,"watchlist_id":null,"formatted_address":"Linzerstraße 62\n4614\nMarchtrenk","channel_of_trade":null},{"id":"AT-9891","name":"Krems, Wiener Str. 76","lat":48.415,"lng":15.6175,"site_brand":"bp","country_code":"AT","address":"Wiener Straße 76","city":"Krems","state":null,"postcode":"3500","telephone":"+43 2732 77998","facilities":["open_24_hours","tobacco","car_wash","high_speed_pump","truck_suitable_site","toilet","merkur","shop","bakery_bistro","restaurant","wild_bean_cafe","accepts_routex_cards","accepts_toll_payments","reminder_service","open_saturday","open_sunday"],"products":["ad_blue_cannister","diesel_on","ultimate","ultimate_diesel","ultimate_unleaded","unleaded_95"],"website":null,"watchlist_id":null,"formatted_address":"Wiener Straße 76\n3500\nKrems","channel_of_trade":null},{"id":"AT-9895","name":"Wien 21, Bruennerstr. 186","lat":48.2837235,"lng":16.4133932,"site_brand":"bp","country_code":"AT","address":"Brünnerstraße 186","city":"Wien","state":null,"postcode":"1210","telephone":"+43 1 2926869","facilities":["open_24_hours","tobacco","car_wash","high_speed_pump","truck_suitable_site","toilet","merkur","shop","bakery_bistro","restaurant","wild_bean_cafe","accepts_routex_cards","accepts_toll_payments","reminder_service","open_saturday","open_sunday"],"products":["ad_blue_cannister","diesel_on","ultimate","ultimate_diesel","ultimate_unleaded","unleaded_95"],"website":null,"watchlist_id":null,"formatted_address":"Brünnerstraße 186\n1210\nWien","channel_of_trade":null},{"id":"AT-9897","name":"Steyr, Ennser Str. 10A","lat":48.0543944,"lng":14.421037,"site_brand":"bp","country_code":"AT","address":"Ennser Straße 10 A","city":"Steyr","state":null,"postcode":"4400","telephone":"+43 7252 82255","facilities":["open_24_hours","tobacco","car_wash","high_speed_pump","truck_parking","truck_suitable_site","toilet","merkur","shop","bakery_bistro","restaurant","wild_bean_cafe","accepts_routex_cards","accepts_toll_payments","reminder_service","open_saturday","open_sunday"],"products":["ad_blue_cannister","diesel_on","ultimate","ultimate_diesel","ultimate_unleaded","unleaded_95"],"website":null,"watchlist_id":null,"formatted_address":"Ennser Straße 10 A\n4400\nSteyr","channel_of_trade":null},{"id":"AT-9900","name":"St. Poelten, Noe-Ring 20","lat":48.198098,"lng":15.639392,"site_brand":"bp","country_code":"AT","address":"Niederösterreichring 20","city":"St. Pölten","state":null,"postcode":"3100","telephone":"+43 2742 230033","facilities":["tobacco","car_wash","high_speed_pump","truck_suitable_site","toilet","merkur","shop","bakery_bistro","wild_bean_cafe","accepts_routex_cards","accepts_toll_payments","reminder_service","open_saturday","open_sunday"],"products":["ad_blue_cannister","diesel_on","ultimate","ultimate_diesel","ultimate_unleaded","unleaded_95"],"website":null,"watchlist_id":null,"formatted_address":"Niederösterreichring 20\n3100\nSt. Pölten","channel_of_trade":null},{"id":"AT-9901","name":"Linz, Salzburgerstr. 383","lat":48.247276,"lng":14.264803,"site_brand":"bp","country_code":"AT","address":"Salzburgerstraße 383","city":"Linz","state":null,"postcode":"4030","telephone":"+43 732 372021","facilities":["open_24_hours","tobacco","car_wash","high_speed_pump","truck_suitable_site","toilet","merkur","shop","bakery_bistro","restaurant","wild_bean_cafe","accepts_routex_cards","accepts_toll_payments","reminder_service","open_saturday","open_sunday"],"products":["ad_blue_cannister","diesel_on","ultimate","ultimate_diesel","ultimate_unleaded","unleaded_95"],"website":null,"watchlist_id":null,"formatted_address":"Salzburgerstraße 383\n4030\nLinz","channel_of_trade":null},{"id":"AT-9902","name":"Wien 10, L.V.Hoehnelgasse 11","lat":48.159663,"lng":16.3866275,"site_brand":"bp","country_code":"AT","address":"L.V.Höhnelgasse","city":"Wien","state":null,"postcode":"1100","telephone":"+43 1 6881900","facilities":["tobacco","car_wash","high_speed_pump","truck_suitable_site","toilet","shop","bakery_bistro","wild_bean_cafe","accepts_routex_cards","accepts_toll_payments","reminder_service","open_saturday","open_sunday"],"products":["ad_blue_cannister","diesel_on","ultimate","ultimate_diesel","ultimate_unleaded","unleaded_95"],"website":null,"watchlist_id":null,"formatted_address":"L.V.Höhnelgasse\n1100\nWien","channel_of_trade":null},{"id":"AT-9903","name":"Vorchdorf, Neue Landstr. 68","lat":48.0083,"lng":13.9233,"site_brand":"bp","country_code":"AT","address":"Neue Landstraße 68","city":"Vorchdorf","state":null,"postcode":"4655","telephone":"+43 7614 5360","facilities":["tobacco","car_wash","high_speed_pump","truck_suitable_site","toilet","merkur","shop","bakery_bistro","wild_bean_cafe","accepts_routex_cards","accepts_toll_payments","reminder_service","open_saturday","open_sunday"],"products":["ad_blue_cannister","diesel_on","ultimate","ultimate_diesel","ultimate_unleaded","unleaded_95"],"website":null,"watchlist_id":null,"formatted_address":"Neue Landstraße 68\n4655\nVorchdorf","channel_of_trade":null},{"id":"AT-17727","name":"Regau, Salzkammergutstrasse 8","lat":47.9841675,"lng":13.6975071,"site_brand":"bp","country_code":"AT","address":"Salzkammergut Str. 8","city":"Regau","state":null,"postcode":"4844","telephone":"+43 7672 75371","facilities":["tobacco","car_wash","high_speed_pump","truck_suitable_site","toilet","shop","accepts_routex_cards","accepts_toll_payments","reminder_service","open_saturday","open_sunday"],"products":["ad_blue_cannister","diesel_on","ultimate","ultimate_diesel","ultimate_unleaded","unleaded_95"],"website":null,"watchlist_id":null,"formatted_address":"Salzkammergut Str. 8\n4844\nRegau","channel_of_trade":null},{"id":"AT-17880","name":"Oberndorf, Wieselburger Strasse 2","lat":48.0659052,"lng":15.2158903,"site_brand":"bp","country_code":"AT","address":"Wieselburger Straße 2","city":"Oberndorf an der Melk","state":null,"postcode":"3281","telephone":"+43 7483 7000","facilities":["toilet","accepts_routex_cards","accepts_toll_payments","reminder_service","open_saturday","open_sunday"],"products":["ad_blue_cannister","diesel_on","lpg","red_diesel","unleaded_95"],"website":null,"watchlist_id":null,"formatted_address":"Wieselburger Straße 2\n3281\nOberndorf an der Melk","channel_of_trade":null},{"id":"AT-18975","name":"Kollerschlag, Falkensteinstr. 16","lat":48.6023,"lng":13.8389,"site_brand":"bp","country_code":"AT","address":"Falkensteinstraße 16","city":"Kollerschlag","state":null,"postcode":"4154","telephone":"+43 7287 752848","facilities":["open_24_hours","toilet","accepts_routex_cards","reminder_service","open_saturday","open_sunday"],"products":["ad_blue_cannister","ad_blue_pump","diesel_on","ultimate","ultimate_diesel","ultimate_unleaded","unleaded_95","ad_blue"],"website":null,"watchlist_id":null,"formatted_address":"Falkensteinstraße 16\n4154\nKollerschlag","channel_of_trade":null},{"id":"AT-19004","name":"Obergrafendorf, Hauptstr. 34","lat":48.1498,"lng":15.5495,"site_brand":"bp","country_code":"AT","address":"Hauptstraße 34","city":"Obergrafendorf","state":null,"postcode":"3200","telephone":"+43 2747 2275","facilities":["tobacco","car_wash","toilet","shop","accepts_routex_cards","accepts_toll_payments","reminder_service","open_saturday","open_sunday"],"products":["ad_blue_cannister","diesel_on","ultimate","ultimate_diesel","ultimate_unleaded","unleaded_95"],"website":null,"watchlist_id":null,"formatted_address":"Hauptstraße 34\n3200\nObergrafendorf","channel_of_trade":null},{"id":"AT-1105998879","name":"Klein Poechlarn, Wachauerstrasse 4","lat":48.21736,"lng":15.2160691,"site_brand":"bp","country_code":"AT","address":"Wachauerstraße 4","city":"Klein Pöchlarn","state":null,"postcode":"3660","telephone":"+43 7413 8008","facilities":["tobacco","car_wash","toilet","shop","accepts_routex_cards","accepts_toll_payments","reminder_service","open_saturday","open_sunday"],"products":["ad_blue_cannister","diesel_on","ultimate","ultimate_diesel","ultimate_unleaded","unleaded_95"],"website":null,"watchlist_id":null,"formatted_address":"Wachauerstraße 4\n3660\nKlein Pöchlarn","channel_of_trade":null},{"id":"AT-2043813079","name":"Persenbeug, Nibelungenstrasse 68","lat":48.1898373,"lng":15.0960731,"site_brand":"bp","country_code":"AT","address":"Nibelungenstraße 68","city":"Persenbeug","state":null,"postcode":"3680","telephone":"+43 7412 54840","facilities":["tobacco","car_wash","toilet","shop","accepts_routex_cards","accepts_toll_payments","reminder_service","open_saturday","open_sunday"],"products":["ad_blue_cannister","diesel_on","ultimate","ultimate_diesel","ultimate_unleaded","unleaded_95"],"website":null,"watchlist_id":null,"formatted_address":"Nibelungenstraße 68\n3680\nPersenbeug","channel_of_trade":null},{"id":"AT-1455784815","name":"Schwarzenberg, Schwarzenberg 168","lat":48.7362668,"lng":13.8195991,"site_brand":"bp","country_code":"AT","address":"Schwarzenberg 168","city":"Schwarzenberg am Böhmerwald","state":null,"postcode":"4164","telephone":"+43 7288 8363","facilities":["open_24_hours","toilet","shop","accepts_routex_cards","reminder_service","open_saturday","open_sunday"],"products":["ad_blue_pump","diesel_on","ultimate","ultimate_diesel","ultimate_unleaded","unleaded_95","ad_blue"],"website":null,"watchlist_id":null,"formatted_address":"Schwarzenberg 168\n4164\nSchwarzenberg am Böhmerwald","channel_of_trade":null},{"id":"AT-1587363564","name":"Mauer bei Amstetten","lat":48.0825413,"lng":14.8017456,"site_brand":"bp","country_code":"AT","address":"Hausmeninger Straße 74","city":"Mauer bei Amstetten","state":null,"postcode":"3362","telephone":"+43 7475 52619","facilities":["tobacco","car_wash","toilet","shop","accepts_routex_cards","reminder_service","open_saturday","open_sunday"],"products":["ad_blue_cannister","ad_blue_pump","diesel_on","ultimate","ultimate_diesel","ultimate_unleaded","unleaded_95","ad_blue"],"website":null,"watchlist_id":null,"formatted_address":"Hausmeninger Straße 74\n3362\nMauer bei Amstetten","channel_of_trade":null},{"id":"AT-763264043","name":"Leopoldsdorf im Marchfeld, Hauptstr. 22","lat":48.2258029,"lng":16.6952783,"site_brand":"bp","country_code":"AT","address":"Hauptstraße 22","city":"Leopoldsdorf im Marchfeld","state":null,"postcode":"2285","telephone":"+43 2216 202363","facilities":["car_wash","shop","accepts_routex_cards","accepts_toll_payments","reminder_service","open_saturday","open_sunday"],"products":["ad_blue_cannister","ad_blue_pump","diesel_on","ultimate","ultimate_diesel","ultimate_unleaded","unleaded_95","ad_blue"],"website":null,"watchlist_id":null,"formatted_address":"Hauptstraße 22\n2285\nLeopoldsdorf im Marchfeld","channel_of_trade":null},{"id":"AT-397370100","name":"Putzleinsdorf, Glotzing 20","lat":48.504476,"lng":13.877298,"site_brand":"bp","country_code":"AT","address":"Glotzing 20","city":"Putzleinsdorf","state":null,"postcode":"4134","telephone":"+43 7288 8363","facilities":["open_24_hours","accepts_routex_cards","reminder_service","open_saturday","open_sunday"],"products":["ad_blue_pump","diesel_on","ultimate","ultimate_diesel","ultimate_unleaded","unleaded_95","ad_blue"],"website":null,"watchlist_id":null,"formatted_address":"Glotzing 20\n4134\nPutzleinsdorf","channel_of_trade":null},{"id":"AT-184423823","name":"Linz, Franckstr. 17","lat":48.296395,"lng":14.308057,"site_brand":"bp","country_code":"AT","address":"Franckstraße 17","city":"Linz","state":null,"postcode":"4020","telephone":"+43 732 654562","facilities":["shop","accepts_routex_cards","accepts_toll_payments","reminder_service","open_saturday","open_sunday"],"products":["ad_blue_cannister","diesel_on","ultimate","ultimate_diesel","ultimate_unleaded","unleaded_95"],"website":null,"watchlist_id":null,"formatted_address":"Franckstraße 17\n4020\nLinz","channel_of_trade":null},{"id":"AT-1059253911","name":"Neuhofen an der Krems, Linzer Str. 41","lat":48.143874,"lng":14.2282084,"site_brand":"bp","country_code":"AT","address":"Linzer Straße 41","city":"Neuhofen an der Krems","state":null,"postcode":"4501","telephone":"+43 7227 5055","facilities":["accepts_routex_cards","accepts_toll_payments","reminder_service","open_saturday","open_sunday"],"products":["ad_blue_cannister","diesel_on","ultimate","ultimate_diesel","ultimate_unleaded","unleaded_95"],"website":null,"watchlist_id":null,"formatted_address":"Linzer Straße 41\n4501\nNeuhofen an der Krems","channel_of_trade":null},{"id":"AT-317549996","name":"Mauthausen, Dieselstr. 1","lat":48.241435,"lng":14.544579,"site_brand":"bp","country_code":"AT","address":"Dieselstraße 1","city":"Mauthausen","state":null,"postcode":"4310","telephone":"+43 7238 3320","facilities":["toilet","accepts_routex_cards","accepts_toll_payments","reminder_service","open_saturday","open_sunday"],"products":["ad_blue_cannister","diesel_on","ultimate","ultimate_diesel","ultimate_unleaded","unleaded_95"],"website":null,"watchlist_id":null,"formatted_address":"Dieselstraße 1\n4310\nMauthausen","channel_of_trade":null},{"id":"AT-703835927","name":"Perg, Naarner Str. 73","lat":48.2394955,"lng":14.6262131,"site_brand":"bp","country_code":"AT","address":"Naarner Straße 73","city":"Perg","state":null,"postcode":"4320","telephone":"+43 7262 53235","facilities":["toilet","restaurant","accepts_routex_cards","accepts_toll_payments","reminder_service","open_saturday","open_sunday"],"products":["ad_blue_cannister","diesel_on","natural_gas","ultimate","ultimate_diesel","ultimate_unleaded","unleaded_95"],"website":null,"watchlist_id":null,"formatted_address":"Naarner Straße 73\n4320\nPerg","channel_of_trade":null},{"id":"AT-1324374001","name":"Wien, Siemensstr. 105 B","lat":48.267149,"lng":16.428972,"site_brand":"bp","country_code":"AT","address":"Siemensstraße 105b","city":"Wien","state":null,"postcode":"1210","telephone":"+43 1 2580094","facilities":["toilet","shop","restaurant","accepts_routex_cards","accepts_toll_payments","reminder_service","open_saturday","open_sunday"],"products":["ad_blue_cannister","diesel_on","natural_gas","ultimate","ultimate_diesel","ultimate_unleaded","unleaded_95"],"website":null,"watchlist_id":null,"formatted_address":"Siemensstraße 105b\n1210\nWien","channel_of_trade":null},{"id":"AT-1854718375","name":"Traun, Wiener Bundesstr. 153","lat":48.2343935,"lng":14.2330226,"site_brand":"bp","country_code":"AT","address":"Wiener Bundesstraße 153","city":"Traun","state":null,"postcode":"4050","telephone":"+43 7229 73209","facilities":["open_24_hours","toilet","accepts_routex_cards","accepts_toll_payments","reminder_service","open_saturday","open_sunday"],"products":["ad_blue_cannister","ad_blue_pump","diesel_on","ultimate","ultimate_diesel","ultimate_unleaded","unleaded_95","ad_blue"],"website":null,"watchlist_id":null,"formatted_address":"Wiener Bundesstraße 153\n4050\nTraun","channel_of_trade":null},{"id":"AT-205415585","name":"Freistadt, Linzer Straße 44","lat":48.5023154,"lng":14.5016524,"site_brand":"bp","country_code":"AT","address":"Linzer Straße 44","city":"Freistadt","state":null,"postcode":"4240","telephone":"+43 7942 75096","facilities":["toilet","restaurant","accepts_routex_cards","accepts_toll_payments","reminder_service","open_saturday","open_sunday"],"products":["ad_blue_cannister","diesel_on","ultimate","ultimate_diesel","ultimate_unleaded","unleaded_95"],"website":null,"watchlist_id":null,"formatted_address":"Linzer Straße 44\n4240\nFreistadt","channel_of_trade":null},{"id":"AT-1126226571","name":"Hellmonsoedt, Linzer Str. 22","lat":48.4291267,"lng":14.2950845,"site_brand":"bp","country_code":"AT","address":"Linzer Straße 22","city":"Hellmonsödt","state":null,"postcode":"4202","telephone":"+43 7215 2428","facilities":["toilet","shop","accepts_routex_cards","accepts_toll_payments","reminder_service","open_saturday","open_sunday"],"products":["ad_blue_cannister","diesel_on","ultimate","ultimate_diesel","ultimate_unleaded","unleaded_95"],"website":null,"watchlist_id":null,"formatted_address":"Linzer Straße 22\n4202\nHellmonsödt","channel_of_trade":null},{"id":"AT-136428437","name":"20,DRESDNERSTRASSE 8","lat":48.2408,"lng":16.3746,"site_brand":"bp","country_code":"AT","address":"Dresdnerstraße 8","city":"Wien","state":null,"postcode":"1200","telephone":"+43 1 3304231","facilities":["open_24_hours","car_wash","shop","wild_bean_cafe","accepts_routex_cards","accepts_toll_payments","open_saturday","open_sunday"],"products":["ad_blue_cannister","diesel_on","ultimate","ultimate_diesel","ultimate_unleaded","unleaded_95"],"website":null,"watchlist_id":null,"formatted_address":"Dresdnerstraße 8\n1200\nWien","channel_of_trade":null},{"id":"AT-1597308149","name":"St. Martin im Muehlkreis, Windorf 10","lat":48.438227,"lng":14.037018,"site_brand":"bp","country_code":"AT","address":"Windorf 10","city":"St.Martin im Mühlkreis","state":null,"postcode":"4113","telephone":"+43 7232 2230","facilities":["toilet","restaurant","accepts_routex_cards","accepts_toll_payments","reminder_service","open_saturday","open_sunday"],"products":["ad_blue_cannister","ad_blue_pump","diesel_on","ultimate","ultimate_diesel","ultimate_unleaded","unleaded_95","ad_blue"],"website":null,"watchlist_id":null,"formatted_address":"Windorf 10\n4113\nSt.Martin im Mühlkreis","channel_of_trade":null},{"id":"AT-87249014","name":"Steyr-Gleink, Ennser Str. 95","lat":48.0819055,"lng":14.4271206,"site_brand":"bp","country_code":"AT","address":"Ennserstraße 95","city":"Steyr-Gleink","state":null,"postcode":"4407","telephone":"+43 732 664001","facilities":["toilet","accepts_routex_cards","reminder_service","open_saturday","open_sunday"],"products":["ad_blue_cannister","diesel_on","ultimate","ultimate_diesel","ultimate_unleaded","unleaded_95"],"website":null,"watchlist_id":"87249014","formatted_address":"Ennserstraße 95\n4407\nSteyr-Gleink","channel_of_trade":null},{"id":"AT-1576012949","name":"Rohrbach, Umfahrung-Sued 1","lat":48.5650573,"lng":13.9852452,"site_brand":"bp","country_code":"AT","address":"Umfahrung Süd 1","city":"Rohrbach","state":null,"postcode":"4150","telephone":"+43 7289 8939","facilities":["toilet","restaurant","accepts_routex_cards","accepts_toll_payments","reminder_service","open_saturday","open_sunday"],"products":["ad_blue_cannister","ad_blue_pump","diesel_on","ultimate","ultimate_diesel","ultimate_unleaded","unleaded_95","ad_blue"],"website":null,"watchlist_id":null,"formatted_address":"Umfahrung Süd 1\n4150\nRohrbach","channel_of_trade":null},{"id":"AT-168977531","name":"Sankt Pankraz, Sankt Pankraz 70","lat":47.7731262,"lng":14.1779956,"site_brand":"bp","country_code":"AT","address":"Sankt Pankraz 70","city":"Sankt Pankraz","state":null,"postcode":"4572","telephone":"+43 7565 2340","facilities":["open_24_hours","tobacco","high_speed_pump","truck_parking","truck_suitable_site","toilet","restaurant","accepts_routex_cards","accepts_toll_payments","reminder_service","open_saturday","open_sunday"],"products":["ad_blue_cannister","ad_blue_pump","diesel_on","ultimate","ultimate_diesel","ultimate_unleaded","unleaded_95","ad_blue"],"website":null,"watchlist_id":null,"formatted_address":"Sankt Pankraz 70\n4572\nSankt Pankraz","channel_of_trade":null},{"id":"AT-1936668538","name":"Unterweitersdorf, Radingdorf 9","lat":48.358987,"lng":14.477963,"site_brand":"bp","country_code":"AT","address":"Radingdorf 9","city":"Unterweitersdorf","state":null,"postcode":"4213","telephone":"+43 7236 20895","facilities":["open_24_hours","toilet","shop","restaurant","accepts_routex_cards","accepts_toll_payments","reminder_service","open_saturday","open_sunday"],"products":["ad_blue_cannister","ad_blue_pump","diesel_on","lpg","ultimate","ultimate_diesel","ultimate_unleaded","unleaded_95","ad_blue"],"website":null,"watchlist_id":null,"formatted_address":"Radingdorf 9\n4213\nUnterweitersdorf","channel_of_trade":null},{"id":"AT-1432732079","name":"Traiskirchen, Wiener Neustaedter Str. 134","lat":47.996178,"lng":16.298568,"site_brand":"bp","country_code":"AT","address":"Wiener Neustädter Str. 134","city":"Traiskirchen","state":null,"postcode":"2512","telephone":"+43 2252 259140","facilities":["open_24_hours","toilet","shop","restaurant","accepts_routex_cards","accepts_toll_payments","reminder_service","open_saturday","open_sunday"],"products":["ad_blue_cannister","ad_blue_pump","diesel_on","lpg","ultimate","ultimate_diesel","ultimate_unleaded","unleaded_95","ad_blue"],"website":null,"watchlist_id":null,"formatted_address":"Wiener Neustädter Str. 134\n2512\nTraiskirchen","channel_of_trade":null},{"id":"AT-2112758627","name":"Eberstalzell, Solarstr. 2","lat":48.039795,"lng":13.991393,"site_brand":"bp","country_code":"AT","address":"Solarstraße 2","city":"Eberstalzell","state":null,"postcode":"4653","telephone":"+43 7241 21389","facilities":["open_24_hours","truck_suitable_site","toilet","restaurant","accepts_routex_cards","accepts_toll_payments","reminder_service","open_saturday","open_sunday"],"products":["ad_blue_cannister","ad_blue_pump","diesel_on","ultimate","ultimate_diesel","ultimate_unleaded","unleaded_95","ad_blue"],"website":null,"watchlist_id":null,"formatted_address":"Solarstraße 2\n4653\nEberstalzell","channel_of_trade":null},{"id":"AT-1597954519","name":"Poechlarn, Reichsstr. 14","lat":48.198069,"lng":15.221268,"site_brand":"bp","country_code":"AT","address":"Reichsstraße 14","city":"Pöchlarn","state":null,"postcode":"3380","telephone":"+43 2757 20212","facilities":["open_24_hours","high_speed_pump","truck_suitable_site","toilet","shop","restaurant","accepts_routex_cards","accepts_toll_payments","reminder_service","open_saturday","open_sunday"],"products":["ad_blue_cannister","ad_blue_pump","diesel_on","lpg","natural_gas","ultimate","ultimate_diesel","ultimate_unleaded","unleaded_95","ad_blue"],"website":null,"watchlist_id":null,"formatted_address":"Reichsstraße 14\n3380\nPöchlarn","channel_of_trade":null},{"id":"AT-1815862924","name":"Tulln an der Donau, Staasdorfer Str. 1","lat":48.3261402,"lng":16.059315,"site_brand":"bp","country_code":"AT","address":"Staasdorferstraße 1","city":"Tulln","state":null,"postcode":"3430","telephone":"+43 2272 62523","facilities":["toilet","shop","restaurant","accepts_routex_cards","accepts_toll_payments","reminder_service","open_saturday","open_sunday"],"products":["ad_blue_cannister","ad_blue_pump","diesel_on","ultimate","ultimate_diesel","ultimate_unleaded","unleaded_95","ad_blue"],"website":null,"watchlist_id":null,"formatted_address":"Staasdorferstraße 1\n3430\nTulln","channel_of_trade":null},{"id":"AT-1239192424","name":"Leobersdorf, Hirtenberger Strasse 4E","lat":47.934682,"lng":16.216976,"site_brand":"bp","country_code":"AT","address":"Hirtenberger Straße 4e","city":"Leobersdorf","state":null,"postcode":"2544","telephone":"+43 2256 64606","facilities":["car_wash","shop","wild_bean_cafe","accepts_routex_cards","accepts_toll_payments","open_saturday","open_sunday"],"products":["ad_blue_cannister","ad_blue_pump","diesel_on","hvo","ultimate","ultimate_diesel","ultimate_unleaded","unleaded_95","ad_blue"],"website":null,"watchlist_id":null,"formatted_address":"Hirtenberger Straße 4e\n2544\nLeobersdorf","channel_of_trade":null},{"id":"AT-515994268","name":"Schrick, Antensee 3","lat":48.519049,"lng":16.617422,"site_brand":"bp","country_code":"AT","address":"Antensee 3","city":"Schrick","state":null,"postcode":"2191","telephone":"+43 2574 29364","facilities":["open_24_hours","shop","restaurant","accepts_routex_cards","accepts_toll_payments","reminder_service","open_saturday","open_sunday"],"products":["ad_blue_cannister","ad_blue_pump","diesel_on","lpg","ultimate","ultimate_diesel","ultimate_unleaded","unleaded_95","ad_blue"],"website":null,"watchlist_id":null,"formatted_address":"Antensee 3\n2191\nSchrick","channel_of_trade":null},{"id":"AT-1623972015","name":"Haag, Geierau 4","lat":48.2000533,"lng":13.6457734,"site_brand":"bp","country_code":"AT","address":"Geierau 4","city":"Haag","state":null,"postcode":"4680","telephone":"+43 7732 4540","facilities":["open_24_hours","high_speed_pump","truck_parking","truck_suitable_site","restaurant","accepts_routex_cards","accepts_toll_payments","reminder_service","open_saturday","open_sunday"],"products":["ad_blue_cannister","ad_blue_pump","diesel_on","lpg","ultimate","ultimate_diesel","ultimate_unleaded","unleaded_95","ad_blue"],"website":null,"watchlist_id":null,"formatted_address":"Geierau 4\n4680\nHaag","channel_of_trade":null},{"id":"AT-52828377","name":"Linz, Leonfeldner Str. 268","lat":48.3425901,"lng":14.2937563,"site_brand":"bp","country_code":"AT","address":"Leonfeldner Straße 268","city":"Linz","state":null,"postcode":"4040","telephone":"+43 732 250346","facilities":["accepts_routex_cards","accepts_toll_payments","reminder_service","open_saturday","open_sunday"],"products":["ad_blue_cannister","ad_blue_pump","diesel_on","ultimate","ultimate_diesel","ultimate_unleaded","unleaded_95","ad_blue"],"website":null,"watchlist_id":"52828377","formatted_address":"Leonfeldner Straße 268\n4040\nLinz","channel_of_trade":null},{"id":"AT-2072749127","name":"Achau, Lanzendorfer Str. 9","lat":48.0826508,"lng":16.391651,"site_brand":"bp","country_code":"AT","address":"Lanzendorfer Straße 9","city":"Achau","state":null,"postcode":"2481","telephone":"+43 2236 710698","facilities":["tobacco","accepts_routex_cards","accepts_toll_payments","reminder_service","open_saturday","open_sunday"],"products":["ad_blue_cannister","diesel_on","ultimate","ultimate_diesel","ultimate_unleaded","unleaded_95"],"website":null,"watchlist_id":null,"formatted_address":"Lanzendorfer Straße 9\n2481\nAchau","channel_of_trade":null},{"id":"AT-1172480427","name":"Linz, Stahlstr. 5","lat":48.2845255,"lng":14.3201387,"site_brand":"bp","country_code":"AT","address":"Stahlstraße 5","city":"Linz","state":null,"postcode":"4020","telephone":"+43 732 653135","facilities":["open_24_hours","high_speed_pump","truck_suitable_site","shop","accepts_routex_cards","accepts_toll_payments","open_saturday","open_sunday"],"products":["ad_blue_cannister","ad_blue_pump","diesel_on","ultimate","ultimate_diesel","ultimate_unleaded","unleaded_95","ad_blue"],"website":null,"watchlist_id":null,"formatted_address":"Stahlstraße 5\n4020\nLinz","channel_of_trade":null},{"id":"AT-1865510795","name":"Wels, Salzburger Str. 57a","lat":48.157705,"lng":14.010245,"site_brand":"bp","country_code":"AT","address":"Salzburger Straße 57a","city":"Wels","state":null,"postcode":"4600","telephone":"+43 7242 64105","facilities":["accepts_routex_cards","accepts_toll_payments","open_saturday","open_sunday"],"products":["ad_blue_cannister","diesel_on","ultimate","ultimate_diesel","ultimate_unleaded","unleaded_95"],"website":null,"watchlist_id":null,"formatted_address":"Salzburger Straße 57a\n4600\nWels","channel_of_trade":null},{"id":"AT-485588722","name":"N-KIRCHBERG/WAG,KREMSERSTR 2-4","lat":48.4307556,"lng":15.9026631,"site_brand":"bp","country_code":"AT","address":"Kremser Straße 2-4","city":"Kirchberg am Wagram","state":null,"postcode":"3470","telephone":"+43 2279 2287","facilities":["accepts_routex_cards","open_saturday","open_sunday"],"products":["ad_blue_cannister","diesel_on","ultimate","ultimate_unleaded","unleaded_95"],"website":null,"watchlist_id":null,"formatted_address":"Kremser Straße 2-4\n3470\nKirchberg am Wagram","channel_of_trade":null},{"id":"AT-1064238759","name":"O-AIGEN-SCHLAEGL, SCHL.HPT. 14","lat":48.635821,"lng":13.964236,"site_brand":"bp","country_code":"AT","address":"Schlägler Hauptstraße 14","city":"Aigen-Schlägl","state":null,"postcode":"4160","telephone":"+43 7281 629710","facilities":["accepts_routex_cards","reminder_service","open_saturday","open_sunday"],"products":["ad_blue_pump","diesel_on","ultimate","ultimate_diesel","ultimate_unleaded","unleaded_95","ad_blue"],"website":null,"watchlist_id":null,"formatted_address":"Schlägler Hauptstraße 14\n4160\nAigen-Schlägl","channel_of_trade":null},{"id":"AT-523108728","name":"N-GRESTEN, WAIDHOFNER STR. 1","lat":47.986709,"lng":15.023556,"site_brand":"bp","country_code":"AT","address":"Waidhofner Straße 1","city":"Gresten","state":null,"postcode":"3264","telephone":"+43 7487 4044","facilities":["open_24_hours","accepts_routex_cards","accepts_toll_payments","reminder_service","open_saturday","open_sunday"],"products":["diesel_on","ultimate","ultimate_diesel","ultimate_unleaded","unleaded_95"],"website":null,"watchlist_id":null,"formatted_address":"Waidhofner Straße 1\n3264\nGresten","channel_of_trade":null},{"id":"AT-1878392268","name":"GOLS, UNTERE HAUPTSTRAßE 126","lat":47.8931953,"lng":16.9185242,"site_brand":"bp","country_code":"AT","address":"Untere Hauptstraße 126","city":"Gols","state":null,"postcode":"7122","telephone":"+43 2173 2437","facilities":["car_wash","shop","accepts_routex_cards","open_saturday","open_sunday"],"products":["ad_blue_cannister","diesel_on","ultimate","ultimate_diesel","ultimate_unleaded"],"website":null,"watchlist_id":null,"formatted_address":"Untere Hauptstraße 126\n7122\nGols","channel_of_trade":null},{"id":"AT-869596596","name":"W-ERDBERGERLAENDE 30","lat":48.2012,"lng":16.4037,"site_brand":"bp","country_code":"AT","address":"Erdbergerlände 30","city":"Wien","state":null,"postcode":"1030","telephone":"+43 1 7154826","facilities":["open_24_hours","car_wash","shop","wild_bean_cafe","accepts_routex_cards","accepts_toll_payments","open_saturday","open_sunday"],"products":["ad_blue_cannister","ad_blue_pump","diesel_on","ultimate","ultimate_diesel","ultimate_unleaded","unleaded_95","ad_blue"],"website":null,"watchlist_id":null,"formatted_address":"Erdbergerlände 30\n1030\nWien","channel_of_trade":null}],"clusters":[]}