{"locations":[{"id":"10022865","name":"HEINFELS PANZENDORF.","lat":46.749736,"lng":12.442356,"brand":"Shell","inactive":false,"type":2,"country_code":"AT","address":"PANZENDORF 134","city":"HEINFELS","state":"Tirol","postcode":"9919","telephone":"+43 4842 6351","country":"Austria","amenities":["adblue_pack","air_and_water","apple_pay","austrian_highway_sticker","b2b_shell_card_ota","bakery_shop","carwash","credit_card","credit_card_american_express","credit_card_general","credit_card_mastercard","credit_card_visa","deli2go","disabled_facilities","fleet_card_dkv","fleet_card_esso","fleet_card_uta","go_plus","google_pay","hgv_lane","high_speed_diesel_pump","loyalty_cards","loyalty_program","mobile_payment","mobile_payment_amex","mobile_payment_maestro","mobile_payment_mastercard","mobile_payment_visa","paypal","rollover_and_jet","selectshop","self_service","service_bay","shell_card","standard_toilet","twenty_four_hour_ev_service","type_of_parking","vacuum","wifi","manned"],"distance":55.743070289360006,"driving_distance":null,"driving_duration":null,"website_url":"https://www.shell.at/tanken/shell-tankstellensuche/standorte.html/10022865-heinfels-panzendorf","mdm_site_category":"Conventional Fuel Site with EV","formatted_address":"PANZENDORF 134\nHEINFELS, Tirol, 9919","site_category":"conventional_fuel_site_with_ev"},{"id":"10126786","name":"San Biagio Di Callalta","lat":45.688779,"lng":12.392215,"brand":"Shell","inactive":false,"type":2,"country_code":"IT","address":"Via Postumia Est n.5","city":"San Biagio Di Callalta","state":"Treviso","postcode":"31048","telephone":"","country":"Italy","amenities":["credit_card","credit_card_general","fleet_card_general","full_service","hgv_lane","high_speed_diesel_pump","pay_at_pump","shell_card","truck_parking","type_of_parking","manned"],"distance":62.95852285609,"driving_distance":null,"driving_duration":null,"website_url":"https://find.shell.com/it/fuel/10126786-san-biagio-di-callalta/it_IT","mdm_site_category":"Conventional Fuel Site","formatted_address":"Via Postumia Est n.5\nSan Biagio Di Callalta, Treviso, 31048","site_category":"conventional_fuel_site"},{"id":"10126829","name":"Venezia-Mestre","lat":45.526695,"lng":12.379474,"brand":"Shell","inactive":false,"type":2,"country_code":"IT","address":"Via Triestina n.234 - Loc. Favaro Veneto (SS 14 Km 12+535 -","city":"Venezia-Mestre","state":"Venezia","postcode":"30030","telephone":"","country":"Italy","amenities":["credit_card","credit_card_general","fleet_card_general","full_service","hgv_lane","high_speed_diesel_pump","pay_at_pump","shell_card","truck_parking","type_of_parking","manned"],"distance":80.96710764644999,"driving_distance":null,"driving_duration":null,"website_url":"https://find.shell.com/it/fuel/10126829-venezia-mestre/it_IT","mdm_site_category":"Conventional Fuel Site","formatted_address":"Via Triestina n.234 - Loc. Favaro Veneto (SS 14 Km 12+535 -\nVenezia-Mestre, Venezia, 30030","site_category":"conventional_fuel_site"},{"id":"10126765","name":"Cartigliano","lat":45.717313,"lng":11.70609,"brand":"Shell","inactive":false,"type":0,"country_code":"IT","address":"Viale Mazzini n. 33 (SP 58 km.2+300 lato dx)","city":"Cartigliano","state":"Verona","postcode":"36050","telephone":"","country":"Italy","amenities":["credit_card","credit_card_general","fleet_card_general","full_service","pay_at_pump","shell_card","manned"],"distance":85.27085559028,"driving_distance":null,"driving_duration":null,"website_url":"https://find.shell.com/it/fuel/10126765-cartigliano/it_IT","mdm_site_category":"Conventional Fuel Site","formatted_address":"Viale Mazzini n. 33 (SP 58 km.2+300 lato dx)\nCartigliano, Verona, 36050","site_category":"conventional_fuel_site"},{"id":"10126788","name":"Venezia-Mestre","lat":45.480759,"lng":12.272318,"brand":"Shell","inactive":false,"type":0,"country_code":"IT","address":"Via Orlanda n. 6/E","city":"Venezia-Mestre","state":"Venezia","postcode":"30173","telephone":"","country":"Italy","amenities":["coca_cola_freestyle","credit_card","credit_card_general","fleet_card_general","full_service","pay_at_pump","shell_card","manned"],"distance":87.33358263315,"driving_distance":null,"driving_duration":null,"website_url":"https://find.shell.com/it/fuel/10126788-venezia-mestre/it_IT","mdm_site_category":"Conventional Fuel Site","formatted_address":"Via Orlanda n. 6/E\nVenezia-Mestre, Venezia, 30173","site_category":"conventional_fuel_site"},{"id":"10126800","name":"Bolzano","lat":46.471651,"lng":11.316706,"brand":"Shell","inactive":false,"type":2,"country_code":"IT","address":"Via Keplero 1","city":"Bolzano","state":"Bolzano","postcode":"39100","telephone":"","country":"Italy","amenities":["adblue_truck","credit_card","credit_card_general","fleet_card_general","full_service","hgv_lane","high_speed_diesel_pump","pay_at_pump","shell_card","truck_parking","type_of_parking","manned"],"distance":94.08722904145,"driving_distance":null,"driving_duration":null,"website_url":"https://find.shell.com/it/fuel/10126800-bolzano/it_IT","mdm_site_category":"Conventional Fuel Site","formatted_address":"Via Keplero 1\nBolzano, Bolzano, 39100","site_category":"conventional_fuel_site"},{"id":"12661877","name":"SHELL VRTOJBA","lat":45.921155,"lng":13.634505,"brand":"Shell","inactive":false,"type":2,"country_code":"SI","address":"IC POLJE","city":"ŠEMPETER PRI GORICI","state":"Nova Gorica","postcode":"5290","telephone":"+386 1 514 05 00","country":"Slovenia","amenities":["adblue_truck","hgv_lane","high_speed_diesel_pump","pay_at_pump","shell_card","twenty_four_hour","unmanned"],"distance":94.82869874998,"driving_distance":null,"driving_duration":null,"website_url":"https://find.shell.com/si/fuel/12661877-shell-vrtojba/it_IT","mdm_site_category":"Conventional Fuel Site","formatted_address":"IC POLJE\nŠEMPETER PRI GORICI, Nova Gorica, 5290","site_category":"conventional_fuel_site"},{"id":"10126744","name":"Caldaro","lat":46.348098,"lng":11.265718,"brand":"Shell","inactive":false,"type":0,"country_code":"IT","address":"SP 127 km.3+030 - Loc. palude di Caldaro","city":"Caldaro","state":"Bolzano","postcode":"39052","telephone":"","country":"Italy","amenities":["credit_card","credit_card_general","fleet_card_general","full_service","pay_at_pump","shell_card","standard_toilet","manned"],"distance":95.44689756118,"driving_distance":null,"driving_duration":null,"website_url":"https://find.shell.com/it/fuel/10126744-caldaro/it_IT","mdm_site_category":"Conventional Fuel Site","formatted_address":"SP 127 km.3+030 - Loc. palude di Caldaro\nCaldaro, Bolzano, 39052","site_category":"conventional_fuel_site"},{"id":"13121164","name":"AJŠEVICA","lat":45.95317,"lng":13.691872,"brand":"Shell","inactive":false,"type":0,"country_code":"SI","address":"LOKE 40","city":"NOVA GORICA","state":"Nova Gorica","postcode":"5000","telephone":"+386 51 276 727","country":"Slovenia","amenities":["cafe","food_offerings","free_toilet","sandwich","self_service","shell_card","shop","snack_food","wifi","cctv","manned"],"distance":97.6406063612,"driving_distance":null,"driving_duration":null,"website_url":"https://find.shell.com/si/fuel/13121164-ajsevica/it_IT","mdm_site_category":"Conventional Fuel Site","formatted_address":"LOKE 40\nNOVA GORICA, Nova Gorica, 5000","site_category":"conventional_fuel_site"},{"id":"10126802","name":"Vigonza","lat":45.440352,"lng":11.976694,"brand":"Shell","inactive":false,"type":2,"country_code":"IT","address":"Via Cavour,37","city":"Vigonza","state":"Padova","postcode":"35010","telephone":"","country":"Italy","amenities":["adblue_truck","credit_card","credit_card_general","fleet_card_general","full_service","hgv_lane","high_speed_diesel_pump","pay_at_pump","shell_card","truck_parking","type_of_parking","manned"],"distance":98.73257480879,"driving_distance":null,"driving_duration":null,"website_url":"https://find.shell.com/it/fuel/10126802-vigonza/it_IT","mdm_site_category":"Conventional Fuel Site","formatted_address":"Via Cavour,37\nVigonza, Padova, 35010","site_category":"conventional_fuel_site"},{"id":"10022968","name":"FUERNITZ KAERNTNERSTRASSE.","lat":46.566415,"lng":13.808604,"brand":"Shell","inactive":false,"type":2,"country_code":"AT","address":"KAERNTNERSTRASSE 7","city":"FUERNITZ","state":"Kärnten","postcode":"9586","telephone":"+43 4257 2340","country":"Austria","amenities":["adblue_pack","adblue_truck","air_and_water","apple_pay","austrian_highway_sticker","b2b_shell_card_ota","bakery_shop","carwash","credit_card","credit_card_general","deli2go","disabled_facilities","fleet_card_dkv","fleet_card_uta","go_plus","google_pay","hgv_lane","high_speed_diesel_pump","loyalty_cards","loyalty_program","mobile_payment","mobile_payment_amex","mobile_payment_maestro","mobile_payment_mastercard","mobile_payment_visa","parking_lanes","paypal","rollover","self_service","shell_machine_rollover","shop","shower","standard_toilet","truck_parking","twenty_four_hour","twenty_four_hour_ev_service","type_of_parking","vacuum","wifi","manned"],"distance":106.32028569451,"driving_distance":null,"driving_duration":null,"website_url":"https://www.shell.at/tanken/shell-tankstellensuche/standorte.html/10022968-fuernitz-kaerntnerstrasse","mdm_site_category":"Conventional Fuel Site with EV","formatted_address":"KAERNTNERSTRASSE 7\nFUERNITZ, Kärnten, 9586","site_category":"conventional_fuel_site_with_ev"},{"id":"10022800","name":"BADGASTEIN KAISER-FRANZ-JOSEFSTRAS.","lat":47.112793,"lng":13.1326,"brand":"Shell","inactive":false,"type":0,"country_code":"AT","address":"KAISER-FRANZ-JOSEFSTRASSE 45","city":"BADGASTEIN","state":"Salzburg","postcode":"5640","telephone":"+43 6434 2160","country":"Austria","amenities":["adblue_pack","air_and_water","apple_pay","b2b_shell_card_ota","bakery_shop","carwash","credit_card","credit_card_american_express","credit_card_mastercard","credit_card_visa","deli2go","fleet_card_dkv","fleet_card_uta","go_plus","google_pay","high_speed_diesel_pump","loyalty_cards","loyalty_program","mobile_payment","mobile_payment_amex","mobile_payment_maestro","mobile_payment_mastercard","mobile_payment_visa","paypal","rollover","self_service","shell_card","shop","standard_toilet","vacuum","wifi","manned"],"distance":107.39105298269,"driving_distance":null,"driving_duration":null,"website_url":"https://www.shell.at/tanken/shell-tankstellensuche/standorte.html/10022800-badgastein-kaiser-franz-josefstras","mdm_site_category":"Conventional Fuel Site","formatted_address":"KAISER-FRANZ-JOSEFSTRASSE 45\nBADGASTEIN, Salzburg, 5640","site_category":"conventional_fuel_site"},{"id":"10022959","name":"GMUEND UNTERE VORSTADT.","lat":46.90593,"lng":13.531642,"brand":"Shell","inactive":false,"type":2,"country_code":"AT","address":"UNTERE VORSTADT 27 A","city":"GMUEND","state":"Kärnten","postcode":"9853","telephone":"+43 4732 2169","country":"Austria","amenities":["adblue_pack","air_and_water","apple_pay","austrian_highway_sticker","b2b_shell_card_ota","bakery_shop","carwash","credit_card","credit_card_american_express","credit_card_general","credit_card_mastercard","credit_card_visa","deli2go","disabled_facilities","fleet_card_dkv","fleet_card_esso","fleet_card_uta","go_plus","google_pay","hgv_lane","high_speed_diesel_pump","loyalty_cards","loyalty_program","mobile_payment","mobile_payment_amex","mobile_payment_maestro","mobile_payment_mastercard","mobile_payment_visa","paypal","rollover","selectshop","self_service","service_bay","shell_card","standard_toilet","type_of_parking","vacuum","wifi","manned"],"distance":107.40888680288,"driving_distance":null,"driving_duration":null,"website_url":"https://www.shell.at/tanken/shell-tankstellensuche/standorte.html/10022959-gmuend-untere-vorstadt","mdm_site_category":"Conventional Fuel Site","formatted_address":"UNTERE VORSTADT 27 A\nGMUEND, Kärnten, 9853","site_category":"conventional_fuel_site"},{"id":"10126812","name":"Trento","lat":46.007543,"lng":11.127092,"brand":"Shell","inactive":false,"type":0,"country_code":"IT","address":"Via Nazionale n. 31 - Fraz. Mattarello (SS 12 km 371+300)","city":"Trento","state":"Trento","postcode":"38060","telephone":"","country":"Italy","amenities":["credit_card","credit_card_general","fleet_card_general","full_service","pay_at_pump","shell_card","manned"],"distance":109.17926663065,"driving_distance":null,"driving_duration":null,"website_url":"https://find.shell.com/it/fuel/10126812-trento/it_IT","mdm_site_category":"Conventional Fuel Site","formatted_address":"Via Nazionale n. 31 - Fraz. Mattarello (SS 12 km 371+300)\nTrento, Trento, 38060","site_category":"conventional_fuel_site"},{"id":"10022835","name":"GRIES BRENNERSTRASSE","lat":47.007908,"lng":11.507226,"brand":"Shell","inactive":false,"type":2,"country_code":"AT","address":"BRENNERSTRASSE 245","city":"GRIES","state":"Tirol","postcode":"6156","telephone":"+43 5274 87224","country":"Austria","amenities":["adblue_pack","air_and_water","apple_pay","austrian_highway_sticker","b2b_shell_card_ota","bakery_shop","credit_card","credit_card_american_express","credit_card_diners_club","credit_card_general","credit_card_mastercard","credit_card_visa","deli2go","disabled_facilities","fleet_card_dkv","fleet_card_uta","go_plus","google_pay","hgv_lane","high_speed_diesel_pump","loyalty_cards","loyalty_program","mobile_payment","mobile_payment_amex","mobile_payment_maestro","mobile_payment_mastercard","mobile_payment_visa","paypal","selectshop","self_service","shell_card","standard_toilet","twenty_four_hour_ev_service","type_of_parking","wifi","manned"],"distance":113.35261660823001,"driving_distance":null,"driving_duration":null,"website_url":"https://www.shell.at/tanken/shell-tankstellensuche/standorte.html/10022835-gries-brennerstrasse","mdm_site_category":"Conventional Fuel Site with EV","formatted_address":"BRENNERSTRASSE 245\nGRIES, Tirol, 6156","site_category":"conventional_fuel_site_with_ev"},{"id":"12661872","name":"SHELL AJDOVŠČINA","lat":45.883317,"lng":13.891954,"brand":"Shell","inactive":false,"type":2,"country_code":"SI","address":"MIRCE 20","city":"AJDOVŠCINA","state":"Ajdovscina","postcode":"5270","telephone":"+386 1 514 05 00","country":"Slovenia","amenities":["adblue_truck","hgv_lane","high_speed_diesel_pump","pay_at_pump","shell_card","twenty_four_hour","unmanned"],"distance":114.86645119767999,"driving_distance":null,"driving_duration":null,"website_url":"https://find.shell.com/si/fuel/12661872-shell-ajdovscina/it_IT","mdm_site_category":"Conventional Fuel Site","formatted_address":"MIRCE 20\nAJDOVŠCINA, Ajdovscina, 5270","site_category":"conventional_fuel_site"},{"id":"10022808","name":"KAPRUN LANDESSTRASSE","lat":47.27696,"lng":12.757461,"brand":"Shell","inactive":false,"type":0,"country_code":"AT","address":"LANDESSTRASSE 30","city":"KAPRUN","state":"Salzburg","postcode":"5710","telephone":"+43 6547 8534","country":"Austria","amenities":["adblue_pack","air_and_water","carwash","conveyor_and_jet","credit_card","credit_card_american_express","credit_card_diners_club","credit_card_mastercard","credit_card_visa","fleet_card_dkv","fleet_card_esso","fleet_card_uta","jet","parking_lanes","rollover","self_service","shell_card","shop","standard_toilet","type_of_parking","manned"],"distance":115.86438394199,"driving_distance":null,"driving_duration":null,"website_url":"https://www.shell.at/tanken/shell-tankstellensuche/standorte.html/10022808-kaprun-landesstrasse","mdm_site_category":"Conventional Fuel Site","formatted_address":"LANDESSTRASSE 30\nKAPRUN, Salzburg, 5710","site_category":"conventional_fuel_site"},{"id":"10022966","name":"DROBOLLACH EGGER SEEUFERSTRASSE.","lat":46.578083,"lng":13.936256,"brand":"Shell","inactive":false,"type":0,"country_code":"AT","address":"EGGER SEEUFERSTRASSE 85","city":"DROBOLLACH","state":"Kärnten","postcode":"9580","telephone":"+43 4254 20110","country":"Austria","amenities":["adblue_pack","air_and_water","credit_card","credit_card_general","full_service","shell_card","shop","standard_toilet","manned"],"distance":115.99124704564001,"driving_distance":null,"driving_duration":null,"website_url":"https://www.shell.at/tanken/shell-tankstellensuche/standorte.html/10022966-drobollach-egger-seeuferstrasse","mdm_site_category":"Conventional Fuel Site","formatted_address":"EGGER SEEUFERSTRASSE 85\nDROBOLLACH, Kärnten, 9580","site_category":"conventional_fuel_site"},{"id":"10126783","name":"Volano","lat":45.9178,"lng":11.068625,"brand":"Shell","inactive":false,"type":0,"country_code":"IT","address":"Via Nazionale n. 27 (SS12 km359+100)","city":"Volano","state":"Trento","postcode":"38060","telephone":"","country":"Italy","amenities":["credit_card","credit_card_general","fleet_card_general","full_service","pay_at_pump","shell_card","standard_toilet","manned"],"distance":116.4094011768,"driving_distance":null,"driving_duration":null,"website_url":"https://find.shell.com/it/fuel/10126783-volano/it_IT","mdm_site_category":"Conventional Fuel Site","formatted_address":"Via Nazionale n. 27 (SS12 km359+100)\nVolano, Trento, 38060","site_category":"conventional_fuel_site"},{"id":"10022851","name":"RAMSAU/ZILLERTAL TALSTRASSE.","lat":47.20536,"lng":11.871162,"brand":"Shell","inactive":false,"type":0,"country_code":"AT","address":"TALSTRASSE 61","city":"RAMSAU/ZILLERTAL","state":"Tirol","postcode":"6284","telephone":"+43 5282 4655","country":"Austria","amenities":["adblue_pack","air_and_water","apple_pay","b2b_shell_card_ota","bakery_shop","billa_unterwegs","carwash","credit_card","credit_card_american_express","credit_card_mastercard","credit_card_visa","fleet_card_dkv","fleet_card_uta","go_plus","google_pay","loyalty_cards","loyalty_program","mobile_payment","mobile_payment_amex","mobile_payment_maestro","mobile_payment_mastercard","mobile_payment_visa","paypal","rollover","rollover_and_jet","self_service","shell_card","standard_toilet","twenty_four_hour_ev_service","wifi","manned"],"distance":116.54256573776,"driving_distance":null,"driving_duration":null,"website_url":"https://www.shell.at/tanken/shell-tankstellensuche/standorte.html/10022851-ramsau-zillertal-talstrasse","mdm_site_category":"Conventional Fuel Site with EV","formatted_address":"TALSTRASSE 61\nRAMSAU/ZILLERTAL, Tirol, 6284","site_category":"conventional_fuel_site_with_ev"},{"id":"12661876","name":"SHELL JESENICE","lat":46.444186,"lng":14.026966,"brand":"Shell","inactive":false,"type":2,"country_code":"SI","address":"SPODNJI PLAVŽ 6B","city":"JESENICE","state":"Jesenice","postcode":"4270","telephone":"+386 1 514 05 00","country":"Slovenia","amenities":["adblue_truck","hgv_lane","high_speed_diesel_pump","pay_at_pump","shell_card","twenty_four_hour","unmanned"],"distance":119.17512177173,"driving_distance":null,"driving_duration":null,"website_url":"https://find.shell.com/si/fuel/12661876-shell-jesenice/it_IT","mdm_site_category":"Conventional Fuel Site","formatted_address":"SPODNJI PLAVŽ 6B\nJESENICE, Jesenice, 4270","site_category":"conventional_fuel_site"},{"id":"13118982","name":"LUCIJA VZHOD","lat":45.500654,"lng":13.610591,"brand":"Shell","inactive":false,"type":0,"country_code":"SI","address":"VINJOLE 29B","city":"LUCIJA","state":"Piran","postcode":"6320","telephone":"+386 51 276 720","country":"Slovenia","amenities":["cafe","food_offerings","free_toilet","sandwich","shell_card","shop","wifi","cctv","manned"],"distance":119.7266882598,"driving_distance":null,"driving_duration":null,"website_url":"https://find.shell.com/si/fuel/13118982-lucija-vzhod/it_IT","mdm_site_category":"Conventional Fuel Site","formatted_address":"VINJOLE 29B\nLUCIJA, Piran, 6320","site_category":"conventional_fuel_site"},{"id":"13119239","name":"IZOLA SEVER","lat":45.537897,"lng":13.66872,"brand":"Shell","inactive":false,"type":0,"country_code":"SI","address":"PREŠERNOVA CESTA 2A","city":"IZOLA","state":"Izola","postcode":"6310","telephone":"+386 51 276 721","country":"Slovenia","amenities":["cafe","food_offerings","free_toilet","sandwich","self_service","shell_card","shop","wifi","cctv","manned"],"distance":120.20843724112,"driving_distance":null,"driving_duration":null,"website_url":"https://find.shell.com/si/fuel/13119239-izola-sever/it_IT","mdm_site_category":"Conventional Fuel Site","formatted_address":"PREŠERNOVA CESTA 2A\nIZOLA, Izola, 6310","site_category":"conventional_fuel_site"},{"id":"12661874","name":"SHELL SEŽANA","lat":45.703562,"lng":13.851964,"brand":"Shell","inactive":false,"type":2,"country_code":"SI","address":"PARTIZANSKACESTA 79","city":"SEŽANA","state":"Sezana","postcode":"6210","telephone":"+386 1 514 05 00","country":"Slovenia","amenities":["adblue_truck","cafe","food_offerings","hgv_lane","high_speed_diesel_pump","pay_at_pump","shell_card","twenty_four_hour","unmanned"],"distance":120.85498349393,"driving_distance":null,"driving_duration":null,"website_url":"https://find.shell.com/si/fuel/12661874-shell-sezana/it_IT","mdm_site_category":"Conventional Fuel Site","formatted_address":"PARTIZANSKACESTA 79\nSEŽANA, Sezana, 6210","site_category":"conventional_fuel_site"},{"id":"10126676","name":"SHELL UMAG","lat":45.43249,"lng":13.530883,"brand":"Shell","inactive":false,"type":2,"country_code":"HR","address":"Avenija grada Vukovara 4","city":"Umag","state":null,"postcode":"52470","telephone":"","country":"Croatia","amenities":["adblue_pack","adblue_truck","air_and_water","bottled_gas","cafe","credit_card","credit_card_general","disabled_facilities","fleet_card_general","food_offerings","full_service","hgv_lane","loyalty_cards","money_transfer_services","other_loyalty_cards","other_oil_change","pay_at_pump","shop","standard_toilet","wifi","manned"],"distance":120.99524873947,"driving_distance":null,"driving_duration":null,"website_url":"https://find.shell.com/hr/fuel/10126676-shell-umag/it_IT","mdm_site_category":"Conventional Fuel Site","formatted_address":"Avenija grada Vukovara 4\nUmag, 52470","site_category":"conventional_fuel_site"},{"id":"13106874","name":"SEŽANA","lat":45.70519,"lng":13.861015,"brand":"Shell","inactive":false,"type":0,"country_code":"SI","address":"PARTIZANSKA CESTA 69A","city":"SEŽANA","state":"Sezana","postcode":"6210","telephone":"+386 51 276 726","country":"Slovenia","amenities":["bottled_gas","cafe","carwash","food_offerings","rollover","sandwich","self_service","shell_card","shop","wifi","cctv","manned"],"distance":121.36826465231,"driving_distance":null,"driving_duration":null,"website_url":"https://find.shell.com/si/fuel/13106874-sezana/it_IT","mdm_site_category":"Conventional Fuel Site","formatted_address":"PARTIZANSKA CESTA 69A\nSEŽANA, Sezana, 6210","site_category":"conventional_fuel_site"},{"id":"10126739","name":"Trieste","lat":45.637938,"lng":13.815002,"brand":"Shell","inactive":false,"type":2,"country_code":"IT","address":"Via Brigata Casale Km 4","city":"Trieste","state":"Trieste","postcode":"34149","telephone":"","country":"Italy","amenities":["adblue_truck","credit_card","credit_card_general","fleet_card_general","full_service","hgv_lane","high_speed_diesel_pump","pay_at_pump","shell_card","standard_toilet","manned"],"distance":122.34986617378,"driving_distance":null,"driving_duration":null,"website_url":"https://find.shell.com/it/fuel/10126739-trieste/it_IT","mdm_site_category":"Conventional Fuel Site","formatted_address":"Via Brigata Casale Km 4\nTrieste, Trieste, 34149","site_category":"conventional_fuel_site"},{"id":"10126759","name":"Conselve","lat":45.242013,"lng":11.856475,"brand":"Shell","inactive":false,"type":0,"country_code":"IT","address":"Via Padova n.83 (SP 92 Conselvana Km 19+346)","city":"Conselve","state":"Padova","postcode":"35026","telephone":"","country":"Italy","amenities":["credit_card","credit_card_general","fleet_card_general","full_service","pay_at_pump","shell_card","manned"],"distance":122.70244159960001,"driving_distance":null,"driving_duration":null,"website_url":"https://find.shell.com/it/fuel/10126759-conselve/it_IT","mdm_site_category":"Conventional Fuel Site","formatted_address":"Via Padova n.83 (SP 92 Conselvana Km 19+346)\nConselve, Padova, 35026","site_category":"conventional_fuel_site"},{"id":"13100884","name":"SEMEDELA","lat":45.538951,"lng":13.728435,"brand":"Shell","inactive":false,"type":0,"country_code":"SI","address":"ISTRSKA CESTA 53","city":"KOPER","state":"Koper","postcode":"6000","telephone":"+386 51 276 722","country":"Slovenia","amenities":["bottled_gas","cafe","food_offerings","sandwich","self_service","shell_cafe","shell_card","shop","wifi","cctv","manned"],"distance":123.64714705481,"driving_distance":null,"driving_duration":null,"website_url":"https://find.shell.com/si/fuel/13100884-semedela/it_IT","mdm_site_category":"Conventional Fuel Site","formatted_address":"ISTRSKA CESTA 53\nKOPER, Koper, 6000","site_category":"conventional_fuel_site"},{"id":"12661879","name":"SHELL KOPER","lat":45.552486,"lng":13.762092,"brand":"Shell","inactive":false,"type":2,"country_code":"SI","address":"SERMIN 7C","city":"KOPER","state":"Koper","postcode":"6000","telephone":"+386 1 514 05 00","country":"Slovenia","amenities":["adblue_truck","hgv_lane","high_speed_diesel_pump","pay_at_pump","shell_card","twenty_four_hour","unmanned"],"distance":124.70995782954999,"driving_distance":null,"driving_duration":null,"website_url":"https://find.shell.com/si/fuel/12661879-shell-koper/it_IT","mdm_site_category":"Conventional Fuel Site","formatted_address":"SERMIN 7C\nKOPER, Koper, 6000","site_category":"conventional_fuel_site"},{"id":"13100839","name":"BERTOKI","lat":45.555358,"lng":13.78105,"brand":"Shell","inactive":false,"type":0,"country_code":"SI","address":"CESTA MED VINOGRADI 52","city":"KOPER","state":"Koper","postcode":"6000","telephone":"+386 51 276 723","country":"Slovenia","amenities":["bottled_gas","cafe","food_offerings","gls","sandwich","self_service","shell_card","shop","twenty_four_hour","wifi","cctv","manned"],"distance":125.66340527196,"driving_distance":null,"driving_duration":null,"website_url":"https://find.shell.com/si/fuel/13100839-bertoki/it_IT","mdm_site_category":"Conventional Fuel Site","formatted_address":"CESTA MED VINOGRADI 52\nKOPER, Koper, 6000","site_category":"conventional_fuel_site"},{"id":"10126813","name":"San Giovanni Ilarione","lat":45.531667,"lng":11.233356,"brand":"Shell","inactive":false,"type":0,"country_code":"IT","address":"Viale Alcide De Gasperi n.200 (SP 17 della Val D'Alpone km 1","city":"San Giovanni Ilarione","state":"Verona","postcode":"37035","telephone":"","country":"Italy","amenities":["credit_card","credit_card_general","fleet_card_general","full_service","pay_at_pump","shell_card","manned"],"distance":126.44967636553,"driving_distance":null,"driving_duration":null,"website_url":"https://find.shell.com/it/fuel/10126813-san-giovanni-ilarione/it_IT","mdm_site_category":"Conventional Fuel Site","formatted_address":"Viale Alcide De Gasperi n.200 (SP 17 della Val D'Alpone km 1\nSan Giovanni Ilarione, Verona, 37035","site_category":"conventional_fuel_site"},{"id":"13111541","name":"LOKEV","lat":45.66133,"lng":13.919418,"brand":"Shell","inactive":false,"type":0,"country_code":"SI","address":"LOKEV 1A","city":"LOKEV","state":"Sezana","postcode":"6219","telephone":"+386 51 276 725","country":"Slovenia","amenities":["cafe","food_offerings","free_toilet","sandwich","self_service","shell_card","shop","wifi","cctv","manned"],"distance":127.76530368713,"driving_distance":null,"driving_duration":null,"website_url":"https://find.shell.com/si/fuel/13111541-lokev/it_IT","mdm_site_category":"Conventional Fuel Site","formatted_address":"LOKEV 1A\nLOKEV, Sezana, 6219","site_category":"conventional_fuel_site"},{"id":"10022826","name":"ST.MICHAEL AUSTRASSE.","lat":47.094838,"lng":13.636179,"brand":"Shell","inactive":false,"type":0,"country_code":"AT","address":"AUSTRASSE 21","city":"ST.MICHAEL","state":"Salzburg","postcode":"5582","telephone":"+43 6477 8400","country":"Austria","amenities":["air_and_water","carwash","credit_card","credit_card_general","fleet_card_general","self_service","shop","standard_toilet","manned"],"distance":127.82525567006,"driving_distance":null,"driving_duration":null,"website_url":"https://www.shell.at/tanken/shell-tankstellensuche/standorte.html/10022826-st-michael-austrasse","mdm_site_category":"Conventional Fuel Site","formatted_address":"AUSTRASSE 21\nST.MICHAEL, Salzburg, 5582","site_category":"conventional_fuel_site"},{"id":"13095114","name":"KOZINA","lat":45.609116,"lng":13.93361,"brand":"Shell","inactive":false,"type":0,"country_code":"SI","address":"BAZOVIŠKA CESTA 18","city":"KOZINA","state":"Koper","postcode":"6240","telephone":"+386 51 276 724","country":"Slovenia","amenities":["credit_card","credit_card_mastercard","food_offerings","self_service","shell_card","shop","snack_food","manned"],"distance":131.79984156261997,"driving_distance":null,"driving_duration":null,"website_url":"https://find.shell.com/si/fuel/13095114-kozina/it_IT","mdm_site_category":"Conventional Fuel Site","formatted_address":"BAZOVIŠKA CESTA 18\nKOZINA, Koper, 6240","site_category":"conventional_fuel_site"},{"id":"10126799","name":"Arco","lat":45.875974,"lng":10.87124,"brand":"Shell","inactive":false,"type":0,"country_code":"IT","address":"Via Gardesana n. 2 (SS 240 km.16+710 - loc. Linfano)","city":"Arco","state":"Trento","postcode":"38062","telephone":"","country":"Italy","amenities":["credit_card","credit_card_general","fleet_card_general","full_service","pay_at_pump","shell_card","standard_toilet","manned"],"distance":132.36675657205998,"driving_distance":null,"driving_duration":null,"website_url":"https://find.shell.com/it/fuel/10126799-arco/it_IT","mdm_site_category":"Conventional Fuel Site","formatted_address":"Via Gardesana n. 2 (SS 240 km.16+710 - loc. Linfano)\nArco, Trento, 38062","site_category":"conventional_fuel_site"},{"id":"10022958","name":"FELDKIRCHEN DR.ARTHUR LEMISCHSTRAS.","lat":46.726883,"lng":14.090068,"brand":"Shell","inactive":false,"type":0,"country_code":"AT","address":"DR.ARTHUR LEMISCHSTRASSE 16","city":"FELDKIRCHEN","state":"Kärnten","postcode":"9560","telephone":"+43 4276 2331","country":"Austria","amenities":["adblue_pack","air_and_water","apple_pay","b2b_shell_card_ota","bakery_shop","billa_unterwegs","carwash","credit_card","credit_card_american_express","credit_card_mastercard","credit_card_visa","full_service","go_plus","google_pay","high_speed_diesel_pump","loyalty_cards","loyalty_program","mobile_payment","mobile_payment_amex","mobile_payment_maestro","mobile_payment_mastercard","mobile_payment_visa","paypal","rollover","shell_card","standard_toilet","vacuum","wifi","manned"],"distance":132.77705432012,"driving_distance":null,"driving_duration":null,"website_url":"https://www.shell.at/tanken/shell-tankstellensuche/standorte.html/10022958-feldkirchen-dr-arthur-lemischstras","mdm_site_category":"Conventional Fuel Site","formatted_address":"DR.ARTHUR LEMISCHSTRASSE 16\nFELDKIRCHEN, Kärnten, 9560","site_category":"conventional_fuel_site"},{"id":"10022834","name":"FULPMES WALDRASTERSTRASSE.","lat":47.150294,"lng":11.352916,"brand":"Shell","inactive":false,"type":0,"country_code":"AT","address":"WALDRASTERSTRASSE 45","city":"FULPMES","state":"Tirol","postcode":"6166","telephone":"+43 5225 62338","country":"Austria","amenities":["adblue_pack","air_and_water","austrian_highway_sticker","carwash","credit_card","credit_card_general","fleet_card_general","self_service","shop","standard_toilet","vacuum","manned"],"distance":132.93939621116,"driving_distance":null,"driving_duration":null,"website_url":"https://www.shell.at/tanken/shell-tankstellensuche/standorte.html/10022834-fulpmes-waldrasterstrasse","mdm_site_category":"Conventional Fuel Site","formatted_address":"WALDRASTERSTRASSE 45\nFULPMES, Tirol, 6166","site_category":"conventional_fuel_site"},{"id":"10022842","name":"KITZBUEHEL AM SPORTFELD.","lat":47.444604,"lng":12.398766,"brand":"Shell","inactive":false,"type":0,"country_code":"AT","address":"AM SPORTFELD 4","city":"KITZBUEHEL","state":"Tirol","postcode":"6370","telephone":"+43 5356 64510","country":"Austria","amenities":["adblue_pack","air_and_water","apple_pay","b2b_shell_card_ota","bakery_shop","carwash","credit_card","credit_card_general","deli2go","fleet_card_dkv","fleet_card_uta","go_plus","google_pay","loyalty_cards","loyalty_program","mobile_payment","mobile_payment_amex","mobile_payment_maestro","mobile_payment_mastercard","mobile_payment_visa","paypal","rollover","self_service","shop","standard_toilet","wifi","manned"],"distance":133.05697833136998,"driving_distance":null,"driving_duration":null,"website_url":"https://www.shell.at/tanken/shell-tankstellensuche/standorte.html/10022842-kitzbuehel-am-sportfeld","mdm_site_category":"Conventional Fuel Site","formatted_address":"AM SPORTFELD 4\nKITZBUEHEL, Tirol, 6370","site_category":"conventional_fuel_site"},{"id":"10022854","name":"SCHOENBERG","lat":47.184664,"lng":11.400047,"brand":"Shell","inactive":false,"type":0,"country_code":"AT","address":"A13/BRENNERAUTOBAHN","city":"SCHOENBERG","state":"Tirol","postcode":"6141","telephone":"+43 5225 62791","country":"Austria","amenities":["adblue_pack","adblue_truck","air_and_water","apple_pay","b2b_shell_card_ota","bakery_shop","credit_card","credit_card_american_express","credit_card_mastercard","credit_card_visa","fleet_card_dkv","fleet_card_uta","go_plus","google_pay","loyalty_cards","loyalty_program","mobile_payment","mobile_payment_amex","mobile_payment_maestro","mobile_payment_mastercard","mobile_payment_visa","paypal","self_service","shell_card","shop","standard_toilet","twenty_four_hour","wifi","motorway_service","manned"],"distance":133.53774179328,"driving_distance":null,"driving_duration":null,"website_url":"https://www.shell.at/tanken/shell-tankstellensuche/standorte.html/10022854-schoenberg","mdm_site_category":"Conventional Fuel Site","formatted_address":"A13/BRENNERAUTOBAHN\nSCHOENBERG, Tirol, 6141","site_category":"conventional_fuel_site"},{"id":"10022817","name":"SAALFELDEN LOFERER STRASSE.","lat":47.431023,"lng":12.844908,"brand":"Shell","inactive":false,"type":2,"country_code":"AT","address":"LOFERER STRASSE 76","city":"SAALFELDEN","state":"Salzburg","postcode":"5760","telephone":"+43 6582 72079","country":"Austria","amenities":["adblue_pack","air_and_water","apple_pay","b2b_shell_card_ota","bakery_shop","billa_unterwegs","carwash","credit_card","credit_card_general","fleet_card_dkv","fleet_card_uta","go_plus","google_pay","hgv_lane","loyalty_cards","loyalty_program","mobile_payment","mobile_payment_amex","mobile_payment_maestro","mobile_payment_mastercard","mobile_payment_visa","paypal","rollover","standard_toilet","unmanned","wifi"],"distance":133.91823804294,"driving_distance":null,"driving_duration":null,"website_url":"https://www.shell.at/tanken/shell-tankstellensuche/standorte.html/10022817-saalfelden-loferer-strasse","mdm_site_category":"Conventional Fuel Site","formatted_address":"LOFERER STRASSE 76\nSAALFELDEN, Salzburg, 5760","site_category":"conventional_fuel_site"},{"id":"10022843","name":"KIRCHBERG KITZBUEHELER STRASSE","lat":47.448769,"lng":12.324245,"brand":"Shell","inactive":false,"type":0,"country_code":"AT","address":"KITZBUEHELER STRASSE 73","city":"KIRCHBERG","state":"Tirol","postcode":"6365","telephone":"+43 5357 2827","country":"Austria","amenities":["adblue_pack","air_and_water","apple_pay","b2b_shell_card_ota","bakery_shop","billa_unterwegs","carwash","credit_card","credit_card_general","fleet_card_dkv","fleet_card_uta","go_plus","google_pay","loyalty_cards","loyalty_program","mobile_payment","mobile_payment_amex","mobile_payment_maestro","mobile_payment_mastercard","mobile_payment_visa","paypal","rollover","self_service","standard_toilet","twenty_four_hour_ev_service","wifi","manned"],"distance":133.96553801678,"driving_distance":null,"driving_duration":null,"website_url":"https://www.shell.at/tanken/shell-tankstellensuche/standorte.html/10022843-kirchberg-kitzbueheler-strasse","mdm_site_category":"Conventional Fuel Site with EV","formatted_address":"KITZBUEHELER STRASSE 73\nKIRCHBERG, Tirol, 6365","site_category":"conventional_fuel_site_with_ev"},{"id":"10126796","name":"Soave","lat":45.414745,"lng":11.247656,"brand":"Shell","inactive":false,"type":0,"country_code":"IT","address":"Viale della Vittoria n. 98","city":"Soave","state":"Verona","postcode":"37038","telephone":"","country":"Italy","amenities":["credit_card","credit_card_general","fleet_card_general","full_service","pay_at_pump","shell_card","manned"],"distance":134.31059680533,"driving_distance":null,"driving_duration":null,"website_url":"https://find.shell.com/it/fuel/10126796-soave/it_IT","mdm_site_category":"Conventional Fuel Site","formatted_address":"Viale della Vittoria n. 98\nSoave, Verona, 37038","site_category":"conventional_fuel_site"},{"id":"12773499","name":"ST.JOHANN BUNDESSTRASSE","lat":47.358895,"lng":13.199737,"brand":"Shell","inactive":false,"type":0,"country_code":"AT","address":"BUNDESSTRASSE 31","city":"ST.JOHANN IM PONGAU","state":"Salzburg","postcode":"5600","telephone":"+43 6412 200573","country":"Austria","amenities":["adblue_pack","air_and_water","bakery_shop","credit_card","credit_card_american_express","credit_card_diners_club","credit_card_mastercard","credit_card_visa","self_service","shell_card","shop","standard_toilet","type_of_parking","manned"],"distance":134.31247001754,"driving_distance":null,"driving_duration":null,"website_url":"https://www.shell.at/tanken/shell-tankstellensuche/standorte.html/12773499-st-johann-bundesstrasse","mdm_site_category":"Conventional Fuel Site","formatted_address":"BUNDESSTRASSE 31\nST.JOHANN IM PONGAU, Salzburg, 5600","site_category":"conventional_fuel_site"},{"id":"10022855","name":"SCHOENBERG A13-AUTOBAHN","lat":47.196083,"lng":11.3976,"brand":"Shell","inactive":false,"type":2,"country_code":"AT","address":"A13-AUTOBAHN-EUROPABRUECKE","city":"SCHOENBERG","state":"Tirol","postcode":"6141","telephone":"+43 5225 62579","country":"Austria","amenities":["adblue_pack","adblue_truck","air_and_water","apple_pay","b2b_shell_card_ota","bakery_shop","credit_card","credit_card_american_express","credit_card_mastercard","credit_card_visa","fleet_card_dkv","fleet_card_uta","go_plus","google_pay","hgv_lane","loyalty_cards","loyalty_program","maut_terminal","mobile_payment","mobile_payment_amex","mobile_payment_maestro","mobile_payment_mastercard","mobile_payment_visa","paypal","self_service","shell_card","shop","standard_toilet","twenty_four_hour","type_of_parking","wifi","motorway_service","manned"],"distance":134.63904816952999,"driving_distance":null,"driving_duration":null,"website_url":"https://www.shell.at/tanken/shell-tankstellensuche/standorte.html/10022855-schoenberg-a13-autobahn","mdm_site_category":"Conventional Fuel Site","formatted_address":"A13-AUTOBAHN-EUROPABRUECKE\nSCHOENBERG, Tirol, 6141","site_category":"conventional_fuel_site"},{"id":"10022833","name":"ALPBACH NUMMER.","lat":47.396443,"lng":11.922389,"brand":"Shell","inactive":false,"type":0,"country_code":"AT","address":"NUMMER 142","city":"ALPBACH","state":"Tirol","postcode":"6236","telephone":"+43 5336 5258","country":"Austria","amenities":["air_and_water","carwash","credit_card","credit_card_american_express","credit_card_mastercard","credit_card_visa","full_service","rollover","shell_card","shop","standard_toilet","manned"],"distance":134.84051165333,"driving_distance":null,"driving_duration":null,"website_url":"https://www.shell.at/tanken/shell-tankstellensuche/standorte.html/10022833-alpbach-nummer","mdm_site_category":"Conventional Fuel Site","formatted_address":"NUMMER 142\nALPBACH, Tirol, 6236","site_category":"conventional_fuel_site"},{"id":"10022862","name":"WATTENS BAHNHOFSTRASSE.","lat":47.29775,"lng":11.588265,"brand":"Shell","inactive":false,"type":0,"country_code":"AT","address":"BAHNHOFSTRASSE 55","city":"WATTENS","state":"Tirol","postcode":"6112","telephone":"+43 5224 52160","country":"Austria","amenities":["adblue_pack","air_and_water","apple_pay","austrian_highway_sticker","b2b_shell_card_ota","bakery_shop","billa_unterwegs","carwash","credit_card","credit_card_american_express","credit_card_mastercard","credit_card_visa","disabled_facilities","fleet_card_dkv","fleet_card_uta","go_plus","google_pay","loyalty_cards","loyalty_program","mobile_payment","mobile_payment_amex","mobile_payment_maestro","mobile_payment_mastercard","mobile_payment_visa","parking_lanes","paypal","rollover","rollover_and_jet","self_service","shell_card","standard_toilet","twenty_four_hour","type_of_parking","wifi","manned"],"distance":135.62330955075998,"driving_distance":null,"driving_duration":null,"website_url":"https://www.shell.at/tanken/shell-tankstellensuche/standorte.html/10022862-wattens-bahnhofstrasse","mdm_site_category":"Conventional Fuel Site","formatted_address":"BAHNHOFSTRASSE 55\nWATTENS, Tirol, 6112","site_category":"conventional_fuel_site"},{"id":"10126779","name":"Arcole","lat":45.366954,"lng":11.286118,"brand":"Shell","inactive":false,"type":0,"country_code":"IT","address":"Via Padovana snc lato destro direzione S. Bonifacio","city":"Arcole","state":"Verona","postcode":"37040","telephone":"","country":"Italy","amenities":["credit_card","credit_card_general","fleet_card_general","full_service","pay_at_pump","shell_card","manned"],"distance":135.98857051831,"driving_distance":null,"driving_duration":null,"website_url":"https://find.shell.com/it/fuel/10126779-arcole/it_IT","mdm_site_category":"Conventional Fuel Site","formatted_address":"Via Padovana snc lato destro direzione S. Bonifacio\nArcole, Verona, 37040","site_category":"conventional_fuel_site"},{"id":"10022846","name":"WILDSCHOENAU NIEDERAU.","lat":47.448452,"lng":12.087033,"brand":"Shell","inactive":false,"type":0,"country_code":"AT","address":"NIEDERAU 278","city":"WILDSCHOENAU","state":"Tirol","postcode":"6314","telephone":"+43 5339 8592","country":"Austria","amenities":["air_and_water","austrian_highway_sticker","carwash","credit_card","credit_card_american_express","credit_card_mastercard","credit_card_visa","disabled_facilities","full_service","manual","parking_lanes","partner_card","rollover","rollover_and_jet","self_service","shell_card","shop","standard_toilet","type_of_parking","vacuum","manned"],"distance":136.91201503094,"driving_distance":null,"driving_duration":null,"website_url":"https://www.shell.at/tanken/shell-tankstellensuche/standorte.html/10022846-wildschoenau-niederau","mdm_site_category":"Conventional Fuel Site","formatted_address":"NIEDERAU 278\nWILDSCHOENAU, Tirol, 6314","site_category":"conventional_fuel_site"},{"id":"10022857","name":"HALL/TIROL PFANNHAUSSTRASSE.","lat":47.279331,"lng":11.502363,"brand":"Shell","inactive":false,"type":0,"country_code":"AT","address":"PFANNHAUSSTRASSE 10","city":"HALL/TIROL","state":"Tirol","postcode":"6060","telephone":"+43 5223 57626","country":"Austria","amenities":["adblue_pack","air_and_water","austrian_highway_sticker","bakery_shop","carwash","credit_card","credit_card_american_express","credit_card_mastercard","credit_card_visa","high_speed_diesel_pump","parking_lanes","partner_card","rollover","rollover_and_jet","self_service","shell_card","shop","standard_toilet","type_of_parking","vacuum","manned"],"distance":137.38178849042998,"driving_distance":null,"driving_duration":null,"website_url":"https://www.shell.at/tanken/shell-tankstellensuche/standorte.html/10022857-hall-tirol-pfannhausstrasse","mdm_site_category":"Conventional Fuel Site","formatted_address":"PFANNHAUSSTRASSE 10\nHALL/TIROL, Tirol, 6060","site_category":"conventional_fuel_site"},{"id":"10126822","name":"Stanghella","lat":45.125676,"lng":11.764332,"brand":"Shell","inactive":false,"type":0,"country_code":"IT","address":"Via Nazionale n. 172","city":"Stanghella","state":"Padova","postcode":"35048","telephone":"","country":"Italy","amenities":["credit_card","credit_card_general","fleet_card_general","full_service","pay_at_pump","shell_card","manned"],"distance":137.45864335899,"driving_distance":null,"driving_duration":null,"website_url":"https://find.shell.com/it/fuel/10126822-stanghella/it_IT","mdm_site_category":"Conventional Fuel Site","formatted_address":"Via Nazionale n. 172\nStanghella, Padova, 35048","site_category":"conventional_fuel_site"},{"id":"10022841","name":"JENBACH ACHENSEE-STRASSE.","lat":47.388447,"lng":11.77449,"brand":"Shell","inactive":false,"type":2,"country_code":"AT","address":"ACHENSEE-STRASSE 2","city":"JENBACH","state":"Tirol","postcode":"6200","telephone":"+43 5244 62473","country":"Austria","amenities":["air_and_water","apple_pay","austrian_highway_sticker","b2b_shell_card_ota","bakery_shop","billa_unterwegs","carwash","credit_card","credit_card_general","disabled_facilities","fleet_card_dkv","fleet_card_uta","go_plus","google_pay","hgv_lane","high_speed_diesel_pump","loyalty_cards","loyalty_program","mobile_payment","mobile_payment_amex","mobile_payment_maestro","mobile_payment_mastercard","mobile_payment_visa","paypal","rollover_and_jet","self_service","standard_toilet","type_of_parking","vacuum","wifi","manned"],"distance":138.10164150398998,"driving_distance":null,"driving_duration":null,"website_url":"https://www.shell.at/tanken/shell-tankstellensuche/standorte.html/10022841-jenbach-achensee-strasse","mdm_site_category":"Conventional Fuel Site","formatted_address":"ACHENSEE-STRASSE 2\nJENBACH, Tirol, 6200","site_category":"conventional_fuel_site"},{"id":"10022840","name":"INNSBRUCK BRENNER STRASSE.","lat":47.241369,"lng":11.389742,"brand":"Shell","inactive":false,"type":0,"country_code":"AT","address":"BRENNER STRASSE 4","city":"INNSBRUCK","state":"Tirol","postcode":"6020","telephone":"+43 512 572068","country":"Austria","amenities":["adblue_pack","adblue_truck","air_and_water","apple_pay","austrian_highway_sticker","b2b_shell_card_ota","bakery_shop","credit_card","credit_card_general","deli2go","disabled_facilities","fleet_card_dkv","fleet_card_uta","go_plus","google_pay","high_speed_diesel_pump","loyalty_cards","loyalty_program","mobile_payment","mobile_payment_amex","mobile_payment_maestro","mobile_payment_mastercard","mobile_payment_visa","parking_lanes","paypal","selectshop","self_service","shell_card","standard_toilet","twenty_four_hour","type_of_parking","wifi","manned"],"distance":138.95124001412998,"driving_distance":null,"driving_duration":null,"website_url":"https://www.shell.at/tanken/shell-tankstellensuche/standorte.html/10022840-innsbruck-brenner-strasse","mdm_site_category":"Conventional Fuel Site","formatted_address":"BRENNER STRASSE 4\nINNSBRUCK, Tirol, 6020","site_category":"conventional_fuel_site"},{"id":"10022837","name":"INNSBRUCK AMRASERSEE-STRASSE.","lat":47.263383,"lng":11.429705,"brand":"Shell","inactive":false,"type":2,"country_code":"AT","address":"AMRASERSEE-STRASSE 56","city":"INNSBRUCK","state":"Tirol","postcode":"6020","telephone":"+43 512 346137","country":"Austria","amenities":["adblue_car","adblue_pack","adblue_truck","air_and_water","apple_pay","austrian_highway_sticker","b2b_shell_card_ota","bakery_shop","carwash","credit_card","credit_card_general","credit_card_mastercard","credit_card_visa","disabled_facilities","fleet_card_dkv","fleet_card_esso","fleet_card_uta","go_plus","google_pay","hgv_lane","high_speed_diesel_pump","jet","loyalty_cards","loyalty_program","mobile_payment","mobile_payment_amex","mobile_payment_maestro","mobile_payment_mastercard","mobile_payment_visa","parking_lanes","paypal","self_service","shell_card","shop","standard_toilet","type_of_parking","vacuum","wifi","manned"],"distance":139.08459533323,"driving_distance":null,"driving_duration":null,"website_url":"https://www.shell.at/tanken/shell-tankstellensuche/standorte.html/10022837-innsbruck-amrasersee-strasse","mdm_site_category":"Conventional Fuel Site","formatted_address":"AMRASERSEE-STRASSE 56\nINNSBRUCK, Tirol, 6020","site_category":"conventional_fuel_site"},{"id":"13111197","name":"6020 INNSBRUCK AMRASER-SEE STR.29","lat":47.26189,"lng":11.42312,"brand":"Shell","inactive":false,"type":0,"country_code":"AT","address":"AMRASER-SEE STRASSE 29","city":"INNSBRUCK","state":"Tirol","postcode":"6020","telephone":"+43 50 2277 1058","country":"Austria","amenities":["air_and_water","selectshop","standard_toilet","twenty_four_hour","manned"],"distance":139.24571435441,"driving_distance":null,"driving_duration":null,"website_url":"https://www.shell.at/tanken/shell-tankstellensuche/standorte.html/13111197-6020-innsbruck-amraser-see-str-29","mdm_site_category":"Conventional Fuel Site","formatted_address":"AMRASER-SEE STRASSE 29\nINNSBRUCK, Tirol, 6020","site_category":"conventional_fuel_site"},{"id":"10022858","name":"SOELDEN DORFSTRASSE.","lat":46.975642,"lng":11.011009,"brand":"Shell","inactive":false,"type":0,"country_code":"AT","address":"DORFSTRASSE 2","city":"SOELDEN","state":"Tirol","postcode":"6450","telephone":"+43 5254 2168","country":"Austria","amenities":["adblue_pack","air_and_water","austrian_highway_sticker","carwash","credit_card","credit_card_american_express","credit_card_diners_club","credit_card_general","credit_card_mastercard","credit_card_visa","jet","rollover","self_service","shop","standard_toilet","type_of_parking","vacuum","manned"],"distance":139.44391801043,"driving_distance":null,"driving_duration":null,"website_url":"https://www.shell.at/tanken/shell-tankstellensuche/standorte.html/10022858-soelden-dorfstrasse","mdm_site_category":"Conventional Fuel Site","formatted_address":"DORFSTRASSE 2\nSOELDEN, Tirol, 6450","site_category":"conventional_fuel_site"},{"id":"10022827","name":"TAMSWEG ZINSGASSE.","lat":47.131671,"lng":13.807775,"brand":"Shell","inactive":false,"type":0,"country_code":"AT","address":"ZINSGASSE 20","city":"TAMSWEG","state":"Salzburg","postcode":"5580","telephone":"+43 6474 2286","country":"Austria","amenities":["adblue_pack","air_and_water","apple_pay","b2b_shell_card_ota","bakery_shop","billa_unterwegs","carwash","credit_card","credit_card_general","fleet_card_dkv","fleet_card_uta","go_plus","google_pay","loyalty_cards","loyalty_program","mobile_payment","mobile_payment_amex","mobile_payment_maestro","mobile_payment_mastercard","mobile_payment_visa","paypal","rollover","self_service","standard_toilet","wifi","manned"],"distance":139.85633611637,"driving_distance":null,"driving_duration":null,"website_url":"https://www.shell.at/tanken/shell-tankstellensuche/standorte.html/10022827-tamsweg-zinsgasse","mdm_site_category":"Conventional Fuel Site","formatted_address":"ZINSGASSE 20\nTAMSWEG, Salzburg, 5580","site_category":"conventional_fuel_site"},{"id":"10022836","name":"INNSBRUCK AMRASERSTRASSE.","lat":47.262759,"lng":11.408383,"brand":"Shell","inactive":false,"type":0,"country_code":"AT","address":"AMRASERSTRASSE 52","city":"INNSBRUCK","state":"Tirol","postcode":"6020","telephone":"+43 512 341445","country":"Austria","amenities":["adblue_pack","air_and_water","apple_pay","austrian_highway_sticker","b2b_shell_card_ota","bakery_shop","carwash","credit_card","credit_card_general","fleet_card_dkv","fleet_card_esso","fleet_card_general","go_plus","google_pay","loyalty_cards","loyalty_program","mobile_payment","mobile_payment_amex","mobile_payment_maestro","mobile_payment_mastercard","mobile_payment_visa","parking_lanes","paypal","rollover","selectshop","self_service","standard_toilet","type_of_parking","wifi","manned"],"distance":139.98730560555998,"driving_distance":null,"driving_duration":null,"website_url":"https://www.shell.at/tanken/shell-tankstellensuche/standorte.html/10022836-innsbruck-amraserstrasse","mdm_site_category":"Conventional Fuel Site","formatted_address":"AMRASERSTRASSE 52\nINNSBRUCK, Tirol, 6020","site_category":"conventional_fuel_site"},{"id":"13111128","name":"POSTOJNA TRŽAŠKA","lat":45.77265,"lng":14.200112,"brand":"Shell","inactive":false,"type":0,"country_code":"SI","address":"TRŽAŠKA CESTA 60B","city":"POSTOJNA","state":"Postojna","postcode":"6230","telephone":"+386 51 276 729","country":"Slovenia","amenities":["cafe","food_offerings","free_toilet","sandwich","self_service","shell_card","shop","wifi","cctv","manned"],"distance":141.61378037376,"driving_distance":null,"driving_duration":null,"website_url":"https://find.shell.com/si/fuel/13111128-postojna-trzaska/it_IT","mdm_site_category":"Conventional Fuel Site","formatted_address":"TRŽAŠKA CESTA 60B\nPOSTOJNA, Postojna, 6230","site_category":"conventional_fuel_site"},{"id":"10022864","name":"WOERGL GEWERBEPARK","lat":47.483239,"lng":12.028969,"brand":"Shell","inactive":false,"type":2,"country_code":"AT","address":"GEWERBEPARK 3","city":"WOERGL","state":"Tirol","postcode":"6300","telephone":"+43 5332 23119","country":"Austria","amenities":["adblue_pack","adblue_truck","air_and_water","apple_pay","austrian_highway_sticker","b2b_shell_card_ota","bakery_shop","credit_card","credit_card_american_express","credit_card_mastercard","disabled_facilities","fleet_card_dkv","fleet_card_uta","full_service","go_plus","google_pay","guarded_car_park","hgv_lane","high_speed_diesel_pump","loyalty_cards","loyalty_program","maut_terminal","mobile_payment","mobile_payment_amex","mobile_payment_maestro","mobile_payment_mastercard","mobile_payment_visa","paypal","shell_card","shop","shower","standard_toilet","truck_parking","twenty_four_hour","type_of_parking","wifi","motorway_service","manned"],"distance":141.72782017225,"driving_distance":null,"driving_duration":null,"website_url":"https://www.shell.at/tanken/shell-tankstellensuche/standorte.html/10022864-woergl-gewerbepark","mdm_site_category":"Conventional Fuel Site","formatted_address":"GEWERBEPARK 3\nWOERGL, Tirol, 6300","site_category":"conventional_fuel_site"},{"id":"10022844","name":"KIRCHBICHL/TIROL LOFERER STRASSE.","lat":47.494773,"lng":12.088436,"brand":"Shell","inactive":false,"type":2,"country_code":"AT","address":"LOFERER STRASSE 5","city":"KIRCHBICHL/TIROL","state":"Tirol","postcode":"6322","telephone":"+43 5332 77692","country":"Austria","amenities":["adblue_pack","adblue_truck","air_and_water","apple_pay","austrian_highway_sticker","b2b_shell_card_ota","bakery_shop","billa_unterwegs","bottled_gas","carwash","credit_card","credit_card_general","credit_card_mastercard","credit_card_visa","disabled_facilities","fleet_card_dkv","fleet_card_uta","go_plus","google_pay","hgv_lane","high_speed_diesel_pump","loyalty_cards","loyalty_program","maut_terminal","mobile_payment","mobile_payment_amex","mobile_payment_maestro","mobile_payment_mastercard","mobile_payment_visa","paypal","rollover","self_service","standard_toilet","touchless_pay","twenty_four_hour_ev_service","wifi","manned"],"distance":141.90369559249,"driving_distance":null,"driving_duration":null,"website_url":"https://www.shell.at/tanken/shell-tankstellensuche/standorte.html/10022844-kirchbichl-tirol-loferer-strasse","mdm_site_category":"Conventional Fuel Site with EV","formatted_address":"LOFERER STRASSE 5\nKIRCHBICHL/TIROL, Tirol, 6322","site_category":"conventional_fuel_site_with_ev"},{"id":"10022838","name":"INNSBRUCK KRANEBITTER ALLEE.","lat":47.26487,"lng":11.369036,"brand":"Shell","inactive":false,"type":0,"country_code":"AT","address":"KRANEBITTER ALLEE 14","city":"INNSBRUCK","state":"Tirol","postcode":"6020","telephone":"+43 512 283735","country":"Austria","amenities":["adblue_pack","air_and_water","apple_pay","austrian_highway_sticker","b2b_shell_card_ota","bakery_shop","billa_unterwegs","carwash","credit_card","credit_card_american_express","credit_card_diners_club","credit_card_general","credit_card_mastercard","credit_card_visa","disabled_facilities","fleet_card_dkv","fleet_card_esso","fleet_card_uta","go_plus","google_pay","high_speed_diesel_pump","jet","loyalty_cards","loyalty_program","mobile_payment","mobile_payment_amex","mobile_payment_maestro","mobile_payment_mastercard","mobile_payment_visa","other_loyalty_cards","parking_lanes","paypal","rollover","self_service","shell_card","standard_toilet","touchless_pay","twenty_four_hour_ev_service","type_of_parking","vacuum","wifi","manned"],"distance":141.97364891279,"driving_distance":null,"driving_duration":null,"website_url":"https://www.shell.at/tanken/shell-tankstellensuche/standorte.html/10022838-innsbruck-kranebitter-allee","mdm_site_category":"Conventional Fuel Site with EV","formatted_address":"KRANEBITTER ALLEE 14\nINNSBRUCK, Tirol, 6020","site_category":"conventional_fuel_site_with_ev"},{"id":"13101481","name":"PRESTRANEK","lat":45.728174,"lng":14.187886,"brand":"Shell","inactive":false,"type":0,"country_code":"SI","address":"REŠKA CESTA 18B","city":"PRESTRANEK","state":"Postojna","postcode":"6258","telephone":"+386 51 276 728","country":"Slovenia","amenities":["credit_card","credit_card_mastercard","food_offerings","self_service","shell_card","shop","snack_food","manned"],"distance":142.72524675467,"driving_distance":null,"driving_duration":null,"website_url":"https://find.shell.com/si/fuel/13101481-prestranek/it_IT","mdm_site_category":"Conventional Fuel Site","formatted_address":"REŠKA CESTA 18B\nPRESTRANEK, Postojna, 6258","site_category":"conventional_fuel_site"},{"id":"10022961","name":"KLAGENFURT KOSCHATSTRASSE 116 NORD.","lat":46.623314,"lng":14.283785,"brand":"Shell","inactive":false,"type":2,"country_code":"AT","address":"KOSCHATSTRASSE 116 NORD","city":"KLAGENFURT","state":"Kärnten","postcode":"9020","telephone":"+43 463 515988","country":"Austria","amenities":["adblue_pack","air_and_water","apple_pay","b2b_shell_card_ota","bakery_shop","billa_unterwegs","carwash","credit_card","credit_card_american_express","credit_card_mastercard","credit_card_visa","fleet_card_dkv","go_plus","google_pay","hgv_lane","loyalty_cards","loyalty_program","mobile_payment","mobile_payment_amex","mobile_payment_maestro","mobile_payment_mastercard","mobile_payment_visa","paypal","rollover","rollover_and_jet","self_service","shell_card","standard_toilet","wifi","manned"],"distance":142.85301328007,"driving_distance":null,"driving_duration":null,"website_url":"https://www.shell.at/tanken/shell-tankstellensuche/standorte.html/10022961-klagenfurt-koschatstrasse-116-nord","mdm_site_category":"Conventional Fuel Site","formatted_address":"KOSCHATSTRASSE 116 NORD\nKLAGENFURT, Kärnten, 9020","site_category":"conventional_fuel_site"},{"id":"10022964","name":"KLAGENFURT VIKTRINGERRING.","lat":46.620504,"lng":14.304217,"brand":"Shell","inactive":false,"type":2,"country_code":"AT","address":"VIKTRINGERRING 57","city":"KLAGENFURT","state":"Kärnten","postcode":"9020","telephone":"+43 463 56669","country":"Austria","amenities":["adblue_pack","air_and_water","apple_pay","b2b_shell_card_ota","bakery_shop","carwash","credit_card","credit_card_general","deli2go","fleet_card_general","go_plus","google_pay","hgv_lane","loyalty_cards","loyalty_program","mobile_payment","mobile_payment_amex","mobile_payment_maestro","mobile_payment_mastercard","mobile_payment_visa","paypal","rollover","self_service","shop","standard_toilet","wifi","manned"],"distance":144.26567052377,"driving_distance":null,"driving_duration":null,"website_url":"https://www.shell.at/tanken/shell-tankstellensuche/standorte.html/10022964-klagenfurt-viktringerring","mdm_site_category":"Conventional Fuel Site","formatted_address":"VIKTRINGERRING 57\nKLAGENFURT, Kärnten, 9020","site_category":"conventional_fuel_site"},{"id":"10022803","name":"EBEN (SUED) A10/TAUERNAUTOBAHN-EBE.","lat":47.421189,"lng":13.38054,"brand":"Shell","inactive":false,"type":2,"country_code":"AT","address":"A10/TAUERNAUTOBAHN-EBEN SUED","city":"EBEN (SUED)","state":"Salzburg","postcode":"5531","telephone":"+43 6458 8403","country":"Austria","amenities":["standard_toilet","mobile_payment","high_speed_diesel_pump","bakery_shop","loyalty_cards","credit_card","fuel_card","credit_card_general","self_service","austrian_highway_sticker","childs_toilet","fleet_card_dkv","fleet_card_uta","deli2go","twenty_four_hour","shop","adblue_truck","adblue_pack","loyalty_program","go_plus","paypal","b2b_shell_card_ota","disabled_facilities","hgv_lane","air_and_water","shower","wifi","apple_pay","google_pay","mobile_payment_amex","mobile_payment_visa","mobile_payment_mastercard","mobile_payment_maestro","manned"],"distance":146.44339011738998,"driving_distance":null,"driving_duration":null,"website_url":"https://www.shell.at/tanken/shell-tankstellensuche/standorte.html/10022803-eben-sued-a10-tauernautobahn-ebe","mdm_site_category":"Conventional Fuel Site with EV","formatted_address":"A10/TAUERNAUTOBAHN-EBEN SUED\nEBEN (SUED), Salzburg, 5531","site_category":"conventional_fuel_site_with_ev"},{"id":"10022802","name":"EBEN (NORD) A10/TAUERNAUTOBAHN-EBE.","lat":47.420831,"lng":13.384117,"brand":"Shell","inactive":false,"type":2,"country_code":"AT","address":"A10/TAUERNAUTOBAHN-EBEN NORD","city":"EBEN (NORD)","state":"Salzburg","postcode":"5531","telephone":"+43 6458 8401","country":"Austria","amenities":["adblue_pack","adblue_truck","air_and_water","apple_pay","austrian_highway_sticker","b2b_shell_card_ota","bakery_shop","childs_toilet","credit_card","credit_card_general","deli2go","disabled_facilities","fleet_card_dkv","fleet_card_uta","go_plus","google_pay","hgv_lane","high_speed_diesel_pump","loyalty_cards","loyalty_program","mobile_payment","mobile_payment_amex","mobile_payment_maestro","mobile_payment_mastercard","mobile_payment_visa","paypal","self_service","shop","shower","standard_toilet","twenty_four_hour","twenty_four_hour_ev_service","type_of_parking","wifi","manned"],"distance":146.5327547167,"driving_distance":null,"driving_duration":null,"website_url":"https://www.shell.at/tanken/shell-tankstellensuche/standorte.html/10022802-eben-nord-a10-tauernautobahn-ebe","mdm_site_category":"Conventional Fuel Site with EV","formatted_address":"A10/TAUERNAUTOBAHN-EBEN NORD\nEBEN (NORD), Salzburg, 5531","site_category":"conventional_fuel_site_with_ev"},{"id":"12661875","name":"SHELL ŠENČUR","lat":46.23803,"lng":14.409654,"brand":"Shell","inactive":false,"type":2,"country_code":"SI","address":"POSLOVNA CONA 12A","city":"ŠENČUR","state":"Kranj","postcode":"4208","telephone":"+386 1 514 05 00","country":"Slovenia","amenities":["adblue_truck","hgv_lane","high_speed_diesel_pump","pay_at_pump","shell_card","twenty_four_hour","unmanned"],"distance":146.85724357651,"driving_distance":null,"driving_duration":null,"website_url":"https://find.shell.com/si/fuel/12661875-shell-sencur/it_IT","mdm_site_category":"Conventional Fuel Site","formatted_address":"POSLOVNA CONA 12A\nŠENČUR, Kranj, 4208","site_category":"conventional_fuel_site"},{"id":"13111499","name":"BREZOVICA","lat":46.022511,"lng":14.407589,"brand":"Shell","inactive":false,"type":0,"country_code":"SI","address":"TRŽAŠKA CESTA 565","city":"BREZOVICA","state":"Vrhnika","postcode":"1351","telephone":"+386 51 276 730","country":"Slovenia","amenities":["cafe","food_offerings","free_toilet","sandwich","self_service","shell_card","shop","wifi","cctv","manned"],"distance":149.14075084665998,"driving_distance":null,"driving_duration":null,"website_url":"https://find.shell.com/si/fuel/13111499-brezovica/it_IT","mdm_site_category":"Conventional Fuel Site","formatted_address":"TRŽAŠKA CESTA 565\nBREZOVICA, Vrhnika, 1351","site_category":"conventional_fuel_site"},{"id":"10126830","name":"Rivoli Veronese","lat":45.576458,"lng":10.804309,"brand":"Shell","inactive":false,"type":2,"country_code":"IT","address":"Via Sabbioni n.7 - Località Porton","city":"Rivoli Veronese","state":"Verona","postcode":"37010","telephone":"","country":"Italy","amenities":["credit_card","credit_card_general","fleet_card_general","full_service","hgv_lane","high_speed_diesel_pump","pay_at_pump","shell_card","standard_toilet","truck_parking","type_of_parking","manned"],"distance":151.0535455679,"driving_distance":null,"driving_duration":null,"website_url":"https://find.shell.com/it/fuel/10126830-rivoli-veronese/it_IT","mdm_site_category":"Conventional Fuel Site","formatted_address":"Via Sabbioni n.7 - Località Porton\nRivoli Veronese, Verona, 37010","site_category":"conventional_fuel_site"},{"id":"10126820","name":"Pescantina","lat":45.49498,"lng":10.875489,"brand":"Shell","inactive":false,"type":0,"country_code":"IT","address":"Via Brennero n.26 (SP n. 12) Loc. Balconi","city":"Pescantina","state":"Verona","postcode":"37026","telephone":"","country":"Italy","amenities":["credit_card","credit_card_general","fleet_card_general","full_service","pay_at_pump","shell_card","standard_toilet","manned"],"distance":151.21185547513,"driving_distance":null,"driving_duration":null,"website_url":"https://find.shell.com/it/fuel/10126820-pescantina/it_IT","mdm_site_category":"Conventional Fuel Site","formatted_address":"Via Brennero n.26 (SP n. 12) Loc. Balconi\nPescantina, Verona, 37026","site_category":"conventional_fuel_site"},{"id":"10022813","name":"MANDLING MANDLINGSTRASSE.","lat":47.403949,"lng":13.571991,"brand":"Shell","inactive":false,"type":0,"country_code":"AT","address":"MANDLINGSTRASSE 8","city":"MANDLING","state":"Salzburg","postcode":"8974","telephone":"+43 6454 7221","country":"Austria","amenities":["air_and_water","credit_card","credit_card_general","fleet_card_general","pay_at_pump","self_service","shop","standard_toilet","manned"],"distance":152.03559238601,"driving_distance":null,"driving_duration":null,"website_url":"https://www.shell.at/tanken/shell-tankstellensuche/standorte.html/10022813-mandling-mandlingstrasse","mdm_site_category":"Conventional Fuel Site","formatted_address":"MANDLINGSTRASSE 8\nMANDLING, Salzburg, 8974","site_category":"conventional_fuel_site"},{"id":"10022849","name":"PETTNAU DR.OTTO-KEIMEL-WEG","lat":47.284613,"lng":11.163772,"brand":"Shell","inactive":false,"type":2,"country_code":"AT","address":"DR.OTTO-KEIMEL-WEG 11","city":"PETTNAU","state":"Tirol","postcode":"6408","telephone":"+43 5238 8734411","country":"Austria","amenities":["standard_toilet","mobile_payment","high_speed_diesel_pump","bakery_shop","loyalty_cards","credit_card","fuel_card","credit_card_general","parking_lanes","full_service","self_service","austrian_highway_sticker","fleet_card_dkv","fleet_card_uta","credit_card_visa","credit_card_mastercard","credit_card_american_express","deli2go","twenty_four_hour","starbucks","shop","truck_parking","adblue_truck","adblue_pack","loyalty_program","go_plus","paypal","b2b_shell_card_ota","disabled_facilities","hgv_lane","air_and_water","shower","wifi","apple_pay","google_pay","mobile_payment_amex","mobile_payment_visa","mobile_payment_mastercard","mobile_payment_maestro","manned"],"distance":153.59486135606,"driving_distance":null,"driving_duration":null,"website_url":"https://www.shell.at/tanken/shell-tankstellensuche/standorte.html/10022849-pettnau-dr-otto-keimel-weg","mdm_site_category":"Conventional Fuel Site with EV","formatted_address":"DR.OTTO-KEIMEL-WEG 11\nPETTNAU, Tirol, 6408","site_category":"conventional_fuel_site_with_ev"},{"id":"10022928","name":"SCHLADMING SALZBURGERSTRASSE.","lat":47.391451,"lng":13.682166,"brand":"Shell","inactive":false,"type":0,"country_code":"AT","address":"SALZBURGERSTRASSE 674","city":"SCHLADMING","state":"Steiermark","postcode":"8970","telephone":"+43 3687 22689","country":"Austria","amenities":["adblue_pack","air_and_water","apple_pay","b2b_shell_card_ota","bakery_shop","carwash","credit_card","credit_card_american_express","credit_card_mastercard","credit_card_visa","deli2go","fleet_card_dkv","fleet_card_general","fleet_card_uta","go_plus","google_pay","high_speed_diesel_pump","loyalty_cards","loyalty_program","mobile_payment","mobile_payment_amex","mobile_payment_maestro","mobile_payment_mastercard","mobile_payment_visa","paypal","rollover","self_service","shop","standard_toilet","vacuum","wifi","manned"],"distance":155.56112099508002,"driving_distance":null,"driving_duration":null,"website_url":"https://www.shell.at/tanken/shell-tankstellensuche/standorte.html/10022928-schladming-salzburgerstrasse","mdm_site_category":"Conventional Fuel Site","formatted_address":"SALZBURGERSTRASSE 674\nSCHLADMING, Steiermark, 8970","site_category":"conventional_fuel_site"},{"id":"10022856","name":"SEEFELD INNSBRUCKER STRASSE.","lat":47.325349,"lng":11.189991,"brand":"Shell","inactive":false,"type":0,"country_code":"AT","address":"INNSBRUCKER STRASSE 272","city":"SEEFELD","state":"Tirol","postcode":"6100","telephone":"+43 5212 2914","country":"Austria","amenities":["adblue_pack","air_and_water","apple_pay","austrian_highway_sticker","b2b_shell_card_ota","carwash","credit_card","credit_card_american_express","credit_card_mastercard","credit_card_visa","disabled_facilities","fleet_card_dkv","fleet_card_esso","fleet_card_uta","go_plus","google_pay","high_speed_diesel_pump","loyalty_cards","loyalty_program","mobile_payment","mobile_payment_amex","mobile_payment_maestro","mobile_payment_mastercard","mobile_payment_visa","partner_card","paypal","rollover","self_service","shell_card","shop","standard_toilet","vacuum","wifi","manned"],"distance":155.70507907161002,"driving_distance":null,"driving_duration":null,"website_url":"https://www.shell.at/tanken/shell-tankstellensuche/standorte.html/10022856-seefeld-innsbrucker-strasse","mdm_site_category":"Conventional Fuel Site","formatted_address":"INNSBRUCKER STRASSE 272\nSEEFELD, Tirol, 6100","site_category":"conventional_fuel_site"},{"id":"10126666","name":"SHELL PAZIN","lat":45.24067,"lng":13.91248,"brand":"Shell","inactive":false,"type":0,"country_code":"HR","address":"Šime Kurelića 34","city":"Pazin","state":null,"postcode":"52000","telephone":"","country":"Croatia","amenities":["full_service","manned"],"distance":156.8685043754,"driving_distance":null,"driving_duration":null,"website_url":"https://find.shell.com/hr/fuel/10126666-shell-pazin/it_IT","mdm_site_category":"Conventional Fuel Site","formatted_address":"Šime Kurelića 34\nPazin, 52000","site_category":"conventional_fuel_site"},{"id":"12527743","name":"MITTENWALD, AM BRUNNSTEIN","lat":47.39957,"lng":11.266046,"brand":"Shell","inactive":false,"type":0,"country_code":"DE","address":"AM BRUNNSTEIN 2","city":"MITTENWALD","state":"Bayern","postcode":"82481","telephone":"+49 8823 5250","country":"Germany","amenities":["air_and_water","apple_pay","b2b_shell_card_ota","bakery_shop","bottled_gas","cafe","food_offerings","google_pay","loyalty_cards","loyalty_program","mobile_payment","mobile_payment_amex","mobile_payment_maestro","mobile_payment_mastercard","mobile_payment_visa","paypal","self_service","shell_card","shop","smart_deal","twenty_four_hour","wifi","manned"],"distance":158.59440676655,"driving_distance":null,"driving_duration":null,"website_url":"https://find.shell.com/de/fuel/12527743-mittenwald-am-brunnstein/it_IT","mdm_site_category":"Conventional Fuel Site","formatted_address":"AM BRUNNSTEIN 2\nMITTENWALD, Bayern, 82481","site_category":"conventional_fuel_site"},{"id":"10022861","name":"TELFS ANTON AUER-STRASSE.","lat":47.30548,"lng":11.074925,"brand":"Shell","inactive":false,"type":2,"country_code":"AT","address":"ANTON AUER-STRASSE 15","city":"TELFS","state":"Tirol","postcode":"6410","telephone":"+43 5262 629734","country":"Austria","amenities":["adblue_pack","air_and_water","apple_pay","b2b_shell_card_ota","bakery_shop","billa_unterwegs","carwash","credit_card","credit_card_american_express","credit_card_mastercard","credit_card_visa","disabled_facilities","fleet_card_dkv","fleet_card_uta","go_plus","google_pay","hgv_lane","high_speed_diesel_pump","loyalty_cards","loyalty_program","mobile_payment","mobile_payment_amex","mobile_payment_maestro","mobile_payment_mastercard","mobile_payment_visa","parking_lanes","paypal","rollover","rollover_and_jet","self_service","shell_card","standard_toilet","twenty_four_hour_ev_service","type_of_parking","vacuum","wifi","manned"],"distance":159.84042907192,"driving_distance":null,"driving_duration":null,"website_url":"https://www.shell.at/tanken/shell-tankstellensuche/standorte.html/10022861-telfs-anton-auer-strasse","mdm_site_category":"Conventional Fuel Site with EV","formatted_address":"ANTON AUER-STRASSE 15\nTELFS, Tirol, 6410","site_category":"conventional_fuel_site_with_ev"},{"id":"10126724","name":"SHELL KANFANAR","lat":45.113525,"lng":13.807369,"brand":"Shell","inactive":false,"type":2,"country_code":"HR","address":"Okreti 1a","city":"Kanfanar","state":null,"postcode":"52352","telephone":"","country":"Croatia","amenities":["adblue_pack","adblue_truck","air_and_water","bottled_gas","cafe","credit_card","credit_card_general","disabled_facilities","fleet_card_general","food_offerings","full_service","hgv_lane","loyalty_cards","money_transfer_services","other_loyalty_cards","other_oil_change","pay_at_pump","shop","standard_toilet","wifi","manned"],"distance":162.12053175263,"driving_distance":null,"driving_duration":null,"website_url":"https://find.shell.com/hr/fuel/10126724-shell-kanfanar/it_IT","mdm_site_category":"Conventional Fuel Site","formatted_address":"Okreti 1a\nKanfanar, 52352","site_category":"conventional_fuel_site"},{"id":"10022848","name":"OETZ HAUPTSTRASSE","lat":47.205174,"lng":10.889658,"brand":"Shell","inactive":false,"type":0,"country_code":"AT","address":"HAUPTSTRASSE 26","city":"OETZ","state":"Tirol","postcode":"6433","telephone":"+43 5252 6349","country":"Austria","amenities":["adblue_pack","air_and_water","apple_pay","austrian_highway_sticker","b2b_shell_card_ota","bakery_shop","carwash","credit_card","credit_card_american_express","credit_card_mastercard","credit_card_visa","deli2go","disabled_facilities","fleet_card_dkv","fleet_card_esso","fleet_card_uta","go_plus","google_pay","high_speed_diesel_pump","loyalty_cards","loyalty_program","mobile_payment","mobile_payment_amex","mobile_payment_maestro","mobile_payment_mastercard","mobile_payment_visa","other_loyalty_cards","parking_lanes","paypal","rollover","selectshop","self_service","shell_card","standard_toilet","type_of_parking","vacuum","wifi","manned"],"distance":162.30858841001998,"driving_distance":null,"driving_duration":null,"website_url":"https://www.shell.at/tanken/shell-tankstellensuche/standorte.html/10022848-oetz-hauptstrasse","mdm_site_category":"Conventional Fuel Site","formatted_address":"HAUPTSTRASSE 26\nOETZ, Tirol, 6433","site_category":"conventional_fuel_site"},{"id":"10126826","name":"Nogara","lat":45.179444,"lng":11.044678,"brand":"Shell","inactive":false,"type":2,"country_code":"IT","address":"Via Pioppone n.23 (SR 10 Km 310+942 lato dx)","city":"Nogara","state":"Verona","postcode":"37054","telephone":"","country":"Italy","amenities":["credit_card","credit_card_general","fleet_card_general","full_service","hgv_lane","high_speed_diesel_pump","pay_at_pump","shell_card","truck_parking","type_of_parking","manned"],"distance":164.12110247665,"driving_distance":null,"driving_duration":null,"website_url":"https://find.shell.com/it/fuel/10126826-nogara/it_IT","mdm_site_category":"Conventional Fuel Site","formatted_address":"Via Pioppone n.23 (SR 10 Km 310+942 lato dx)\nNogara, Verona, 37054","site_category":"conventional_fuel_site"},{"id":"10022970","name":"TREIBACH POECKSTEIN.","lat":46.888189,"lng":14.439279,"brand":"Shell","inactive":false,"type":2,"country_code":"AT","address":"PÖCKSTEIN 4","city":"STRASSBURG","state":"Kärnten","postcode":"9341","telephone":"+43 4262 4728","country":"Austria","amenities":["adblue_pack","air_and_water","apple_pay","b2b_shell_card_ota","bakery_shop","carwash","credit_card","credit_card_american_express","credit_card_mastercard","credit_card_visa","fleet_card_dkv","fleet_card_uta","full_service","go_plus","google_pay","hgv_lane","loyalty_cards","loyalty_program","mobile_payment","mobile_payment_amex","mobile_payment_maestro","mobile_payment_mastercard","mobile_payment_visa","paypal","rollover","shell_card","shop","standard_toilet","twenty_four_hour_ev_service","wifi","manned"],"distance":164.34978767152,"driving_distance":null,"driving_duration":null,"website_url":"https://www.shell.at/tanken/shell-tankstellensuche/standorte.html/10022970-treibach-poeckstein","mdm_site_category":"Conventional Fuel Site with EV","formatted_address":"PÖCKSTEIN 4\nSTRASSBURG, Kärnten, 9341","site_category":"conventional_fuel_site_with_ev"},{"id":"10126718","name":"Salò","lat":45.611691,"lng":10.511491,"brand":"Shell","inactive":false,"type":0,"country_code":"IT","address":"Via dei Colli n. 19 (SS 45 bis km.68+182)","city":"Salò","state":"Brescia","postcode":"25087","telephone":"","country":"Italy","amenities":["credit_card","credit_card_general","fleet_card_general","full_service","pay_at_pump","shell_card","manned"],"distance":169.37134325536,"driving_distance":null,"driving_duration":null,"website_url":"https://find.shell.com/it/fuel/10126718-salo/it_IT","mdm_site_category":"Conventional Fuel Site","formatted_address":"Via dei Colli n. 19 (SS 45 bis km.68+182)\nSalò, Brescia, 25087","site_category":"conventional_fuel_site"},{"id":"10126684","name":"Manerba Del Garda","lat":45.557879,"lng":10.549762,"brand":"Shell","inactive":false,"type":0,"country_code":"IT","address":"Via Panoramica n. 69","city":"Manerba Del Garda","state":"Brescia","postcode":"25080","telephone":"","country":"Italy","amenities":["credit_card","credit_card_general","fleet_card_general","full_service","pay_at_pump","shell_card","standard_toilet","manned"],"distance":169.3878948,"driving_distance":null,"driving_duration":null,"website_url":"https://find.shell.com/it/fuel/10126684-manerba-del-garda/it_IT","mdm_site_category":"Conventional Fuel Site","formatted_address":"Via Panoramica n. 69\nManerba Del Garda, Brescia, 25080","site_category":"conventional_fuel_site"},{"id":"12823251","name":"IMST LANGGASSE.","lat":47.226665,"lng":10.747319,"brand":"Shell","inactive":false,"type":0,"country_code":"AT","address":"LANGGASSE 96","city":"IMST","state":"Tirol","postcode":"6460","telephone":"+43 5412 6515155","country":"Austria","amenities":["air_and_water","selectshop","standard_toilet","manned"],"distance":172.13573312464,"driving_distance":null,"driving_duration":null,"website_url":"https://www.shell.at/tanken/shell-tankstellensuche/standorte.html/12823251-imst-langgasse","mdm_site_category":"Conventional Fuel Site","formatted_address":"LANGGASSE 96\nIMST, Tirol, 6460","site_category":"conventional_fuel_site"},{"id":"10022921","name":"OBERWOELZ HAUPTPLATZ.","lat":47.203328,"lng":14.281349,"brand":"Shell","inactive":false,"type":0,"country_code":"AT","address":"HAUPTPLATZ 30","city":"OBERWOELZ","state":"Steiermark","postcode":"8832","telephone":"+43 3581 8413","country":"Austria","amenities":["adblue_pack","air_and_water","credit_card","credit_card_general","fleet_card_general","self_service","shop","standard_toilet","manned"],"distance":172.25019452392002,"driving_distance":null,"driving_duration":null,"website_url":"https://www.shell.at/tanken/shell-tankstellensuche/standorte.html/10022921-oberwoelz-hauptplatz","mdm_site_category":"Conventional Fuel Site","formatted_address":"HAUPTPLATZ 30\nOBERWOELZ, Steiermark, 8832","site_category":"conventional_fuel_site"},{"id":"10024393","name":"GARMISCH PARTENK., HAUPTSTR.","lat":47.490085,"lng":11.112933,"brand":"Shell","inactive":false,"type":0,"country_code":"DE","address":"HAUPTSTR. 97","city":"GARMISCH PARTENKIRCHEN","state":"Bayern","postcode":"82467","telephone":"+49 8821 4466","country":"Germany","amenities":["adblue_car","adblue_pack","air_and_water","apple_pay","b2b_shell_card_ota","bakery_shop","bottled_gas","cafe","carwash","credit_card","credit_card_general","fleet_card_general","food_offerings","google_pay","loyalty_cards","loyalty_program","mobile_payment","mobile_payment_amex","mobile_payment_maestro","mobile_payment_mastercard","mobile_payment_visa","other_loyalty_cards","paypal","recup","rollover","self_service","shell_card","shop","smart_deal","standard_toilet","twenty_four_hour_ev_service","wifi","manned"],"distance":173.58045275974,"driving_distance":null,"driving_duration":null,"website_url":"https://find.shell.com/de/fuel/10024393-garmisch-partenk-hauptstr/it_IT","mdm_site_category":"Conventional Fuel Site with EV","formatted_address":"HAUPTSTR. 97\nGARMISCH PARTENKIRCHEN, Bayern, 82467","site_category":"conventional_fuel_site_with_ev"},{"id":"12099129","name":"TARRENZ HAUPTSTRASSE.","lat":47.259934,"lng":10.755406,"brand":"Shell","inactive":false,"type":0,"country_code":"AT","address":"HAUPTSTRASSE 78","city":"TARRENZ","state":"Tirol","postcode":"6464","telephone":"+43 5412 62733","country":"Austria","amenities":["adblue_pack","air_and_water","austrian_highway_sticker","bakery_shop","credit_card","credit_card_american_express","credit_card_mastercard","credit_card_visa","parking_lanes","partner_card","self_service","shell_card","shop","standard_toilet","type_of_parking","vacuum","manned"],"distance":173.99036748129,"driving_distance":null,"driving_duration":null,"website_url":"https://www.shell.at/tanken/shell-tankstellensuche/standorte.html/12099129-tarrenz-hauptstrasse","mdm_site_category":"Conventional Fuel Site","formatted_address":"HAUPTSTRASSE 78\nTARRENZ, Tirol, 6464","site_category":"conventional_fuel_site"},{"id":"11910061","name":"EHRWALD GARMISCHER STRASSE.","lat":47.407381,"lng":10.91237,"brand":"Shell","inactive":false,"type":0,"country_code":"AT","address":"GARMISCHER STRASSE 19","city":"EHRWALD","state":"Tirol","postcode":"6632","telephone":"+43 5673 2345","country":"Austria","amenities":["adblue_pack","air_and_water","austrian_highway_sticker","carwash","credit_card","credit_card_american_express","credit_card_mastercard","credit_card_visa","disabled_facilities","fast_food","food_offerings","jet","parking_lanes","rollover","rollover_and_jet","self_service","shell_card","shop","standard_toilet","type_of_parking","vacuum","manned"],"distance":176.48886054487,"driving_distance":null,"driving_duration":null,"website_url":"https://www.shell.at/tanken/shell-tankstellensuche/standorte.html/11910061-ehrwald-garmischer-strasse","mdm_site_category":"Conventional Fuel Site","formatted_address":"GARMISCHER STRASSE 19\nEHRWALD, Tirol, 6632","site_category":"conventional_fuel_site"},{"id":"10022852","name":"REUTTE INNSBRUCKERSTRASSE.","lat":47.479705,"lng":10.730316,"brand":"Shell","inactive":false,"type":2,"country_code":"AT","address":"INNSBRUCKERSTRASSE 53","city":"REUTTE","state":"Tirol","postcode":"6600","telephone":"+43 5672 71644","country":"Austria","amenities":["adblue_pack","air_and_water","apple_pay","austrian_highway_sticker","b2b_shell_card_ota","bakery_shop","billa_unterwegs","carwash","credit_card","credit_card_american_express","credit_card_general","credit_card_mastercard","credit_card_visa","fleet_card_dkv","fleet_card_esso","fleet_card_uta","go_plus","google_pay","hgv_lane","high_speed_diesel_pump","loyalty_cards","loyalty_program","manual","mobile_payment","mobile_payment_amex","mobile_payment_maestro","mobile_payment_mastercard","mobile_payment_visa","parking_lanes","paypal","rollover","self_service","shell_card","standard_toilet","type_of_parking","vacuum","wifi","manned"],"distance":191.82018884034,"driving_distance":null,"driving_duration":null,"website_url":"https://www.shell.at/tanken/shell-tankstellensuche/standorte.html/10022852-reutte-innsbruckerstrasse","mdm_site_category":"Conventional Fuel Site","formatted_address":"INNSBRUCKERSTRASSE 53\nREUTTE, Tirol, 6600","site_category":"conventional_fuel_site"},{"id":"12685522","name":"STANZACH NR. 149","lat":47.38672,"lng":10.562798,"brand":"Shell","inactive":false,"type":0,"country_code":"AT","address":"NR. 149","city":"STANZACH","state":"Tirol","postcode":"6642","telephone":"+43 5632 228","country":"Austria","amenities":["air_and_water","self_service","shop","manned"],"distance":194.1666814104,"driving_distance":null,"driving_duration":null,"website_url":"https://www.shell.at/tanken/shell-tankstellensuche/standorte.html/12685522-stanzach-nr-149","mdm_site_category":"Conventional Fuel Site","formatted_address":"NR. 149\nSTANZACH, Tirol, 6642","site_category":"conventional_fuel_site"}],"clusters":[]}