{"locations":[{"id":"10126689","name":"SHELL KRIŽ","lat":45.661057,"lng":16.528316,"brand":"Shell","inactive":false,"type":2,"country_code":"HR","address":"Moslavačka ulica 1a, Novoselec","city":"Križ","state":null,"postcode":"10314","telephone":"","country":"Croatia","amenities":["adblue_pack","air_and_water","bottled_gas","cafe","credit_card","credit_card_general","disabled_facilities","fleet_card_general","food_offerings","full_service","hgv_lane","loyalty_cards","other_loyalty_cards","other_oil_change","pay_at_pump","shop","standard_toilet","wifi","manned"],"distance":10.13150275504,"driving_distance":null,"driving_duration":null,"website_url":"https://find.shell.com/hr/fuel/10126689-shell-kriz/it_IT","mdm_site_category":"Conventional Fuel Site","formatted_address":"Moslavačka ulica 1a, Novoselec\nKriž, 10314","site_category":"conventional_fuel_site"},{"id":"10126665","name":"SHELL RUGOVICA","lat":45.766857,"lng":16.233946,"brand":"Shell","inactive":false,"type":2,"country_code":"HR","address":"Dugoselska ulica 1","city":"Rugvica","state":null,"postcode":"10372","telephone":"","country":"Croatia","amenities":["adblue_pack","adblue_truck","air_and_water","bottled_gas","cafe","carwash","credit_card","credit_card_general","disabled_facilities","fleet_card_general","food_offerings","full_service","hgv_lane","loyalty_cards","money_transfer_services","other_loyalty_cards","other_oil_change","pay_at_pump","restaurant","shop","standard_toilet","truck_parking","twenty_four_hour","type_of_parking","vacuum","wifi","manned"],"distance":20.72516938033,"driving_distance":null,"driving_duration":null,"website_url":"https://find.shell.com/hr/fuel/10126665-shell-rugovica/it_IT","mdm_site_category":"Conventional Fuel Site","formatted_address":"Dugoselska ulica 1\nRugvica, 10372","site_category":"conventional_fuel_site"},{"id":"10126750","name":"SHELL SOP","lat":45.783811,"lng":16.151141,"brand":"Shell","inactive":false,"type":2,"country_code":"HR","address":"Selska cesta 19, Sop","city":"Sesvetski Kraljevec","state":null,"postcode":"10360","telephone":"","country":"Croatia","amenities":["adblue_pack","adblue_truck","air_and_water","bottled_gas","cafe","carwash","credit_card","credit_card_general","disabled_facilities","fleet_card_general","food_offerings","full_service","hgv_lane","loyalty_cards","other_loyalty_cards","other_oil_change","pay_at_pump","shop","standard_toilet","vacuum","wifi","manned"],"distance":27.319973877640003,"driving_distance":null,"driving_duration":null,"website_url":"https://find.shell.com/hr/fuel/10126750-shell-sop/it_IT","mdm_site_category":"Conventional Fuel Site","formatted_address":"Selska cesta 19, Sop\nSesvetski Kraljevec, 10360","site_category":"conventional_fuel_site"},{"id":"10126672","name":"SHELL IVANJA REKA","lat":45.795913,"lng":16.14751,"brand":"Shell","inactive":false,"type":0,"country_code":"HR","address":"Ulica Alfreda Nobela 10/1","city":"Sesvetski Kraljevec","state":null,"postcode":"10361","telephone":"","country":"Croatia","amenities":["full_service","manned"],"distance":27.811331003539998,"driving_distance":null,"driving_duration":null,"website_url":"https://find.shell.com/hr/fuel/10126672-shell-ivanja-reka/it_IT","mdm_site_category":"Conventional Fuel Site","formatted_address":"Ulica Alfreda Nobela 10/1\nSesvetski Kraljevec, 10361","site_category":"conventional_fuel_site"},{"id":"10126713","name":"SHELL SESVETE ZAGREBAČKA","lat":45.827105,"lng":16.081614,"brand":"Shell","inactive":false,"type":0,"country_code":"HR","address":"Zagrebačka cesta 162","city":"Sesvete","state":null,"postcode":"10360","telephone":"","country":"Croatia","amenities":["adblue_pack","adblue_truck","air_and_water","bottled_gas","cafe","credit_card","credit_card_general","disabled_facilities","fleet_card_general","food_offerings","full_service","loyalty_cards","other_loyalty_cards","other_oil_change","pay_at_pump","shop","standard_toilet","wifi","manned"],"distance":33.5543048248,"driving_distance":null,"driving_duration":null,"website_url":"https://find.shell.com/hr/fuel/10126713-shell-sesvete-zagrebacka/it_IT","mdm_site_category":"Conventional Fuel Site","formatted_address":"Zagrebačka cesta 162\nSesvete, 10360","site_category":"conventional_fuel_site"},{"id":"10126685","name":"SHELL PETRINJA","lat":45.440994,"lng":16.268247,"brand":"Shell","inactive":false,"type":0,"country_code":"HR","address":"Zagrebačka ulica 2a","city":"Petrinja","state":null,"postcode":"44250","telephone":"","country":"Croatia","amenities":["adblue_pack","adblue_truck","air_and_water","bottled_gas","cafe","credit_card","credit_card_general","disabled_facilities","fleet_card_general","food_offerings","full_service","loyalty_cards","other_loyalty_cards","other_oil_change","pay_at_pump","shop","standard_toilet","wifi","manned"],"distance":38.8038918805,"driving_distance":null,"driving_duration":null,"website_url":"https://find.shell.com/hr/fuel/10126685-shell-petrinja/it_IT","mdm_site_category":"Conventional Fuel Site","formatted_address":"Zagrebačka ulica 2a\nPetrinja, 44250","site_category":"conventional_fuel_site"},{"id":"10126743","name":"SHELL MARKUŠEVEC","lat":45.8613,"lng":16.02483,"brand":"Shell","inactive":false,"type":0,"country_code":"HR","address":"Štefanovec 40","city":"Zagreb","state":null,"postcode":"10000","telephone":"","country":"Croatia","amenities":["full_service","manned"],"distance":38.855651044519995,"driving_distance":null,"driving_duration":null,"website_url":"https://find.shell.com/hr/fuel/10126743-shell-markusevec/it_IT","mdm_site_category":"Conventional Fuel Site","formatted_address":"Štefanovec 40\nZagreb, 10000","site_category":"conventional_fuel_site"},{"id":"10126709","name":"SHELL KONJŠČINA","lat":46.053171,"lng":16.172453,"brand":"Shell","inactive":false,"type":2,"country_code":"HR","address":"Krapinska 1a","city":"Konjščina","state":null,"postcode":"49282","telephone":"","country":"Croatia","amenities":["adblue_pack","air_and_water","bottled_gas","cafe","carwash","credit_card","credit_card_general","disabled_facilities","fleet_card_general","food_offerings","full_service","hgv_lane","loyalty_cards","other_loyalty_cards","other_oil_change","pay_at_pump","shop","standard_toilet","vacuum","wifi","manned"],"distance":42.176169343119994,"driving_distance":null,"driving_duration":null,"website_url":"https://find.shell.com/hr/fuel/10126709-shell-konjscina/it_IT","mdm_site_category":"Conventional Fuel Site","formatted_address":"Krapinska 1a\nKonjščina, 49282","site_category":"conventional_fuel_site"},{"id":"10126699","name":"SHELL KOPRIVNICA","lat":46.145085,"lng":16.83858,"brand":"Shell","inactive":false,"type":2,"country_code":"HR","address":"Bjelovarska cesta 54","city":"Koprivnica","state":null,"postcode":"48000","telephone":"","country":"Croatia","amenities":["adblue_pack","adblue_truck","air_and_water","bottled_gas","cafe","credit_card","credit_card_general","disabled_facilities","fleet_card_general","food_offerings","full_service","hgv_lane","loyalty_cards","other_loyalty_cards","other_oil_change","pay_at_pump","shop","standard_toilet","wifi","manned"],"distance":51.13932648288,"driving_distance":null,"driving_duration":null,"website_url":"https://find.shell.com/hr/fuel/10126699-shell-koprivnica/it_IT","mdm_site_category":"Conventional Fuel Site","formatted_address":"Bjelovarska cesta 54\nKoprivnica, 48000","site_category":"conventional_fuel_site"},{"id":"10126679","name":"SHELL BISTRA","lat":45.899217,"lng":15.855739,"brand":"Shell","inactive":false,"type":0,"country_code":"HR","address":"Stubička 458","city":"Donja Bistra","state":null,"postcode":"10298","telephone":"","country":"Croatia","amenities":["adblue_pack","air_and_water","bottled_gas","credit_card","credit_card_general","disabled_facilities","fleet_card_general","full_service","loyalty_cards","other_loyalty_cards","other_oil_change","pay_at_pump","shop","standard_toilet","wifi","manned"],"distance":52.60682734561,"driving_distance":null,"driving_duration":null,"website_url":"https://find.shell.com/hr/fuel/10126679-shell-bistra/it_IT","mdm_site_category":"Conventional Fuel Site","formatted_address":"Stubička 458\nDonja Bistra, 10298","site_category":"conventional_fuel_site"},{"id":"10126734","name":"SHELL MOKRICE","lat":46.00737,"lng":15.87656,"brand":"Shell","inactive":false,"type":0,"country_code":"HR","address":"Mokrice 184C","city":"Mokrice","state":null,"postcode":"49243","telephone":"","country":"Croatia","amenities":["full_service","manned"],"distance":56.108462859359996,"driving_distance":null,"driving_duration":null,"website_url":"https://find.shell.com/hr/fuel/10126734-shell-mokrice/it_IT","mdm_site_category":"Conventional Fuel Site","formatted_address":"Mokrice 184C\nMokrice, 49243","site_category":"conventional_fuel_site"},{"id":"10126660","name":"SHELL VARAŽDIN","lat":46.26522,"lng":16.370841,"brand":"Shell","inactive":false,"type":2,"country_code":"HR","address":"Ulica Mavra Schlengera 25","city":"Gornji Kneginec","state":null,"postcode":"42204","telephone":"","country":"Croatia","amenities":["adblue_pack","adblue_truck","air_and_water","bottled_gas","cafe","credit_card","credit_card_general","disabled_facilities","fleet_card_general","food_offerings","full_service","hgv_lane","loyalty_cards","money_transfer_services","other_loyalty_cards","other_oil_change","pay_at_pump","restaurant","shop","standard_toilet","truck_parking","type_of_parking","wifi","manned"],"distance":58.151851243589995,"driving_distance":null,"driving_duration":null,"website_url":"https://find.shell.com/hr/fuel/10126660-shell-varazdin/it_IT","mdm_site_category":"Conventional Fuel Site","formatted_address":"Ulica Mavra Schlengera 25\nGornji Kneginec, 42204","site_category":"conventional_fuel_site"},{"id":"10126677","name":"SHELL PRIGORJE BRDOVEČKO","lat":45.877904,"lng":15.739015,"brand":"Shell","inactive":false,"type":0,"country_code":"HR","address":"Zagrebačka 27","city":"Prigorje Brdovečko","state":null,"postcode":"10291","telephone":"","country":"Croatia","amenities":["adblue_pack","air_and_water","bottled_gas","cafe","carwash","credit_card","credit_card_general","disabled_facilities","fleet_card_general","food_offerings","full_service","loyalty_cards","other_loyalty_cards","other_oil_change","pay_at_pump","shop","standard_toilet","vacuum","wifi","manned"],"distance":60.66812719059,"driving_distance":null,"driving_duration":null,"website_url":"https://find.shell.com/hr/fuel/10126677-shell-prigorje-brdovecko/it_IT","mdm_site_category":"Conventional Fuel Site","formatted_address":"Zagrebačka 27\nPrigorje Brdovečko, 10291","site_category":"conventional_fuel_site"},{"id":"10126694","name":"SHELL VARAZDIN 2","lat":46.295951,"lng":16.31098,"brand":"Shell","inactive":false,"type":0,"country_code":"HR","address":"Ul. brace Radic 204","city":"Varazdin ","state":null,"postcode":"42000","telephone":"","country":"Croatia","amenities":["full_service","shell_card","shop","wifi","manned"],"distance":62.436650538980004,"driving_distance":null,"driving_duration":null,"website_url":"https://find.shell.com/hr/fuel/10126694-shell-varazdin-2/it_IT","mdm_site_category":"Conventional Fuel Site","formatted_address":"Ul. brace Radic 204\nVarazdin , 42000","site_category":"conventional_fuel_site"},{"id":"10126725","name":"SHELL ŠENKOVEC","lat":45.92811,"lng":15.66673,"brand":"Shell","inactive":false,"type":0,"country_code":"HR","address":"Zagrebačka ulica 110","city":"Šenkovec","state":null,"postcode":"10292","telephone":"","country":"Croatia","amenities":["full_service","manned"],"distance":67.52039494851999,"driving_distance":null,"driving_duration":null,"website_url":"https://find.shell.com/hr/fuel/10126725-shell-senkovec/it_IT","mdm_site_category":"Conventional Fuel Site","formatted_address":"Zagrebačka ulica 110\nŠenkovec, 10292","site_category":"conventional_fuel_site"},{"id":"10126740","name":"SHELL VIROVITICA","lat":45.82564,"lng":17.393915,"brand":"Shell","inactive":false,"type":2,"country_code":"HR","address":"Vinkovačka cesta 10","city":"Virovitica","state":null,"postcode":"33000","telephone":"","country":"Croatia","amenities":["adblue_pack","air_and_water","bottled_gas","credit_card","credit_card_general","disabled_facilities","fleet_card_general","full_service","hgv_lane","loyalty_cards","other_loyalty_cards","other_oil_change","pay_at_pump","shop","standard_toilet","wifi","manned"],"distance":69.82068914411,"driving_distance":null,"driving_duration":null,"website_url":"https://find.shell.com/hr/fuel/10126740-shell-virovitica/it_IT","mdm_site_category":"Conventional Fuel Site","formatted_address":"Vinkovačka cesta 10\nVirovitica, 33000","site_category":"conventional_fuel_site"},{"id":"10126706","name":"SHELL ČAKOVEC","lat":46.395573,"lng":16.426605,"brand":"Shell","inactive":false,"type":2,"country_code":"HR","address":"Ulica Globetka 12","city":"Čakovec","state":null,"postcode":"40000","telephone":"","country":"Croatia","amenities":["adblue_pack","adblue_truck","air_and_water","bottled_gas","cafe","carwash","credit_card","credit_card_general","disabled_facilities","fleet_card_general","food_offerings","full_service","hgv_lane","loyalty_cards","other_loyalty_cards","other_oil_change","pay_at_pump","shop","standard_toilet","vacuum","wifi","manned"],"distance":72.00746085396,"driving_distance":null,"driving_duration":null,"website_url":"https://find.shell.com/hr/fuel/10126706-shell-cakovec/it_IT","mdm_site_category":"Conventional Fuel Site","formatted_address":"Ulica Globetka 12\nČakovec, 40000","site_category":"conventional_fuel_site"},{"id":"10126719","name":"SHELL KARLOVAC","lat":45.519823,"lng":15.545723,"brand":"Shell","inactive":false,"type":2,"country_code":"HR","address":"Zagrebačka 15n","city":"Karlovac","state":null,"postcode":"47000","telephone":"","country":"Croatia","amenities":["adblue_pack","adblue_truck","air_and_water","bottled_gas","cafe","carwash","credit_card","credit_card_general","disabled_facilities","fleet_card_general","food_offerings","full_service","hgv_lane","loyalty_cards","other_loyalty_cards","other_oil_change","pay_at_pump","shop","standard_toilet","vacuum","wifi","manned"],"distance":78.48558920428,"driving_distance":null,"driving_duration":null,"website_url":"https://find.shell.com/hr/fuel/10126719-shell-karlovac/it_IT","mdm_site_category":"Conventional Fuel Site","formatted_address":"Zagrebačka 15n\nKarlovac, 47000","site_category":"conventional_fuel_site"},{"id":"13119053","name":"STOJNCI","lat":46.380481,"lng":15.97253,"brand":"Shell","inactive":false,"type":0,"country_code":"SI","address":"STOJNCI 24","city":"STOJNCI – MARKOVCI","state":"Ptuj","postcode":"2281","telephone":"+386 51 276 754","country":"Slovenia","amenities":["cafe","food_offerings","sandwich","self_service","shell_card","shop","wifi","manned"],"distance":81.06120053086,"driving_distance":null,"driving_duration":null,"website_url":"https://find.shell.com/si/fuel/13119053-stojnci/it_IT","mdm_site_category":"Conventional Fuel Site","formatted_address":"STOJNCI 24\nSTOJNCI – MARKOVCI, Ptuj, 2281","site_category":"conventional_fuel_site"},{"id":"13094944","name":"DRNOVO","lat":45.920221,"lng":15.473761,"brand":"Shell","inactive":false,"type":0,"country_code":"SI","address":"VELIKA VAS PRI KRŠKEM 69.","city":"DRNOVO","state":"Krsko","postcode":"8273","telephone":"+386 51 276 739","country":"Slovenia","amenities":["credit_card","credit_card_mastercard","food_offerings","self_service","shell_card","shop","snack_food","manned"],"distance":81.72661720066,"driving_distance":null,"driving_duration":null,"website_url":"https://find.shell.com/si/fuel/13094944-drnovo/it_IT","mdm_site_category":"Conventional Fuel Site","formatted_address":"VELIKA VAS PRI KRŠKEM 69.\nDRNOVO, Krsko, 8273","site_category":"conventional_fuel_site"},{"id":"13089144","name":"ROGAŠKA SLATINA","lat":46.230719,"lng":15.655704,"brand":"Shell","inactive":false,"type":0,"country_code":"SI","address":"TRŽIŠČE 12B","city":"ROGAŠKA SLATINA","state":"Smarje Pri Jelsah","postcode":"3250","telephone":"+386 51 276 747","country":"Slovenia","amenities":["carwash","credit_card","credit_card_mastercard","food_offerings","gls","self_service","shell_card","shell_machine_rollover","shop","snack_food","manned"],"distance":84.3308909665,"driving_distance":null,"driving_duration":null,"website_url":"https://find.shell.com/si/fuel/13089144-rogaska-slatina/it_IT","mdm_site_category":"Conventional Fuel Site","formatted_address":"TRŽIŠČE 12B\nROGAŠKA SLATINA, Smarje Pri Jelsah, 3250","site_category":"conventional_fuel_site"},{"id":"10126728","name":"SHELL CABUNA","lat":45.74854,"lng":17.590692,"brand":"Shell","inactive":false,"type":0,"country_code":"HR","address":"Pavla Radića bb","city":"Cabuna","state":null,"postcode":"33412","telephone":"","country":"Croatia","amenities":["adblue_pack","air_and_water","bottled_gas","credit_card","credit_card_general","disabled_facilities","fleet_card_general","full_service","loyalty_cards","other_loyalty_cards","other_oil_change","pay_at_pump","shop","standard_toilet","truck_parking","type_of_parking","wifi","manned"],"distance":84.6283435369,"driving_distance":null,"driving_duration":null,"website_url":"https://find.shell.com/hr/fuel/10126728-shell-cabuna/it_IT","mdm_site_category":"Conventional Fuel Site","formatted_address":"Pavla Radića bb\nCabuna, 33412","site_category":"conventional_fuel_site"},{"id":"13101804","name":"EV TESCO NAGYATÁD","lat":46.226594,"lng":17.386154,"brand":"Shell","inactive":false,"type":0,"country_code":"HU","address":"Szabadság u. 38.","city":"Nagyatád","state":"Somogy","postcode":"7500","telephone":"","country":"Hungary","amenities":["credit_card","credit_card_general","fleet_card_general","parking_lanes","shop","standard_toilet","touchless_pay","twenty_four_hour","twenty_four_hour_ev_service","type_of_parking","manned"],"distance":86.57668691126,"driving_distance":null,"driving_duration":null,"website_url":"https://find.shell.com/hu/fuel/13101804-ev-tesco-nagyatad/it_IT","mdm_site_category":"Destination Charging (EV)","formatted_address":"Szabadság u. 38.\nNagyatád, Somogy, 7500","site_category":"destination_charging_ev"},{"id":"10202630","name":"NAGYKANIZSA I.","lat":46.462175,"lng":17.009867,"brand":"Shell","inactive":false,"type":2,"country_code":"HU","address":"BALATONI ÚT 1839/13","city":"NAGYKANIZSA","state":"Zala","postcode":"8800","telephone":"+36 93 310 599","country":"Hungary","amenities":["adblue_pack","air_and_water","austrian_highway_sticker","b2b_shell_card_ota","credit_card","credit_card_general","fleet_card_general","full_service","go_plus","hgv_lane","high_speed_diesel_pump","hungarian_highway_sticker","loyalty_cards","loyalty_program","mobile_payment","other_loyalty_cards","shop","standard_toilet","twenty_four_hour","twenty_four_hour_ev_service","type_of_parking","wifi","manned"],"distance":88.40888752944001,"driving_distance":null,"driving_duration":null,"website_url":"https://find.shell.com/hu/fuel/10202630-nagykanizsa-i/it_IT","mdm_site_category":"Conventional Fuel Site with EV","formatted_address":"BALATONI ÚT 1839/13\nNAGYKANIZSA, Zala, 8800","site_category":"conventional_fuel_site_with_ev"},{"id":"11367854","name":"NAGYKAN. III 555","lat":46.463074,"lng":17.012396,"brand":"Shell","inactive":false,"type":0,"country_code":"HU","address":"BOSZORKÁNY UTCA 2","city":"NAGYKANIZSA","state":"Zala","postcode":"8800","telephone":"+36 93 516 320","country":"Hungary","amenities":["adblue_pack","air_and_water","b2b_shell_card_ota","clubsmart_card","full_service","go_plus","loyalty_cards","loyalty_program","mobile_payment","other_loyalty_cards","shop","standard_toilet","wifi","manned"],"distance":88.5850611535,"driving_distance":null,"driving_duration":null,"website_url":"https://find.shell.com/hu/fuel/11367854-nagykan-iii-555/it_IT","mdm_site_category":"Conventional Fuel Site","formatted_address":"BOSZORKÁNY UTCA 2\nNAGYKANIZSA, Zala, 8800","site_category":"conventional_fuel_site"},{"id":"13016117","name":"EV TESCO NAGYKANIZSA","lat":46.464193,"lng":17.013717,"brand":"Shell","inactive":false,"type":0,"country_code":"HU","address":"BOSZORKANY U. 2.","city":"NAGYKANIZSA","state":"Zala","postcode":"8800","telephone":"","country":"Hungary","amenities":["credit_card","credit_card_general","fleet_card_general","shop","twenty_four_hour_ev_service","manned"],"distance":88.74167005134,"driving_distance":null,"driving_duration":null,"website_url":"https://find.shell.com/hu/fuel/13016117-ev-tesco-nagykanizsa/it_IT","mdm_site_category":"Destination Charging (EV)","formatted_address":"BOSZORKANY U. 2.\nNAGYKANIZSA, Zala, 8800","site_category":"destination_charging_ev"},{"id":"13095395","name":"LJUTOMER","lat":46.526134,"lng":16.193609,"brand":"Shell","inactive":false,"type":0,"country_code":"SI","address":"KOLODVORSKA ULICA 2A","city":"LJUTOMER","state":"Ljutomer","postcode":"9240","telephone":"+386 51 276 758","country":"Slovenia","amenities":["carwash","credit_card","credit_card_mastercard","food_offerings","jet","self_service","shell_card","shop","snack_food","manned"],"distance":89.47263329914,"driving_distance":null,"driving_duration":null,"website_url":"https://find.shell.com/si/fuel/13095395-ljutomer/it_IT","mdm_site_category":"Conventional Fuel Site","formatted_address":"KOLODVORSKA ULICA 2A\nLJUTOMER, Ljutomer, 9240","site_category":"conventional_fuel_site"},{"id":"13089273","name":"ŠMARJE PRI JELŠAH","lat":46.22878,"lng":15.504,"brand":"Shell","inactive":false,"type":0,"country_code":"SI","address":"CELJSKA CESTA 55","city":"ŠMARJE PRI JELŠAH","state":"Smarje Pri Jelsah","postcode":"3240","telephone":"+386 51 276 746","country":"Slovenia","amenities":["cafe","credit_card","credit_card_mastercard","food_offerings","self_service","shell_card","shop","manned"],"distance":93.56875788753,"driving_distance":null,"driving_duration":null,"website_url":"https://find.shell.com/si/fuel/13089273-smarje-pri-jelsah/it_IT","mdm_site_category":"Conventional Fuel Site","formatted_address":"CELJSKA CESTA 55\nŠMARJE PRI JELŠAH, Smarje Pri Jelsah, 3240","site_category":"conventional_fuel_site"},{"id":"13122283","name":"ZG. POLSKAVA","lat":46.430884,"lng":15.627126,"brand":"Shell","inactive":false,"type":0,"country_code":"SI","address":"BUKOVEC 1B","city":"ZGORNJA POLSKAVA","state":"Slovenska Bistrica","postcode":"2314","telephone":"+386 51 276 748","country":"Slovenia","amenities":["cafe","food_offerings","free_toilet","sandwich","self_service","shell_card","shop","snack_food","wifi","cctv","manned"],"distance":101.30589301037,"driving_distance":null,"driving_duration":null,"website_url":"https://find.shell.com/si/fuel/13122283-zg-polskava/it_IT","mdm_site_category":"Conventional Fuel Site","formatted_address":"BUKOVEC 1B\nZGORNJA POLSKAVA, Slovenska Bistrica, 2314","site_category":"conventional_fuel_site"},{"id":"12661881","name":"FRAM","lat":46.449892,"lng":15.651698,"brand":"Shell","inactive":false,"type":0,"country_code":"SI","address":"TURNERJEVA 35","city":"FRAM","state":"Maribor","postcode":"2313","telephone":"+386 51 688 660","country":"Slovenia","amenities":["adblue_pack","air_and_water","atm","atm_in","bakery_shop","credit_card","credit_card_general","disability_assistance","disabled_facilities","food_offerings","restaurant","self_service","shell_card","shop","shower","standard_toilet","truck_parking","twenty_four_hour","type_of_parking","manned"],"distance":101.65832595481001,"driving_distance":null,"driving_duration":null,"website_url":"https://find.shell.com/si/fuel/12661881-fram/it_IT","mdm_site_category":"Conventional Fuel Site","formatted_address":"TURNERJEVA 35\nFRAM, Maribor, 2313","site_category":"conventional_fuel_site"},{"id":"13089334","name":"MIKLAVŽ","lat":46.496455,"lng":15.71354,"brand":"Shell","inactive":false,"type":0,"country_code":"SI","address":"PTUJSKA CESTA 135","city":"MIKLAVŽ","state":"Maribor","postcode":"2204","telephone":"+386 51 276 752","country":"Slovenia","amenities":["carwash","credit_card","credit_card_mastercard","gls","jet","self_service","shell_card","shop","manned"],"distance":102.7765066692,"driving_distance":null,"driving_duration":null,"website_url":"https://find.shell.com/si/fuel/13089334-miklavz/it_IT","mdm_site_category":"Conventional Fuel Site","formatted_address":"PTUJSKA CESTA 135\nMIKLAVŽ, Maribor, 2204","site_category":"conventional_fuel_site"},{"id":"13095433","name":"MURSKA SOBOTA BAKOVSKA","lat":46.645803,"lng":16.168159,"brand":"Shell","inactive":false,"type":0,"country_code":"SI","address":"BAKOVSKA 31 A","city":"MURSKA SOBOTA","state":"Murska Sobota","postcode":"9000","telephone":"+386 51 276 756","country":"Slovenia","amenities":["credit_card","credit_card_mastercard","food_offerings","self_service","shell_card","shop","snack_food","manned"],"distance":102.83086094986,"driving_distance":null,"driving_duration":null,"website_url":"https://find.shell.com/si/fuel/13095433-murska-sobota-bakovska/it_IT","mdm_site_category":"Conventional Fuel Site","formatted_address":"BAKOVSKA 31 A\nMURSKA SOBOTA, Murska Sobota, 9000","site_category":"conventional_fuel_site"},{"id":"13107139","name":"TEPANJE","lat":46.34074,"lng":15.469593,"brand":"Shell","inactive":false,"type":0,"country_code":"SI","address":"TEPANJE 4B","city":"SLOVENSKE KONJICE","state":"Slovenske Konjice","postcode":"3210","telephone":"+386 3 757 20 90","country":"Slovenia","amenities":["cafe","food_offerings","free_toilet","sandwich","self_service","shell_card","shop","wifi","cctv","manned"],"distance":103.14501761057,"driving_distance":null,"driving_duration":null,"website_url":"https://find.shell.com/si/fuel/13107139-tepanje/it_IT","mdm_site_category":"Conventional Fuel Site with EV","formatted_address":"TEPANJE 4B\nSLOVENSKE KONJICE, Slovenske Konjice, 3210","site_category":"conventional_fuel_site_with_ev"},{"id":"13094941","name":"NOVO MESTO","lat":45.821327,"lng":15.15056,"brand":"Shell","inactive":false,"type":0,"country_code":"SI","address":"MIRNOPEŠKA 4.","city":"NOVO MESTO","state":"Novo Mesto","postcode":"8000","telephone":"+386 51 276 738","country":"Slovenia","amenities":["credit_card","credit_card_mastercard","food_offerings","shell_card","shop","snack_food","manned"],"distance":104.93618034942,"driving_distance":null,"driving_duration":null,"website_url":"https://find.shell.com/si/fuel/13094941-novo-mesto/it_IT","mdm_site_category":"Conventional Fuel Site","formatted_address":"MIRNOPEŠKA 4.\nNOVO MESTO, Novo Mesto, 8000","site_category":"conventional_fuel_site"},{"id":"13089423","name":"MURSKA SOBOTA LENDAVSKA","lat":46.667686,"lng":16.176816,"brand":"Shell","inactive":false,"type":0,"country_code":"SI","address":"LENDAVSKA ULICA 75","city":"MURSKA SOBOTA","state":"Murska Sobota","postcode":"9000","telephone":"+386 51 276 757","country":"Slovenia","amenities":["credit_card","credit_card_mastercard","self_service","shell_card","shop","cctv","manned"],"distance":105.02867648959,"driving_distance":null,"driving_duration":null,"website_url":"https://find.shell.com/si/fuel/13089423-murska-sobota-lendavska/it_IT","mdm_site_category":"Conventional Fuel Site","formatted_address":"LENDAVSKA ULICA 75\nMURSKA SOBOTA, Murska Sobota, 9000","site_category":"conventional_fuel_site"},{"id":"13101803","name":"EV TESCO SZIGETVÁR","lat":46.044474,"lng":17.797406,"brand":"Shell","inactive":false,"type":0,"country_code":"HU","address":"Almáspatak u. 7.","city":"Szigetvár","state":"Baranya","postcode":"7900","telephone":"","country":"Hungary","amenities":["credit_card","credit_card_general","fleet_card_general","free_toilet","parking_lanes","shop","touchless_pay","twenty_four_hour","twenty_four_hour_ev_service","type_of_parking","manned"],"distance":105.60403841638,"driving_distance":null,"driving_duration":null,"website_url":"https://find.shell.com/hu/fuel/13101803-ev-tesco-szigetvar/it_IT","mdm_site_category":"Destination Charging (EV)","formatted_address":"Almáspatak u. 7.\nSzigetvár, Baranya, 7900","site_category":"destination_charging_ev"},{"id":"13111474","name":"SLOVENSKE KONJICE","lat":46.340118,"lng":15.418721,"brand":"Shell","inactive":false,"type":0,"country_code":"SI","address":"LIPTOVSKA CESTA 32B","city":"SLOVENSKE KONJICE","state":"Slovenske Konjice","postcode":"2310","telephone":"+386 51 276 744","country":"Slovenia","amenities":["cafe","food_offerings","free_toilet","sandwich","self_service","shell_card","shop","wifi","cctv","manned"],"distance":106.15905436451,"driving_distance":null,"driving_duration":null,"website_url":"https://find.shell.com/si/fuel/13111474-slovenske-konjice/it_IT","mdm_site_category":"Conventional Fuel Site","formatted_address":"LIPTOVSKA CESTA 32B\nSLOVENSKE KONJICE, Slovenske Konjice, 2310","site_category":"conventional_fuel_site"},{"id":"13111442","name":"BENEDIKT","lat":46.610589,"lng":15.893986,"brand":"Shell","inactive":false,"type":0,"country_code":"SI","address":"RADGONSKA CESTA 15","city":"BENEDIKT","state":"Lenart","postcode":"2234","telephone":"+386 51 276 753","country":"Slovenia","amenities":["cafe","food_offerings","free_toilet","sandwich","self_service","shell_card","shop","wifi","cctv","manned"],"distance":106.46089417175999,"driving_distance":null,"driving_duration":null,"website_url":"https://find.shell.com/si/fuel/13111442-benedikt/it_IT","mdm_site_category":"Conventional Fuel Site","formatted_address":"RADGONSKA CESTA 15\nBENEDIKT, Lenart, 2234","site_category":"conventional_fuel_site"},{"id":"13107257","name":"MARIBOR PTUJSKA VZHOD","lat":46.522453,"lng":15.679758,"brand":"Shell","inactive":false,"type":0,"country_code":"SI","address":"PTUJSKA CESTA 225M","city":"MARIBOR","state":"Maribor","postcode":"2000","telephone":"+386 51 276 751","country":"Slovenia","amenities":["cafe","food_offerings","free_toilet","sandwich","self_service","shell_card","shop","wifi","cctv","manned"],"distance":106.63833004531,"driving_distance":null,"driving_duration":null,"website_url":"https://find.shell.com/si/fuel/13107257-maribor-ptujska-vzhod/it_IT","mdm_site_category":"Conventional Fuel Site","formatted_address":"PTUJSKA CESTA 225M\nMARIBOR, Maribor, 2000","site_category":"conventional_fuel_site"},{"id":"13095116","name":"CELJE KIDRIČEVA","lat":46.234018,"lng":15.296215,"brand":"Shell","inactive":false,"type":0,"country_code":"SI","address":"KIDRIČEVA ULICA 40","city":"CELJE","state":"Celje","postcode":"3000","telephone":"+386 51 276 742","country":"Slovenia","amenities":["cafe","food_offerings","free_toilet","sandwich","self_service","shell_card","shop","wifi","cctv","manned"],"distance":107.44617348134,"driving_distance":null,"driving_duration":null,"website_url":"https://find.shell.com/si/fuel/13095116-celje-kidriceva/it_IT","mdm_site_category":"Conventional Fuel Site","formatted_address":"KIDRIČEVA ULICA 40\nCELJE, Celje, 3000","site_category":"conventional_fuel_site"},{"id":"13119058","name":"MARIBOR BOHOVA","lat":46.518072,"lng":15.651544,"brand":"Shell","inactive":false,"type":0,"country_code":"SI","address":"TRŽAŠKA CESTA 83","city":"MARIBOR","state":"Maribor","postcode":"2000","telephone":"+386 51 276 749","country":"Slovenia","amenities":["cafe","food_offerings","sandwich","self_service","shell_card","shop","wifi","manned"],"distance":107.55522173192,"driving_distance":null,"driving_duration":null,"website_url":"https://find.shell.com/si/fuel/13119058-maribor-bohova/it_IT","mdm_site_category":"Conventional Fuel Site","formatted_address":"TRŽAŠKA CESTA 83\nMARIBOR, Maribor, 2000","site_category":"conventional_fuel_site"},{"id":"10201871","name":"SZIGETVÁR","lat":46.048491,"lng":17.823713,"brand":"Shell","inactive":false,"type":0,"country_code":"HU","address":"JÓZSEF A. U. 0375/3 HRSZ.","city":"SZIGETVÁR","state":"Baranya","postcode":"7900","telephone":"+36 73 510 075","country":"Hungary","amenities":["adblue_pack","air_and_water","b2b_shell_card_ota","bakery_shop","credit_card","credit_card_general","fast_food","fleet_card_general","food_offerings","full_service","go_plus","hungarian_highway_sticker","loyalty_cards","loyalty_program","mobile_payment","other_loyalty_cards","others","shop","standard_toilet","twenty_four_hour","type_of_parking","wifi","manned"],"distance":107.67458049266999,"driving_distance":null,"driving_duration":null,"website_url":"https://find.shell.com/hu/fuel/10201871-szigetvar/it_IT","mdm_site_category":"Conventional Fuel Site","formatted_address":"JÓZSEF A. U. 0375/3 HRSZ.\nSZIGETVÁR, Baranya, 7900","site_category":"conventional_fuel_site"},{"id":"13107242","name":"MARIBOR PTUJSKA ZAHOD","lat":46.534802,"lng":15.661667,"brand":"Shell","inactive":false,"type":0,"country_code":"SI","address":"PTUJSKA CESTA 104","city":"MARIBOR","state":"Maribor","postcode":"2000","telephone":"+386 51 276 750","country":"Slovenia","amenities":["cafe","food_offerings","free_toilet","sandwich","self_service","shell_card","shop","wifi","cctv","manned"],"distance":108.56652341051,"driving_distance":null,"driving_duration":null,"website_url":"https://find.shell.com/si/fuel/13107242-maribor-ptujska-zahod/it_IT","mdm_site_category":"Conventional Fuel Site","formatted_address":"PTUJSKA CESTA 104\nMARIBOR, Maribor, 2000","site_category":"conventional_fuel_site"},{"id":"13118978","name":"GEDEROVCI","lat":46.679179,"lng":16.056043,"brand":"Shell","inactive":false,"type":0,"country_code":"SI","address":"GEDEROVCI 17A","city":"GEDEROVCI – TIŠINA","state":"Gornja Radgona","postcode":"9251","telephone":"+386 51 276 755","country":"Slovenia","amenities":["cafe","food_offerings","sandwich","self_service","shell_card","shop","wifi","manned"],"distance":108.81996767246,"driving_distance":null,"driving_duration":null,"website_url":"https://find.shell.com/si/fuel/13118978-gederovci/it_IT","mdm_site_category":"Conventional Fuel Site","formatted_address":"GEDEROVCI 17A\nGEDEROVCI – TIŠINA, Gornja Radgona, 9251","site_category":"conventional_fuel_site"},{"id":"13089436","name":"CELJE MARIBORSKA","lat":46.244233,"lng":15.278462,"brand":"Shell","inactive":false,"type":0,"country_code":"SI","address":"MARIBORSKA 128","city":"CELJE","state":"Celje","postcode":"3000","telephone":"+386 51 276 741","country":"Slovenia","amenities":["adblue_car","credit_card","credit_card_mastercard","food_offerings","self_service","shell_card","shop","snack_food","manned"],"distance":109.19493728168,"driving_distance":null,"driving_duration":null,"website_url":"https://find.shell.com/si/fuel/13089436-celje-mariborska/it_IT","mdm_site_category":"Conventional Fuel Site","formatted_address":"MARIBORSKA 128\nCELJE, Celje, 3000","site_category":"conventional_fuel_site"},{"id":"13094945","name":"ARCLIN","lat":46.278799,"lng":15.300271,"brand":"Shell","inactive":false,"type":0,"country_code":"SI","address":"ARCLIN 101.","city":"ARCLIN - ŠKOFJA VAS","state":"Celje","postcode":"3211","telephone":"+386 51 276 743","country":"Slovenia","amenities":["carwash","credit_card","credit_card_mastercard","food_offerings","gls","self_service","shell_card","shell_machine_rollover","shop","snack_food","manned"],"distance":109.72827660421,"driving_distance":null,"driving_duration":null,"website_url":"https://find.shell.com/si/fuel/13094945-arclin/it_IT","mdm_site_category":"Conventional Fuel Site","formatted_address":"ARCLIN 101.\nARCLIN - ŠKOFJA VAS, Celje, 3211","site_category":"conventional_fuel_site"},{"id":"13107277","name":"CELJE AERO","lat":46.240452,"lng":15.256582,"brand":"Shell","inactive":false,"type":0,"country_code":"SI","address":"DEČKOVA CESTA 39","city":"CELJE","state":"Celje","postcode":"3000","telephone":"+386 51 276 740","country":"Slovenia","amenities":["cafe","food_offerings","free_toilet","sandwich","self_service","shell_card","shop","wifi","cctv","manned"],"distance":110.45331725037,"driving_distance":null,"driving_duration":null,"website_url":"https://find.shell.com/si/fuel/13107277-celje-aero/it_IT","mdm_site_category":"Conventional Fuel Site","formatted_address":"DEČKOVA CESTA 39\nCELJE, Celje, 3000","site_category":"conventional_fuel_site"},{"id":"12844843","name":"ŽALEC","lat":46.267628,"lng":15.18869,"brand":"Shell","inactive":false,"type":0,"country_code":"SI","address":"MALA PIREŠICA 22","city":"PETROVČE","state":"Zalec","postcode":"3301","telephone":"+386 51 276 732","country":"Slovenia","amenities":["adblue_car","air_and_water","carwash","food_offerings","paid_toilet","parking_lanes","rollover","self_service","shell_card","shop","snack_food","twenty_four_hour","type_of_parking","uber_eats","wifi","manned"],"distance":116.48412347256,"driving_distance":null,"driving_duration":null,"website_url":"https://find.shell.com/si/fuel/12844843-zalec/it_IT","mdm_site_category":"Conventional Fuel Site","formatted_address":"MALA PIREŠICA 22\nPETROVČE, Zalec, 3301","site_category":"conventional_fuel_site"},{"id":"13101802","name":"EV TESCO MARCALI","lat":46.605981,"lng":17.404531,"brand":"Shell","inactive":false,"type":0,"country_code":"HU","address":"Noszlopy u. 177.","city":"Marcali","state":"Somogy","postcode":"8700","telephone":"","country":"Hungary","amenities":["atm","atm_in","credit_card","credit_card_general","fleet_card_general","free_toilet","no_of_shop_seats","parking_lanes","shop","touchless_pay","twenty_four_hour_ev_service","type_of_parking","manned"],"distance":117.93702224152999,"driving_distance":null,"driving_duration":null,"website_url":"https://find.shell.com/hu/fuel/13101802-ev-tesco-marcali/it_IT","mdm_site_category":"Destination Charging (EV)","formatted_address":"Noszlopy u. 177.\nMarcali, Somogy, 8700","site_category":"destination_charging_ev"},{"id":"10201600","name":"KAPOSVÁR II.","lat":46.357701,"lng":17.783956,"brand":"Shell","inactive":false,"type":0,"country_code":"HU","address":"BERZSENYI DÁNIEL U.","city":"KAPOSVAR","state":"Somogy","postcode":"7400","telephone":"+36 82 510 614","country":"Hungary","amenities":["adblue_pack","air_and_water","b2b_shell_card_ota","credit_card","credit_card_general","fast_food","fleet_card_general","food_offerings","full_service","go_plus","hungarian_highway_sticker","loyalty_cards","loyalty_program","mobile_payment","other_loyalty_cards","shop","standard_toilet","twenty_four_hour_ev_service","type_of_parking","wifi","manned"],"distance":119.92626379064001,"driving_distance":null,"driving_duration":null,"website_url":"https://find.shell.com/hu/fuel/10201600-kaposvar-ii/it_IT","mdm_site_category":"Conventional Fuel Site with EV","formatted_address":"BERZSENYI DÁNIEL U.\nKAPOSVAR, Somogy, 7400","site_category":"conventional_fuel_site_with_ev"},{"id":"13016114","name":"EV TESCO KAPOSVAR","lat":46.360186,"lng":17.782476,"brand":"Shell","inactive":false,"type":0,"country_code":"HU","address":"BERZSENYI D. U. 13.","city":"KAPOSVAR","state":"Somogy","postcode":"7400","telephone":"","country":"Hungary","amenities":["credit_card","credit_card_general","touchless_pay","twenty_four_hour_ev_service","manned"],"distance":119.98611812111001,"driving_distance":null,"driving_duration":null,"website_url":"https://find.shell.com/hu/fuel/13016114-ev-tesco-kaposvar/it_IT","mdm_site_category":"Destination Charging (EV)","formatted_address":"BERZSENYI D. U. 13.\nKAPOSVAR, Somogy, 7400","site_category":"destination_charging_ev"},{"id":"13106883","name":"TRBOVLJE","lat":46.142979,"lng":15.036054,"brand":"Shell","inactive":false,"type":0,"country_code":"SI","address":"VODENSKA CESTA 28 A","city":"TRBOVLJE","state":"Trbovlje","postcode":"1420","telephone":"+386 51 276 737","country":"Slovenia","amenities":["cafe","food_offerings","free_toilet","sandwich","self_service","shell_card","shop","wifi","cctv","manned"],"distance":121.32796854743,"driving_distance":null,"driving_duration":null,"website_url":"https://find.shell.com/si/fuel/13106883-trbovlje/it_IT","mdm_site_category":"Conventional Fuel Site","formatted_address":"VODENSKA CESTA 28 A\nTRBOVLJE, Trbovlje, 1420","site_category":"conventional_fuel_site"},{"id":"11063742","name":"M7 BALATONKERESZTÚR B","lat":46.683486,"lng":17.37886,"brand":"Shell","inactive":false,"type":2,"country_code":"HU","address":"M7 AUTÓPÁLYA 167 KM. BAL OLDAL","city":"BALATONKERESZTÚR","state":"Somogy","postcode":"8648","telephone":"+36 85 702 019","country":"Hungary","amenities":["adblue_pack","adblue_truck","air_and_water","b2b_shell_card_ota","bakery_shop","food_offerings","full_service","go_plus","hgv_lane","high_speed_diesel_pump","hot_food","loyalty_cards","loyalty_program","mobile_payment","other_loyalty_cards","others","pet_friendly","shop","shower","standard_toilet","twenty_four_hour","twenty_four_hour_ev_service","wifi","manned"],"distance":123.87935905189,"driving_distance":null,"driving_duration":null,"website_url":"https://find.shell.com/hu/fuel/11063742-m7-balatonkeresztur-b/it_IT","mdm_site_category":"Conventional Fuel Site with EV","formatted_address":"M7 AUTÓPÁLYA 167 KM. BAL OLDAL\nBALATONKERESZTÚR, Somogy, 8648","site_category":"conventional_fuel_site_with_ev"},{"id":"11063730","name":"M7 BALATONKERESZTÚR A","lat":46.685359,"lng":17.380161,"brand":"Shell","inactive":false,"type":2,"country_code":"HU","address":"M7 AUTÓPÁLYA 167 KM. JOBB OLDAL","city":"BALATONKERESZTÚR","state":"Somogy","postcode":"8648","telephone":"+36 85 702 041","country":"Hungary","amenities":["adblue_pack","adblue_truck","air_and_water","austrian_highway_sticker","b2b_shell_card_ota","bakery_shop","food_offerings","full_service","go_plus","hgv_lane","high_speed_diesel_pump","hungarian_highway_sticker","loyalty_cards","loyalty_program","mobile_payment","other_loyalty_cards","others","pet_friendly","shop","shower","standard_toilet","twenty_four_hour","twenty_four_hour_ev_service","wifi","manned"],"distance":124.107866326,"driving_distance":null,"driving_duration":null,"website_url":"https://find.shell.com/hu/fuel/11063730-m7-balatonkeresztur-a/it_IT","mdm_site_category":"Conventional Fuel Site with EV","formatted_address":"M7 AUTÓPÁLYA 167 KM. JOBB OLDAL\nBALATONKERESZTÚR, Somogy, 8648","site_category":"conventional_fuel_site_with_ev"},{"id":"13016121","name":"EV TESCO ZALAEGERSZEG","lat":46.843196,"lng":16.859942,"brand":"Shell","inactive":false,"type":0,"country_code":"HU","address":"SPORT U. 1.","city":"ZALAEGERSZEG","state":"Zala","postcode":"8900","telephone":"","country":"Hungary","amenities":["credit_card","credit_card_general","touchless_pay","twenty_four_hour_ev_service","manned"],"distance":124.6634010559,"driving_distance":null,"driving_duration":null,"website_url":"https://find.shell.com/hu/fuel/13016121-ev-tesco-zalaegerszeg/it_IT","mdm_site_category":"Destination Charging (EV)","formatted_address":"SPORT U. 1.\nZALAEGERSZEG, Zala, 8900","site_category":"destination_charging_ev"},{"id":"10202761","name":"ZALAEGERSZEG II.","lat":46.844628,"lng":16.864809,"brand":"Shell","inactive":false,"type":2,"country_code":"HU","address":"BALATONI U. 8/A","city":"ZALAEGERSZEG","state":"Zala","postcode":"8900","telephone":"+36 92 596 618","country":"Hungary","amenities":["adblue_pack","adblue_truck","air_and_water","austrian_highway_sticker","b2b_shell_card_ota","bakery_shop","credit_card","credit_card_general","fast_food","fleet_card_general","food_offerings","full_service","go_plus","hgv_lane","high_speed_diesel_pump","hungarian_highway_sticker","loyalty_cards","loyalty_program","mobile_payment","other_loyalty_cards","shop","standard_toilet","twenty_four_hour","twenty_four_hour_ev_service","type_of_parking","wifi","manned"],"distance":124.90195017742,"driving_distance":null,"driving_duration":null,"website_url":"https://find.shell.com/hu/fuel/10202761-zalaegerszeg-ii/it_IT","mdm_site_category":"Conventional Fuel Site with EV","formatted_address":"BALATONI U. 8/A\nZALAEGERSZEG, Zala, 8900","site_category":"conventional_fuel_site_with_ev"},{"id":"10202755","name":"ZALAEGERSZEG I.","lat":46.854672,"lng":16.806196,"brand":"Shell","inactive":false,"type":2,"country_code":"HU","address":"HOCK J. U.","city":"ZALAEGERSZEG","state":"Zala","postcode":"8900","telephone":"+36 92 596 160","country":"Hungary","amenities":["adblue_pack","air_and_water","austrian_highway_sticker","b2b_shell_card_ota","credit_card","credit_card_general","fleet_card_general","full_service","go_plus","hgv_lane","high_speed_diesel_pump","hungarian_highway_sticker","loyalty_cards","loyalty_program","mobile_payment","other_loyalty_cards","shop","standard_toilet","type_of_parking","wifi","manned"],"distance":125.06564366461001,"driving_distance":null,"driving_duration":null,"website_url":"https://find.shell.com/hu/fuel/10202755-zalaegerszeg-i/it_IT","mdm_site_category":"Conventional Fuel Site","formatted_address":"HOCK J. U.\nZALAEGERSZEG, Zala, 8900","site_category":"conventional_fuel_site"},{"id":"12661873","name":"SHELL BIČ","lat":45.925006,"lng":14.88935,"brand":"Shell","inactive":false,"type":2,"country_code":"SI","address":"BIČ 11","city":"VELIKI GABER","state":"Trebnje","postcode":"8213","telephone":"+386 1 514 05 00","country":"Slovenia","amenities":["adblue_truck","hgv_lane","high_speed_diesel_pump","pay_at_pump","shell_card","twenty_four_hour","unmanned"],"distance":126.2817138144,"driving_distance":null,"driving_duration":null,"website_url":"https://find.shell.com/si/fuel/12661873-shell-bic/it_IT","mdm_site_category":"Conventional Fuel Site","formatted_address":"BIČ 11\nVELIKI GABER, Trebnje, 8213","site_category":"conventional_fuel_site"},{"id":"13107270","name":"KOČEVJE REŠKA","lat":45.632863,"lng":14.86414,"brand":"Shell","inactive":false,"type":0,"country_code":"SI","address":"REŠKA CESTA 25A","city":" KOČEVJE – STARA CERKEV","state":"Kocevje","postcode":"1330","telephone":"+386 51 276 734","country":"Slovenia","amenities":["cafe","carwash","food_offerings","free_toilet","rollover","sandwich","self_service","shell_card","shop","wifi","cctv","manned"],"distance":127.7244838142,"driving_distance":null,"driving_duration":null,"website_url":"https://find.shell.com/si/fuel/13107270-kocevje-reska/it_IT","mdm_site_category":"Conventional Fuel Site","formatted_address":"REŠKA CESTA 25A\n KOČEVJE – STARA CERKEV, Kocevje, 1330","site_category":"conventional_fuel_site"},{"id":"13040789","name":"EV TESCO KESZTHELY","lat":46.778415,"lng":17.261237,"brand":"Shell","inactive":false,"type":0,"country_code":"HU","address":"Csapas u. 27.","city":"Keszthely","state":"Zala","postcode":"8360","telephone":"","country":"Hungary","amenities":["credit_card","credit_card_general","shop","touchless_pay","twenty_four_hour_ev_service","manned"],"distance":128.45618748349,"driving_distance":null,"driving_duration":null,"website_url":"https://find.shell.com/hu/fuel/13040789-ev-tesco-keszthely/it_IT","mdm_site_category":"Destination Charging (EV)","formatted_address":"Csapas u. 27.\nKeszthely, Zala, 8360","site_category":"destination_charging_ev"},{"id":"11368447","name":"KESZTHELY II 578","lat":46.77824,"lng":17.262596,"brand":"Shell","inactive":false,"type":0,"country_code":"HU","address":"CSAPÁS UTCA 27","city":"KESZTHELY","state":"Zala","postcode":"8360","telephone":"+36 83 510 178","country":"Hungary","amenities":["adblue_pack","air_and_water","b2b_shell_card_ota","credit_card","credit_card_general","fleet_card_general","full_service","go_plus","loyalty_cards","loyalty_program","mobile_payment","other_loyalty_cards","pet_friendly","shop","type_of_parking","wifi","manned"],"distance":128.4865335952,"driving_distance":null,"driving_duration":null,"website_url":"https://find.shell.com/hu/fuel/11368447-keszthely-ii-578/it_IT","mdm_site_category":"Conventional Fuel Site","formatted_address":"CSAPÁS UTCA 27\nKESZTHELY, Zala, 8360","site_category":"conventional_fuel_site"},{"id":"12181755","name":"LEUTSCHACH SCHLOSSBERG.","lat":46.663657,"lng":15.470401,"brand":"Shell","inactive":false,"type":0,"country_code":"AT","address":"SCHLOSSBERG 144","city":"LEUTSCHACH","state":"Steiermark","postcode":"8463","telephone":"+43 3454 282","country":"Austria","amenities":["adblue_pack","air_and_water","austrian_highway_sticker","bakery_shop","carwash","credit_card","credit_card_american_express","credit_card_mastercard","credit_card_visa","disabled_facilities","fast_food","fleet_card_general","food_offerings","high_speed_diesel_pump","jet","rollover","self_service","shop","standard_toilet","type_of_parking","vacuum","manned"],"distance":128.83433041608,"driving_distance":null,"driving_duration":null,"website_url":"https://www.shell.at/tanken/shell-tankstellensuche/standorte.html/12181755-leutschach-schlossberg","mdm_site_category":"Conventional Fuel Site","formatted_address":"SCHLOSSBERG 144\nLEUTSCHACH, Steiermark, 8463","site_category":"conventional_fuel_site"},{"id":"13118981","name":"KOČEVJE","lat":45.689346,"lng":14.799691,"brand":"Shell","inactive":false,"type":0,"country_code":"SI","address":"GORNJE LOŽINE 1A","city":"KOČEVJE – STARA CERKEV","state":"Kocevje","postcode":"1332","telephone":"+386 51 276 733","country":"Slovenia","amenities":["cafe","food_offerings","free_toilet","sandwich","self_service","shell_card","shop","wifi","cctv","manned"],"distance":132.16979480378998,"driving_distance":null,"driving_duration":null,"website_url":"https://find.shell.com/si/fuel/13118981-kocevje/it_IT","mdm_site_category":"Conventional Fuel Site","formatted_address":"GORNJE LOŽINE 1A\nKOČEVJE – STARA CERKEV, Kocevje, 1332","site_category":"conventional_fuel_site"},{"id":"13089383","name":"LITIJA","lat":46.057264,"lng":14.822734,"brand":"Shell","inactive":false,"type":0,"country_code":"SI","address":"LJUBLJANSKA CESTA 10 B","city":"LITIJA","state":"Litija","postcode":"1270","telephone":"+386 51 276 736","country":"Slovenia","amenities":["adblue_truck","air_and_water","cafe","carwash","food_offerings","free_toilet","hot_food","parking_lanes","self_service","shell_card","shell_machine_rollover","shop","type_of_parking","uber_eats","wifi","manned"],"distance":134.20085110766001,"driving_distance":null,"driving_duration":null,"website_url":"https://find.shell.com/si/fuel/13089383-litija/it_IT","mdm_site_category":"Conventional Fuel Site","formatted_address":"LJUBLJANSKA CESTA 10 B\nLITIJA, Litija, 1270","site_category":"conventional_fuel_site"},{"id":"13048183","name":"EV BILLA JENNERSDORF, TECHNOLOGIEP.","lat":46.93744,"lng":16.147444,"brand":"Shell","inactive":false,"type":0,"country_code":"AT","address":"Technologiepark 1","city":"Jennersdorf","state":"Burgenland","postcode":"8380","telephone":"","country":"Austria","amenities":["apple_pay","credit_card","credit_card_mastercard","credit_card_visa","google_pay","mobile_payment","mobile_payment_maestro","mobile_payment_mastercard","mobile_payment_visa","shop","touchless_pay","manned"],"distance":134.78194354191,"driving_distance":null,"driving_duration":null,"website_url":"https://www.shell.at/tanken/shell-tankstellensuche/standorte.html/13048183-ev-billa-jennersdorf-technologiep","mdm_site_category":"Destination Charging (EV)","formatted_address":"Technologiepark 1\nJennersdorf, Burgenland, 8380","site_category":"destination_charging_ev"},{"id":"10022906","name":"HEIMSCHUH SULMTALSTRASSE","lat":46.764262,"lng":15.494348,"brand":"Shell","inactive":false,"type":0,"country_code":"AT","address":"SULMTALSTRASSE 45","city":"HEIMSCHUH","state":"Steiermark","postcode":"8451","telephone":"+43 3452 83576","country":"Austria","amenities":["adblue_pack","adblue_truck","air_and_water","bakery_shop","carwash","credit_card","credit_card_general","disabled_facilities","fleet_card_general","self_service","shell_card","shop","standard_toilet","type_of_parking","manned"],"distance":136.73614430436,"driving_distance":null,"driving_duration":null,"website_url":"https://www.shell.at/tanken/shell-tankstellensuche/standorte.html/10022906-heimschuh-sulmtalstrasse","mdm_site_category":"Conventional Fuel Site","formatted_address":"SULMTALSTRASSE 45\nHEIMSCHUH, Steiermark, 8451","site_category":"conventional_fuel_site"},{"id":"10126688","name":"SHELL SLAVONSKI BROD","lat":45.175303,"lng":18.062985,"brand":"Shell","inactive":false,"type":2,"country_code":"HR","address":"Gospodarska ulica 11","city":"Gornja Vrba","state":null,"postcode":"35207","telephone":"","country":"Croatia","amenities":["adblue_pack","air_and_water","bottled_gas","cafe","carwash","credit_card","credit_card_general","disabled_facilities","fleet_card_general","food_offerings","full_service","hgv_lane","loyalty_cards","other_loyalty_cards","other_oil_change","pay_at_pump","shop","standard_toilet","twenty_four_hour","vacuum","wifi","manned"],"distance":137.62758845593999,"driving_distance":null,"driving_duration":null,"website_url":"https://find.shell.com/hr/fuel/10126688-shell-slavonski-brod/it_IT","mdm_site_category":"Conventional Fuel Site","formatted_address":"Gospodarska ulica 11\nGornja Vrba, 35207","site_category":"conventional_fuel_site"},{"id":"13034047","name":"RABAFUZES","lat":46.98223,"lng":16.2807,"brand":"Shell","inactive":false,"type":2,"country_code":"HU","address":"8-AS UT HRSZ. 0232/8","city":"SZENTGOTHARD","state":"Vas","postcode":"9970","telephone":"+36 94 445 620","country":"Hungary","amenities":["adblue_pack","adblue_truck","air_and_water","alcoholic_beverages_beer","alcoholic_beverages_spirits","alcoholic_beverages_wine","austrian_highway_sticker","b2b_shell_card_ota","bakery_shop","bottled_gas","cafe","carwash","charging","clubsmart_card","credit_card","credit_card_american_express","credit_card_mastercard","credit_card_visa","fleet_card_dkv","food_offerings","full_service","hgv_lane","high_speed_diesel_pump","hungarian_highway_sticker","jet","loyalty_cards","loyalty_program","mobile_loyalty","mobile_payment","mobile_payment_visa","paid_toilet","parking_lanes","pet_friendly","sandwich","shell_card","shop","snack_food","truck_parking","type_of_parking","vacuum","wifi","cctv","manned"],"distance":138.04711123397,"driving_distance":null,"driving_duration":null,"website_url":"https://find.shell.com/hu/fuel/13034047-rabafuzes/it_IT","mdm_site_category":"Conventional Fuel Site","formatted_address":"8-AS UT HRSZ. 0232/8\nSZENTGOTHARD, Vas, 9970","site_category":"conventional_fuel_site"},{"id":"10201718","name":"PÉCS III.","lat":46.054082,"lng":18.230749,"brand":"Shell","inactive":false,"type":0,"country_code":"HU","address":"SIKLÓSI ÚT 66.","city":"PÉCS","state":"Baranya","postcode":"7628","telephone":"+36 72 438 437","country":"Hungary","amenities":["adblue_car","adblue_pack","air_and_water","b2b_shell_card_ota","carwash","credit_card","credit_card_general","fast_food","fleet_card_general","food_offerings","full_service","go_plus","high_speed_diesel_pump","hungarian_highway_sticker","loyalty_cards","loyalty_program","mobile_payment","other_loyalty_cards","rollover","shop","standard_toilet","twenty_four_hour","type_of_parking","wifi","manned"],"distance":138.12330131247,"driving_distance":null,"driving_duration":null,"website_url":"https://find.shell.com/hu/fuel/10201718-pecs-iii/it_IT","mdm_site_category":"Conventional Fuel Site","formatted_address":"SIKLÓSI ÚT 66.\nPÉCS, Baranya, 7628","site_category":"conventional_fuel_site"},{"id":"10201771","name":"PÉCS V.","lat":46.075038,"lng":18.241582,"brand":"Shell","inactive":false,"type":0,"country_code":"HU","address":"ZSOLNAY VILMOS UT. 6.","city":"PÉCS","state":"Baranya","postcode":"7622","telephone":"+36 72 211 980","country":"Hungary","amenities":["adblue_pack","air_and_water","b2b_shell_card_ota","credit_card","credit_card_general","fast_food","fleet_card_general","food_offerings","full_service","go_plus","high_speed_diesel_pump","hungarian_highway_sticker","loyalty_cards","loyalty_program","mobile_payment","other_loyalty_cards","other_third_party_rental","shop","standard_toilet","type_of_parking","wifi","manned"],"distance":139.49688763846,"driving_distance":null,"driving_duration":null,"website_url":"https://find.shell.com/hu/fuel/10201771-pecs-v/it_IT","mdm_site_category":"Conventional Fuel Site","formatted_address":"ZSOLNAY VILMOS UT. 6.\nPÉCS, Baranya, 7622","site_category":"conventional_fuel_site"},{"id":"10203567","name":"KÖRMEND","lat":47.009923,"lng":16.583371,"brand":"Shell","inactive":false,"type":2,"country_code":"HU","address":"RÁKÓCZI U. 124","city":"KÖRMEND","state":"Vas","postcode":"9900","telephone":"+36 94 594 042","country":"Hungary","amenities":["adblue_pack","adblue_truck","air_and_water","austrian_highway_sticker","b2b_shell_card_ota","bakery_shop","credit_card","credit_card_general","fleet_card_general","food_offerings","full_service","go_plus","hgv_lane","high_speed_diesel_pump","hungarian_highway_sticker","loyalty_cards","loyalty_program","mobile_payment","other_loyalty_cards","others","shop","standard_toilet","twenty_four_hour","type_of_parking","wifi","manned"],"distance":140.24311254681,"driving_distance":null,"driving_duration":null,"website_url":"https://find.shell.com/hu/fuel/10203567-kormend/it_IT","mdm_site_category":"Conventional Fuel Site","formatted_address":"RÁKÓCZI U. 124\nKÖRMEND, Vas, 9900","site_category":"conventional_fuel_site"},{"id":"10022892","name":"GRALLA A9/PHYRNAUTOBAHN-GRALLA OST","lat":46.83101,"lng":15.552746,"brand":"Shell","inactive":false,"type":2,"country_code":"AT","address":"AM RASTPLATZ 2","city":"GRALLA","state":"Steiermark","postcode":"8431","telephone":"+43 3452 84373","country":"Austria","amenities":["adblue_pack","adblue_truck","air_and_water","apple_pay","b2b_shell_card_ota","bakery_shop","credit_card","credit_card_general","fleet_card_dkv","fleet_card_uta","go_plus","google_pay","hgv_lane","loyalty_cards","loyalty_program","mobile_payment","mobile_payment_amex","mobile_payment_maestro","mobile_payment_mastercard","mobile_payment_visa","paypal","self_service","shop","standard_toilet","twenty_four_hour","twenty_four_hour_ev_service","type_of_parking","wifi","manned"],"distance":140.5184159351,"driving_distance":null,"driving_duration":null,"website_url":"https://www.shell.at/tanken/shell-tankstellensuche/standorte.html/10022892-gralla-a9-phyrnautobahn-gralla-ost","mdm_site_category":"Conventional Fuel Site with EV","formatted_address":"AM RASTPLATZ 2\nGRALLA, Steiermark, 8431","site_category":"conventional_fuel_site_with_ev"},{"id":"10201765","name":"PÉCS IV.","lat":46.079617,"lng":18.253785,"brand":"Shell","inactive":false,"type":0,"country_code":"HU","address":"ZSOLNAY V. U. 41-43","city":"PÉCS","state":"Baranya","postcode":"7632","telephone":"+36 72 224 600","country":"Hungary","amenities":["adblue_pack","air_and_water","b2b_shell_card_ota","credit_card","credit_card_general","fleet_card_general","full_service","go_plus","high_speed_diesel_pump","hungarian_highway_sticker","loyalty_cards","loyalty_program","mobile_payment","other_loyalty_cards","shop","standard_toilet","type_of_parking","wifi","manned"],"distance":140.53538323657,"driving_distance":null,"driving_duration":null,"website_url":"https://find.shell.com/hu/fuel/10201765-pecs-iv/it_IT","mdm_site_category":"Conventional Fuel Site","formatted_address":"ZSOLNAY V. U. 41-43\nPÉCS, Baranya, 7632","site_category":"conventional_fuel_site"},{"id":"10022893","name":"GRALLA A9/PHYRNAUTOBAHN-GRALLA WEST","lat":46.833208,"lng":15.547725,"brand":"Shell","inactive":false,"type":2,"country_code":"AT","address":"AM RASTPLATZ 1","city":"GRALLA","state":"Steiermark","postcode":"8431","telephone":"+43 3452 84715","country":"Austria","amenities":["adblue_pack","adblue_truck","air_and_water","apple_pay","b2b_shell_card_ota","credit_card","credit_card_general","fleet_card_dkv","fleet_card_uta","go_plus","google_pay","hgv_lane","loyalty_cards","loyalty_program","mobile_payment","mobile_payment_amex","mobile_payment_maestro","mobile_payment_mastercard","mobile_payment_visa","paypal","shop","standard_toilet","twenty_four_hour","twenty_four_hour_ev_service","type_of_parking","unmanned","wifi"],"distance":140.92665881647,"driving_distance":null,"driving_duration":null,"website_url":"https://www.shell.at/tanken/shell-tankstellensuche/standorte.html/10022893-gralla-a9-phyrnautobahn-gralla-west","mdm_site_category":"Conventional Fuel Site with EV","formatted_address":"AM RASTPLATZ 1\nGRALLA, Steiermark, 8431","site_category":"conventional_fuel_site_with_ev"},{"id":"13101280","name":"EV TESCO KÖRMEND","lat":47.017127,"lng":16.614945,"brand":"Shell","inactive":false,"type":0,"country_code":"HU","address":"Sport u. 5.","city":"Körmend","state":"Vas","postcode":"9900","telephone":"","country":"Hungary","amenities":["credit_card","credit_card_general","fleet_card_general","shop","twenty_four_hour_ev_service","manned"],"distance":141.17383472524,"driving_distance":null,"driving_duration":null,"website_url":"https://find.shell.com/hu/fuel/13101280-ev-tesco-kormend/it_IT","mdm_site_category":"Destination Charging (EV)","formatted_address":"Sport u. 5.\nKörmend, Vas, 9900","site_category":"destination_charging_ev"},{"id":"11368463","name":"PÉCS VI 574","lat":46.084406,"lng":18.268648,"brand":"Shell","inactive":false,"type":0,"country_code":"HU","address":"BUDAI VÁM 1","city":"PÉCS","state":"Baranya","postcode":"7630","telephone":"+36 72 711 237","country":"Hungary","amenities":["adblue_pack","air_and_water","b2b_shell_card_ota","credit_card","credit_card_general","fleet_card_general","full_service","go_plus","hungarian_highway_sticker","loyalty_cards","loyalty_program","mobile_payment","other_loyalty_cards","shop","type_of_parking","wifi","manned"],"distance":141.7786619058,"driving_distance":null,"driving_duration":null,"website_url":"https://find.shell.com/hu/fuel/11368463-pecs-vi-574/it_IT","mdm_site_category":"Conventional Fuel Site","formatted_address":"BUDAI VÁM 1\nPÉCS, Baranya, 7630","site_category":"conventional_fuel_site"},{"id":"13040795","name":"EV TESCO PECS","lat":46.083566,"lng":18.270978,"brand":"Shell","inactive":false,"type":0,"country_code":"HU","address":"Budai Vam 1.","city":"Pecs","state":"Baranya","postcode":"7630","telephone":"","country":"Hungary","amenities":["credit_card","credit_card_general","touchless_pay","twenty_four_hour_ev_service","manned"],"distance":141.92915934778,"driving_distance":null,"driving_duration":null,"website_url":"https://find.shell.com/hu/fuel/13040795-ev-tesco-pecs/it_IT","mdm_site_category":"Destination Charging (EV)","formatted_address":"Budai Vam 1.\nPecs, Baranya, 7630","site_category":"destination_charging_ev"},{"id":"13094925","name":"SENOŽETI","lat":46.088862,"lng":14.716871,"brand":"Shell","inactive":false,"type":0,"country_code":"SI","address":"SENOŽETI 93","city":"SENOŽETI","state":"Litija","postcode":"1262","telephone":"+386 51 276 735","country":"Slovenia","amenities":["carwash","credit_card","credit_card_mastercard","food_offerings","gls","jet","self_service","shell_card","shop","snack_food","manned"],"distance":142.98430276782,"driving_distance":null,"driving_duration":null,"website_url":"https://find.shell.com/si/fuel/13094925-senozeti/it_IT","mdm_site_category":"Conventional Fuel Site","formatted_address":"SENOŽETI 93\nSENOŽETI, Litija, 1262","site_category":"conventional_fuel_site"},{"id":"13040776","name":"EV TESCO BALATONBOGLAR","lat":46.767293,"lng":17.653827,"brand":"Shell","inactive":false,"type":0,"country_code":"HU","address":"Klapka u. 30.","city":"Balatonboglar","state":"Somogy","postcode":"8630","telephone":"","country":"Hungary","amenities":["credit_card","credit_card_general","touchless_pay","twenty_four_hour_ev_service","manned"],"distance":143.74837772044,"driving_distance":null,"driving_duration":null,"website_url":"https://find.shell.com/hu/fuel/13040776-ev-tesco-balatonboglar/it_IT","mdm_site_category":"Destination Charging (EV)","formatted_address":"Klapka u. 30.\nBalatonboglar, Somogy, 8630","site_category":"destination_charging_ev"},{"id":"11368678","name":"BALATONBOGL. 586","lat":46.767553,"lng":17.654967,"brand":"Shell","inactive":false,"type":0,"country_code":"HU","address":"KLAPKA UTCA 32","city":"BALATONBOGLÁR","state":"Somogy","postcode":"8630","telephone":"+36 85 700 358","country":"Hungary","amenities":["adblue_pack","air_and_water","b2b_shell_card_ota","credit_card","credit_card_general","fleet_card_general","full_service","go_plus","loyalty_cards","loyalty_program","mobile_payment","other_loyalty_cards","pet_friendly","shop","type_of_parking","wifi","manned"],"distance":143.82508268466998,"driving_distance":null,"driving_duration":null,"website_url":"https://find.shell.com/hu/fuel/11368678-balatonbogl-586/it_IT","mdm_site_category":"Conventional Fuel Site","formatted_address":"KLAPKA UTCA 32\nBALATONBOGLÁR, Somogy, 8630","site_category":"conventional_fuel_site"},{"id":"11367858","name":"KOMLÓ 545","lat":46.192473,"lng":18.25682,"brand":"Shell","inactive":false,"type":0,"country_code":"HU","address":"KOSSUTH L. U. 54-56","city":"KOMLÓ","state":"Baranya","postcode":"7300","telephone":"+36 72 731 003","country":"Hungary","amenities":["adblue_pack","air_and_water","b2b_shell_card_ota","full_service","go_plus","loyalty_cards","loyalty_program","mobile_payment","other_loyalty_cards","shop","standard_toilet","wifi","manned"],"distance":144.40770860709,"driving_distance":null,"driving_duration":null,"website_url":"https://find.shell.com/hu/fuel/11367858-komlo-545/it_IT","mdm_site_category":"Conventional Fuel Site","formatted_address":"KOSSUTH L. U. 54-56\nKOMLÓ, Baranya, 7300","site_category":"conventional_fuel_site"},{"id":"10201480","name":"DOMBÓVÁR","lat":46.38624,"lng":18.14099,"brand":"Shell","inactive":false,"type":0,"country_code":"HU","address":"JUHÁSZ GY. U. 1.","city":"DOMBÓVÁR","state":"Tolna","postcode":"7200","telephone":"+36 74 467 374","country":"Hungary","amenities":["adblue_pack","air_and_water","b2b_shell_card_ota","bakery_shop","credit_card","credit_card_general","fast_food","fleet_card_general","food_offerings","full_service","go_plus","hungarian_highway_sticker","loyalty_cards","loyalty_program","mobile_payment","other_loyalty_cards","others","shop","standard_toilet","type_of_parking","wifi","manned"],"distance":145.02047141210002,"driving_distance":null,"driving_duration":null,"website_url":"https://find.shell.com/hu/fuel/10201480-dombovar/it_IT","mdm_site_category":"Conventional Fuel Site","formatted_address":"JUHÁSZ GY. U. 1.\nDOMBÓVÁR, Tolna, 7200","site_category":"conventional_fuel_site"},{"id":"11367892","name":"TAPOLCA 558","lat":46.8793,"lng":17.45493,"brand":"Shell","inactive":false,"type":0,"country_code":"HU","address":"VESZPRÉMI ÚT 5","city":"TAPOLCA","state":"Veszprem","postcode":"8300","telephone":"+36 87 709 009","country":"Hungary","amenities":["adblue_pack","air_and_water","b2b_shell_card_ota","credit_card","credit_card_general","fleet_card_general","full_service","go_plus","loyalty_cards","loyalty_program","mobile_payment","other_loyalty_cards","pet_friendly","shop","standard_toilet","type_of_parking","wifi","manned"],"distance":145.41844515395,"driving_distance":null,"driving_duration":null,"website_url":"https://find.shell.com/hu/fuel/11367892-tapolca-558/it_IT","mdm_site_category":"Conventional Fuel Site","formatted_address":"VESZPRÉMI ÚT 5\nTAPOLCA, Veszprem, 8300","site_category":"conventional_fuel_site"},{"id":"13101796","name":"EV TESCO TAPOLCA","lat":46.880598,"lng":17.455893,"brand":"Shell","inactive":false,"type":0,"country_code":"HU","address":"Veszprémi út 5.","city":"Tapolca","state":"Veszprem","postcode":"8300","telephone":"","country":"Hungary","amenities":["credit_card","credit_card_general","shop","touchless_pay","twenty_four_hour_ev_service","manned"],"distance":145.57992951078,"driving_distance":null,"driving_duration":null,"website_url":"https://find.shell.com/hu/fuel/13101796-ev-tesco-tapolca/it_IT","mdm_site_category":"Destination Charging (EV)","formatted_address":"Veszprémi út 5.\nTapolca, Veszprem, 8300","site_category":"destination_charging_ev"},{"id":"13072442","name":"FUERSTENFELD BURGAUERSTRASSE","lat":47.065498,"lng":16.079127,"brand":"Shell","inactive":false,"type":0,"country_code":"AT","address":"BURGAUERSTRASSE 28","city":"FÜRSTENFELD","state":"Steiermark","postcode":"8280","telephone":"+43 3382 51270","country":"Austria","amenities":["adblue_car","adblue_pack","adblue_truck","air_and_water","apple_pay","b2b_shell_card_ota","carwash","go_plus","google_pay","loyalty_cards","loyalty_program","mobile_payment","mobile_payment_amex","mobile_payment_maestro","mobile_payment_mastercard","mobile_payment_visa","paypal","rollover","selectshop","self_service","shell_card","twenty_four_hour_ev_service","wifi","manned"],"distance":149.79324718315,"driving_distance":null,"driving_duration":null,"website_url":"https://www.shell.at/tanken/shell-tankstellensuche/standorte.html/13072442-fuerstenfeld-burgauerstrasse","mdm_site_category":"Conventional Fuel Site with EV","formatted_address":"BURGAUERSTRASSE 28\nFÜRSTENFELD, Steiermark, 8280","site_category":"conventional_fuel_site_with_ev"},{"id":"10202292","name":"SÜMEG","lat":46.98566,"lng":17.283937,"brand":"Shell","inactive":false,"type":0,"country_code":"HU","address":"84-ES FŐÚT","city":"SÜMEG","state":"Veszprem","postcode":"8330","telephone":"+36 87 550 035","country":"Hungary","amenities":["adblue_pack","air_and_water","austrian_highway_sticker","b2b_shell_card_ota","bakery_shop","food_offerings","full_service","go_plus","high_speed_diesel_pump","hungarian_highway_sticker","loyalty_cards","loyalty_program","mobile_payment","other_loyalty_cards","others","pet_friendly","shop","standard_toilet","wifi","manned"],"distance":149.98634555845,"driving_distance":null,"driving_duration":null,"website_url":"https://find.shell.com/hu/fuel/10202292-sumeg/it_IT","mdm_site_category":"Conventional Fuel Site","formatted_address":"84-ES FŐÚT\nSÜMEG, Veszprem, 8330","site_category":"conventional_fuel_site"},{"id":"12712636","name":"ST. MICHAEL GUESSINGER STR.","lat":47.119662,"lng":16.27137,"brand":"Shell","inactive":false,"type":0,"country_code":"AT","address":"GUESSINGER STR. 184","city":"ST. MICHAEL","state":"Burgenland","postcode":"7535","telephone":"+43 3327 4009","country":"Austria","amenities":["air_and_water","selectshop","self_service","manned"],"distance":153.30395292131,"driving_distance":null,"driving_duration":null,"website_url":"https://www.shell.at/tanken/shell-tankstellensuche/standorte.html/12712636-st-michael-guessinger-str","mdm_site_category":"Conventional Fuel Site","formatted_address":"GUESSINGER STR. 184\nST. MICHAEL, Burgenland, 7535","site_category":"conventional_fuel_site"},{"id":"10022908","name":"ILZ A2-AUTOBAHN ILZ-HAINFELD","lat":47.079261,"lng":15.962565,"brand":"Shell","inactive":false,"type":2,"country_code":"AT","address":"A2-AUTOBAHN ILZ-HAINFELD 56","city":"ILZ","state":"Steiermark","postcode":"8262","telephone":"+43 3385 7055","country":"Austria","amenities":["adblue_pack","adblue_truck","air_and_water","apple_pay","b2b_shell_card_ota","bakery_shop","credit_card","credit_card_general","deli2go","fleet_card_dkv","fleet_card_uta","go_plus","google_pay","heavy_duty_ev","hgv_lane","loyalty_cards","loyalty_program","mobile_payment","mobile_payment_amex","mobile_payment_maestro","mobile_payment_mastercard","mobile_payment_visa","paypal","self_service","shop","standard_toilet","twenty_four_hour","twenty_four_hour_ev_service","type_of_parking","wifi","manned"],"distance":153.44104970293,"driving_distance":null,"driving_duration":null,"website_url":"https://www.shell.at/tanken/shell-tankstellensuche/standorte.html/10022908-ilz-a2-autobahn-ilz-hainfeld","mdm_site_category":"Conventional Fuel Site with EV","formatted_address":"A2-AUTOBAHN ILZ-HAINFELD 56\nILZ, Steiermark, 8262","site_category":"conventional_fuel_site_with_ev"},{"id":"13063143","name":"UNTERPREMSTAETTEN INDUSTRIESTRASSE","lat":46.96362,"lng":15.44115,"brand":"Shell","inactive":false,"type":0,"country_code":"AT","address":"INDUSTRIESTRASSE 30","city":"UNTERPREMSTÄTTEN","state":"Steiermark","postcode":"8141","telephone":"+43 316 777","country":"Austria","amenities":["air_and_water","standard_toilet","twenty_four_hour","unmanned"],"distance":157.52152847868,"driving_distance":null,"driving_duration":null,"website_url":"https://www.shell.at/tanken/shell-tankstellensuche/standorte.html/13063143-unterpremstaetten-industriestrasse","mdm_site_category":"Conventional Fuel Site","formatted_address":"INDUSTRIESTRASSE 30\nUNTERPREMSTÄTTEN, Steiermark, 8141","site_category":"conventional_fuel_site"},{"id":"11961203","name":"GOESSENDORF BUNDESSTRASSE.","lat":46.996953,"lng":15.496848,"brand":"Shell","inactive":false,"type":0,"country_code":"AT","address":"BUNDESSTRASSE 248","city":"GOESSENDORF","state":"Steiermark","postcode":"8071","telephone":"+43 3135 46127","country":"Austria","amenities":["adblue_pack","air_and_water","partner_card","pay_at_pump","self_service","shell_card","standard_toilet","manned"],"distance":158.57865524061,"driving_distance":null,"driving_duration":null,"website_url":"https://www.shell.at/tanken/shell-tankstellensuche/standorte.html/11961203-goessendorf-bundesstrasse","mdm_site_category":"Conventional Fuel Site","formatted_address":"BUNDESSTRASSE 248\nGOESSENDORF, Steiermark, 8071","site_category":"conventional_fuel_site"},{"id":"12858623","name":"NEUBERG IN BURGENLAND","lat":47.184586,"lng":16.248007,"brand":"Shell","inactive":false,"type":0,"country_code":"AT","address":"OBERE HAUPSTRASSE 174","city":"NEUBERG IN BURGENLAND","state":"Burgenland","postcode":"7537","telephone":"","country":"Austria","amenities":["selectshop","manned"],"distance":160.68188884751999,"driving_distance":null,"driving_duration":null,"website_url":"https://www.shell.at/tanken/shell-tankstellensuche/standorte.html/12858623-neuberg-in-burgenland","mdm_site_category":"Conventional Fuel Site","formatted_address":"OBERE HAUPSTRASSE 174\nNEUBERG IN BURGENLAND, Burgenland, 7537","site_category":"conventional_fuel_site"},{"id":"13111510","name":"KOMENDA","lat":46.205811,"lng":14.523937,"brand":"Shell","inactive":false,"type":0,"country_code":"SI","address":"POTOK PRI KOMENDI 8","city":"KOMENDA","state":"Kamnik","postcode":"1218","telephone":"+386 51 276 731","country":"Slovenia","amenities":["cafe","carwash","food_offerings","free_toilet","rollover","sandwich","self_service","shell_card","shop","wifi","cctv","manned"],"distance":160.88372946637,"driving_distance":null,"driving_duration":null,"website_url":"https://find.shell.com/si/fuel/13111510-komenda/it_IT","mdm_site_category":"Conventional Fuel Site","formatted_address":"POTOK PRI KOMENDI 8\nKOMENDA, Kamnik, 1218","site_category":"conventional_fuel_site"},{"id":"10022913","name":"LASSNITZHOEHE SCHEMERLHOEHE.","lat":47.063084,"lng":15.590819,"brand":"Shell","inactive":false,"type":2,"country_code":"AT","address":"SCHEMERLHOEHE 5","city":"LASSNITZHOEHE","state":"Steiermark","postcode":"8301","telephone":"+43 3133 3258","country":"Austria","amenities":["adblue_pack","air_and_water","apple_pay","b2b_shell_card_ota","bakery_shop","carwash","credit_card","credit_card_general","deli2go","fleet_card_dkv","fleet_card_uta","go_plus","google_pay","hgv_lane","high_speed_diesel_pump","loyalty_cards","loyalty_program","mobile_payment","mobile_payment_amex","mobile_payment_maestro","mobile_payment_mastercard","mobile_payment_visa","paypal","rollover","self_service","shell_card","shop","standard_toilet","twenty_four_hour_ev_service","wifi","manned"],"distance":161.79293145584998,"driving_distance":null,"driving_duration":null,"website_url":"https://www.shell.at/tanken/shell-tankstellensuche/standorte.html/10022913-lassnitzhoehe-schemerlhoehe","mdm_site_category":"Conventional Fuel Site with EV","formatted_address":"SCHEMERLHOEHE 5\nLASSNITZHOEHE, Steiermark, 8301","site_category":"conventional_fuel_site_with_ev"},{"id":"10022891","name":"GLEISDORF HARTBERGERSTRASSE.","lat":47.114048,"lng":15.710222,"brand":"Shell","inactive":false,"type":0,"country_code":"AT","address":"HARTBERGERSTRASSE 54","city":"GLEISDORF","state":"Steiermark","postcode":"8200","telephone":"+43 3112 2635","country":"Austria","amenities":["adblue_pack","air_and_water","carwash","credit_card","credit_card_general","fleet_card_general","self_service","shop","standard_toilet","manned"],"distance":163.30372763603,"driving_distance":null,"driving_duration":null,"website_url":"https://www.shell.at/tanken/shell-tankstellensuche/standorte.html/10022891-gleisdorf-hartbergerstrasse","mdm_site_category":"Conventional Fuel Site","formatted_address":"HARTBERGERSTRASSE 54\nGLEISDORF, Steiermark, 8200","site_category":"conventional_fuel_site"},{"id":"10022934","name":"SEIERSBERG MARIA PFEIFERSTRASSE.","lat":47.013165,"lng":15.40893,"brand":"Shell","inactive":false,"type":2,"country_code":"AT","address":"MARIA PFEIFERSTRASSE 6","city":"SEIERSBERG","state":"Steiermark","postcode":"8055","telephone":"+43 316 242018","country":"Austria","amenities":["adblue_pack","adblue_truck","air_and_water","apple_pay","austrian_highway_sticker","b2b_shell_card_ota","bakery_shop","credit_card","credit_card_general","disabled_facilities","fleet_card_dkv","fleet_card_uta","go_plus","google_pay","hgv_lane","loyalty_cards","loyalty_program","mobile_payment","mobile_payment_amex","mobile_payment_maestro","mobile_payment_mastercard","mobile_payment_visa","paypal","self_service","shop","standard_toilet","twenty_four_hour","twenty_four_hour_ev_service","type_of_parking","wifi","manned"],"distance":163.49840175002998,"driving_distance":null,"driving_duration":null,"website_url":"https://www.shell.at/tanken/shell-tankstellensuche/standorte.html/10022934-seiersberg-maria-pfeiferstrasse","mdm_site_category":"Conventional Fuel Site with EV","formatted_address":"MARIA PFEIFERSTRASSE 6\nSEIERSBERG, Steiermark, 8055","site_category":"conventional_fuel_site_with_ev"},{"id":"10203508","name":"SZOMBATHELY III.","lat":47.22947,"lng":16.61748,"brand":"Shell","inactive":false,"type":0,"country_code":"HU","address":"KISKAR U. 8","city":"SZOMBATHELY","state":"Vas","postcode":"9700","telephone":"+36 94 509 182","country":"Hungary","amenities":["adblue_pack","air_and_water","austrian_highway_sticker","b2b_shell_card_ota","bakery_shop","carwash","credit_card","credit_card_general","fast_food","fleet_card_general","food_offerings","full_service","go_plus","hungarian_highway_sticker","loyalty_cards","loyalty_program","mobile_payment","other_loyalty_cards","others","pet_friendly","rollover","shop","standard_toilet","twenty_four_hour","type_of_parking","wifi","manned"],"distance":164.75538951188,"driving_distance":null,"driving_duration":null,"website_url":"https://find.shell.com/hu/fuel/10203508-szombathely-iii/it_IT","mdm_site_category":"Conventional Fuel Site","formatted_address":"KISKAR U. 8\nSZOMBATHELY, Vas, 9700","site_category":"conventional_fuel_site"},{"id":"10022948","name":"GROSSPETERSDORF GUESSINGERSTRASSE.","lat":47.230869,"lng":16.322664,"brand":"Shell","inactive":false,"type":0,"country_code":"AT","address":"GUESSINGERSTRASSE 1A","city":"GROSSPETERSDORF","state":"Burgenland","postcode":"7503","telephone":"+43 3362 2222","country":"Austria","amenities":["adblue_pack","air_and_water","austrian_highway_sticker","carwash","credit_card","credit_card_general","fleet_card_general","rollover","self_service","shell_card","shop","standard_toilet","type_of_parking","manned"],"distance":165.22390561626,"driving_distance":null,"driving_duration":null,"website_url":"https://www.shell.at/tanken/shell-tankstellensuche/standorte.html/10022948-grosspetersdorf-guessingerstrasse","mdm_site_category":"Conventional Fuel Site","formatted_address":"GUESSINGERSTRASSE 1A\nGROSSPETERSDORF, Burgenland, 7503","site_category":"conventional_fuel_site"},{"id":"10022901","name":"GRAZ-ST.PETER ST.PETER-HAUPTSTRASS.","lat":47.057367,"lng":15.471032,"brand":"Shell","inactive":false,"type":0,"country_code":"AT","address":"ST.PETER-HAUPTSTRASSE 24","city":"GRAZ-ST.PETER","state":"Steiermark","postcode":"8042","telephone":"+43 316 463773","country":"Austria","amenities":["adblue_pack","air_and_water","apple_pay","b2b_shell_card_ota","bakery_shop","billa_unterwegs","carwash","credit_card","credit_card_american_express","credit_card_mastercard","credit_card_visa","disabled_facilities","fleet_card_dkv","fleet_card_uta","go_plus","google_pay","loyalty_cards","loyalty_program","mobile_payment","mobile_payment_amex","mobile_payment_maestro","mobile_payment_mastercard","mobile_payment_visa","paypal","rollover_and_jet","self_service","shell_card","standard_toilet","twenty_four_hour","twenty_four_hour_ev_service","vacuum","wifi","manned"],"distance":165.39932173589,"driving_distance":null,"driving_duration":null,"website_url":"https://www.shell.at/tanken/shell-tankstellensuche/standorte.html/10022901-graz-st-peter-st-peter-hauptstrass","mdm_site_category":"Conventional Fuel Site with EV","formatted_address":"ST.PETER-HAUPTSTRASSE 24\nGRAZ-ST.PETER, Steiermark, 8042","site_category":"conventional_fuel_site_with_ev"},{"id":"10203477","name":"SZOMBATHELY II.","lat":47.242083,"lng":16.590791,"brand":"Shell","inactive":false,"type":0,"country_code":"HU","address":"DOLGOZÓK ÚTJA  3785(83 HRSZ.)","city":"SZOMBATHELY","state":"Vas","postcode":"9700","telephone":"+36 94 506 990","country":"Hungary","amenities":["adblue_pack","air_and_water","austrian_highway_sticker","b2b_shell_card_ota","bakery_shop","carwash","credit_card","credit_card_general","fleet_card_general","full_service","go_plus","hungarian_highway_sticker","loyalty_cards","loyalty_program","mobile_payment","other_loyalty_cards","rollover","shop","standard_toilet","type_of_parking","wifi","manned"],"distance":166.05774666912998,"driving_distance":null,"driving_duration":null,"website_url":"https://find.shell.com/hu/fuel/10203477-szombathely-ii/it_IT","mdm_site_category":"Conventional Fuel Site","formatted_address":"DOLGOZÓK ÚTJA  3785(83 HRSZ.)\nSZOMBATHELY, Vas, 9700","site_category":"conventional_fuel_site"},{"id":"13040798","name":"EV TESCO SZOMBATHELY","lat":47.239704,"lng":16.653583,"brand":"Shell","inactive":false,"type":0,"country_code":"HU","address":"Zanati ut 70.","city":"Szombathely","state":"Vas","postcode":"9700","telephone":"","country":"Hungary","amenities":["credit_card","credit_card_general","touchless_pay","twenty_four_hour_ev_service","manned"],"distance":166.06433339620997,"driving_distance":null,"driving_duration":null,"website_url":"https://find.shell.com/hu/fuel/13040798-ev-tesco-szombathely/it_IT","mdm_site_category":"Destination Charging (EV)","formatted_address":"Zanati ut 70.\nSzombathely, Vas, 9700","site_category":"destination_charging_ev"},{"id":"11367859","name":"SZOMBATHELY IV.","lat":47.24139,"lng":16.652838,"brand":"Shell","inactive":false,"type":0,"country_code":"HU","address":"ZANATI ÚT 70","city":"SZOMBATHELY","state":"Vas","postcode":"9700","telephone":"+36 94 714 225","country":"Hungary","amenities":["adblue_pack","air_and_water","austrian_highway_sticker","b2b_shell_card_ota","full_service","go_plus","hungarian_highway_sticker","loyalty_cards","loyalty_program","mobile_payment","other_loyalty_cards","pet_friendly","shop","standard_toilet","wifi","manned"],"distance":166.24730341734002,"driving_distance":null,"driving_duration":null,"website_url":"https://find.shell.com/hu/fuel/11367859-szombathely-iv/it_IT","mdm_site_category":"Conventional Fuel Site","formatted_address":"ZANATI ÚT 70\nSZOMBATHELY, Vas, 9700","site_category":"conventional_fuel_site"},{"id":"13059438","name":"EV BILLA GRAZ, PETER ROSEGGER STR.","lat":47.054892,"lng":15.41159,"brand":"Shell","inactive":false,"type":0,"country_code":"AT","address":"PETER ROSEGGER STR. 30","city":"GRAZ","state":"Steiermark","postcode":"8010","telephone":"","country":"Austria","amenities":["apple_pay","credit_card","credit_card_mastercard","credit_card_visa","google_pay","mobile_payment","mobile_payment_maestro","mobile_payment_mastercard","mobile_payment_visa","shop","touchless_pay","manned"],"distance":167.38321980468,"driving_distance":null,"driving_duration":null,"website_url":"https://www.shell.at/tanken/shell-tankstellensuche/standorte.html/13059438-ev-billa-graz-peter-rosegger-str","mdm_site_category":"Destination Charging (EV)","formatted_address":"PETER ROSEGGER STR. 30\nGRAZ, Steiermark, 8010","site_category":"destination_charging_ev"},{"id":"10203476","name":"SZOMBATHELY","lat":47.258231,"lng":16.612629,"brand":"Shell","inactive":false,"type":2,"country_code":"HU","address":"FARKAS K UTCA 1663/3 HRSZ.","city":"SZOMBATHELY","state":"Vas","postcode":"9700","telephone":"+36 94 506 261","country":"Hungary","amenities":["adblue_pack","adblue_truck","air_and_water","austrian_highway_sticker","b2b_shell_card_ota","bakery_shop","credit_card","credit_card_general","fast_food","fleet_card_general","food_offerings","full_service","go_plus","hgv_lane","high_speed_diesel_pump","hungarian_highway_sticker","loyalty_cards","loyalty_program","mobile_payment","netpincer","other_loyalty_cards","others","paid_toilet","pet_friendly","shop","standard_toilet","twenty_four_hour_ev_service","type_of_parking","wifi","manned"],"distance":167.92920206899,"driving_distance":null,"driving_duration":null,"website_url":"https://find.shell.com/hu/fuel/10203476-szombathely/it_IT","mdm_site_category":"Conventional Fuel Site with EV","formatted_address":"FARKAS K UTCA 1663/3 HRSZ.\nSZOMBATHELY, Vas, 9700","site_category":"conventional_fuel_site_with_ev"},{"id":"13016120","name":"EV TESCO BALATONFURED","lat":46.947944,"lng":17.877424,"brand":"Shell","inactive":false,"type":0,"country_code":"HU","address":"SZECHENYI U. 55.","city":"BALATONFURED","state":"Veszprem","postcode":"8230","telephone":"","country":"Hungary","amenities":["credit_card","credit_card_general","fleet_card_general","parking_lanes","standard_toilet","touchless_pay","twenty_four_hour","twenty_four_hour_ev_service","type_of_parking","manned"],"distance":170.05579897611,"driving_distance":null,"driving_duration":null,"website_url":"https://find.shell.com/hu/fuel/13016120-ev-tesco-balatonfured/it_IT","mdm_site_category":"Destination Charging (EV)","formatted_address":"SZECHENYI U. 55.\nBALATONFURED, Veszprem, 8230","site_category":"destination_charging_ev"},{"id":"10202244","name":"BALATONFÜRED","lat":46.949723,"lng":17.882352,"brand":"Shell","inactive":false,"type":0,"country_code":"HU","address":"SZÉCHENYI ÚT","city":"BALATONFÜRED","state":"Veszprem","postcode":"8230","telephone":"+36 87 580 554","country":"Hungary","amenities":["adblue_pack","air_and_water","b2b_shell_card_ota","bakery_shop","credit_card","credit_card_general","fast_food","fleet_card_general","food_offerings","full_service","go_plus","hungarian_highway_sticker","loyalty_cards","loyalty_program","mobile_payment","other_loyalty_cards","others","pet_friendly","shop","standard_toilet","type_of_parking","wifi","manned"],"distance":170.44485035588,"driving_distance":null,"driving_duration":null,"website_url":"https://find.shell.com/hu/fuel/10202244-balatonfured/it_IT","mdm_site_category":"Conventional Fuel Site","formatted_address":"SZÉCHENYI ÚT\nBALATONFÜRED, Veszprem, 8230","site_category":"conventional_fuel_site"},{"id":"10022899","name":"GRAZ WIENERSTRASSE.","lat":47.0876,"lng":15.41238,"brand":"Shell","inactive":false,"type":2,"country_code":"AT","address":"WIENERSTRASSE 180A","city":"GRAZ","state":"Steiermark","postcode":"8051","telephone":"+43 316 681135","country":"Austria","amenities":["adblue_car","adblue_pack","adblue_truck","air_and_water","apple_pay","atm","atm_in","austrian_highway_sticker","b2b_shell_card_ota","bakery_shop","carwash","conveyor","credit_card","credit_card_american_express","credit_card_diners_club","credit_card_general","credit_card_mastercard","credit_card_visa","fleet_card_dkv","fleet_card_uta","go_plus","google_pay","hgv_lane","high_speed_diesel_pump","loyalty_cards","loyalty_program","mobile_payment","mobile_payment_amex","mobile_payment_maestro","mobile_payment_mastercard","mobile_payment_visa","paypal","rollover","self_service","shell_card","shop","standard_toilet","twenty_four_hour","wifi","manned"],"distance":170.5035465154,"driving_distance":null,"driving_duration":null,"website_url":"https://www.shell.at/tanken/shell-tankstellensuche/standorte.html/10022899-graz-wienerstrasse","mdm_site_category":"Conventional Fuel Site","formatted_address":"WIENERSTRASSE 180A\nGRAZ, Steiermark, 8051","site_category":"conventional_fuel_site"},{"id":"10203344","name":"SÁRVÁR.","lat":47.25803,"lng":16.93817,"brand":"Shell","inactive":false,"type":2,"country_code":"HU","address":"DEÁK FERENC UT.16. 520/16 HRSZ 83","city":"SÁRVÁR","state":"Vas","postcode":"9600","telephone":"+36 95 325 200","country":"Hungary","amenities":["adblue_pack","air_and_water","austrian_highway_sticker","b2b_shell_card_ota","bakery_shop","carwash","credit_card","credit_card_general","fast_food","fleet_card_general","food_offerings","full_service","go_plus","hgv_lane","high_speed_diesel_pump","hungarian_highway_sticker","loyalty_cards","loyalty_program","mobile_payment","other_loyalty_cards","other_third_party_rental","others","rollover","shop","standard_toilet","twenty_four_hour","type_of_parking","wifi","manned"],"distance":171.00525229701,"driving_distance":null,"driving_duration":null,"website_url":"https://find.shell.com/hu/fuel/10203344-sarvar/it_IT","mdm_site_category":"Conventional Fuel Site","formatted_address":"DEÁK FERENC UT.16. 520/16 HRSZ 83\nSÁRVÁR, Vas, 9600","site_category":"conventional_fuel_site"},{"id":"13113706","name":"EV BILLA KROTTENDORF, NR. 173","lat":47.009436,"lng":15.216749,"brand":"Shell","inactive":false,"type":0,"country_code":"AT","address":"NR. 173","city":"KROTTENDORF","state":"Steiermark","postcode":"8564","telephone":"","country":"Austria","amenities":["apple_pay","credit_card","credit_card_mastercard","credit_card_visa","google_pay","mobile_payment","mobile_payment_maestro","mobile_payment_mastercard","mobile_payment_visa","shop","touchless_pay","manned"],"distance":171.17375040717002,"driving_distance":null,"driving_duration":null,"website_url":"https://www.shell.at/tanken/shell-tankstellensuche/standorte.html/13113706-ev-billa-krottendorf-nr-173","mdm_site_category":"Destination Charging (EV)","formatted_address":"NR. 173\nKROTTENDORF, Steiermark, 8564","site_category":"destination_charging_ev"},{"id":"11367785","name":"AJKA 542","lat":47.113521,"lng":17.549561,"brand":"Shell","inactive":false,"type":0,"country_code":"HU","address":"FŐ ÚT 66","city":"AJKA","state":"Veszprem","postcode":"8400","telephone":"+36 30 587 4385","country":"Hungary","amenities":["adblue_pack","air_and_water","austrian_highway_sticker","b2b_shell_card_ota","credit_card","credit_card_general","fleet_card_general","full_service","go_plus","hungarian_highway_sticker","loyalty_cards","loyalty_program","mobile_payment","other_loyalty_cards","pet_friendly","shop","standard_toilet","type_of_parking","wifi","manned"],"distance":171.6280330113,"driving_distance":null,"driving_duration":null,"website_url":"https://find.shell.com/hu/fuel/11367785-ajka-542/it_IT","mdm_site_category":"Conventional Fuel Site","formatted_address":"FŐ ÚT 66\nAJKA, Veszprem, 8400","site_category":"conventional_fuel_site"},{"id":"13040730","name":"EV TESCO AJKA","lat":47.114276,"lng":17.549115,"brand":"Shell","inactive":false,"type":0,"country_code":"HU","address":"Fo ut 66.","city":"Ajka","state":"Veszprem","postcode":"8400","telephone":"","country":"Hungary","amenities":["credit_card","credit_card_general","touchless_pay","twenty_four_hour_ev_service","manned"],"distance":171.68593038609,"driving_distance":null,"driving_duration":null,"website_url":"https://find.shell.com/hu/fuel/13040730-ev-tesco-ajka/it_IT","mdm_site_category":"Destination Charging (EV)","formatted_address":"Fo ut 66.\nAjka, Veszprem, 8400","site_category":"destination_charging_ev"},{"id":"10022941","name":"STUBENBERG/SEE VOCKENBERG.","lat":47.234247,"lng":15.835936,"brand":"Shell","inactive":false,"type":0,"country_code":"AT","address":"VOCKENBERG 72","city":"STUBENBERG/SEE","state":"Steiermark","postcode":"8223","telephone":"+43 3176 80333","country":"Austria","amenities":["adblue_pack","air_and_water","bakery_shop","carwash","credit_card","credit_card_american_express","credit_card_diners_club","credit_card_general","credit_card_mastercard","credit_card_visa","fleet_card_general","jet","partner_card","pay_at_pump","rollover","self_service","shell_card","shop","standard_toilet","twenty_four_hour","type_of_parking","manned"],"distance":172.69096271605002,"driving_distance":null,"driving_duration":null,"website_url":"https://www.shell.at/tanken/shell-tankstellensuche/standorte.html/10022941-stubenberg-see-vockenberg","mdm_site_category":"Conventional Fuel Site","formatted_address":"VOCKENBERG 72\nSTUBENBERG/SEE, Steiermark, 8223","site_category":"conventional_fuel_site"},{"id":"13016132","name":"EV TESCO SIOFOK","lat":46.892784,"lng":18.055721,"brand":"Shell","inactive":false,"type":0,"country_code":"HU","address":"VAK BOTTYAN U. 27.","city":"SIOFOK","state":"Somogy","postcode":"8600","telephone":"","country":"Hungary","amenities":["credit_card","credit_card_general","touchless_pay","twenty_four_hour_ev_service","manned"],"distance":174.40585596237,"driving_distance":null,"driving_duration":null,"website_url":"https://find.shell.com/hu/fuel/13016132-ev-tesco-siofok/it_IT","mdm_site_category":"Destination Charging (EV)","formatted_address":"VAK BOTTYAN U. 27.\nSIOFOK, Somogy, 8600","site_category":"destination_charging_ev"},{"id":"11367863","name":"SIÓFOK II 549","lat":46.892625,"lng":18.059087,"brand":"Shell","inactive":false,"type":0,"country_code":"HU","address":"VAK B. UTCA 29","city":"SIÓFOK","state":"Somogy","postcode":"8600","telephone":"+36 84 522 057","country":"Hungary","amenities":["adblue_pack","air_and_water","b2b_shell_card_ota","bakery_shop","food_offerings","full_service","go_plus","high_speed_diesel_pump","hungarian_highway_sticker","loyalty_cards","loyalty_program","mobile_payment","other_loyalty_cards","others","shop","standard_toilet","wifi","manned"],"distance":174.57023545566997,"driving_distance":null,"driving_duration":null,"website_url":"https://find.shell.com/hu/fuel/11367863-siofok-ii-549/it_IT","mdm_site_category":"Conventional Fuel Site","formatted_address":"VAK B. UTCA 29\nSIÓFOK, Somogy, 8600","site_category":"conventional_fuel_site"},{"id":"10022943","name":"WEIZ GLEISDORFERSTRASSE.","lat":47.208593,"lng":15.633555,"brand":"Shell","inactive":false,"type":0,"country_code":"AT","address":"GLEISDORFERSTRASSE 111","city":"WEIZ","state":"Steiermark","postcode":"8160","telephone":"+43 3172 2501370","country":"Austria","amenities":["adblue_pack","air_and_water","carwash","credit_card","credit_card_general","fleet_card_general","self_service","shop","standard_toilet","manned"],"distance":175.23004515703,"driving_distance":null,"driving_duration":null,"website_url":"https://www.shell.at/tanken/shell-tankstellensuche/standorte.html/10022943-weiz-gleisdorferstrasse","mdm_site_category":"Conventional Fuel Site","formatted_address":"GLEISDORFERSTRASSE 111\nWEIZ, Steiermark, 8160","site_category":"conventional_fuel_site"},{"id":"10022977","name":"VOELKERMARKT UMFAHRUNGSSTRASSE.","lat":46.662413,"lng":14.626691,"brand":"Shell","inactive":false,"type":2,"country_code":"AT","address":"UMFAHRUNGSSTRASSE 14","city":"VOELKERMARKT","state":"Kärnten","postcode":"9100","telephone":"+43 4232 2512","country":"Austria","amenities":["adblue_pack","air_and_water","apple_pay","b2b_shell_card_ota","bakery_shop","billa_unterwegs","carwash","credit_card","credit_card_american_express","credit_card_mastercard","credit_card_visa","full_service","go_plus","google_pay","hgv_lane","loyalty_cards","loyalty_program","mobile_payment","mobile_payment_amex","mobile_payment_maestro","mobile_payment_mastercard","mobile_payment_visa","paypal","rollover","rollover_and_jet","shell_card","standard_toilet","twenty_four_hour_ev_service","wifi","manned"],"distance":176.27330210348,"driving_distance":null,"driving_duration":null,"website_url":"https://www.shell.at/tanken/shell-tankstellensuche/standorte.html/10022977-voelkermarkt-umfahrungsstrasse","mdm_site_category":"Conventional Fuel Site with EV","formatted_address":"UMFAHRUNGSSTRASSE 14\nVOELKERMARKT, Kärnten, 9100","site_category":"conventional_fuel_site_with_ev"},{"id":"10022944","name":"WEIZ BIRKFELDERSTRASSE.","lat":47.219478,"lng":15.634634,"brand":"Shell","inactive":false,"type":0,"country_code":"AT","address":"BIRKFELDERSTRASSE 63","city":"WEIZ","state":"Steiermark","postcode":"8160","telephone":"+43 3172 2050","country":"Austria","amenities":["adblue_pack","air_and_water","apple_pay","austrian_highway_sticker","b2b_shell_card_ota","bakery_shop","billa_unterwegs","carwash","credit_card","credit_card_general","fleet_card_uta","go_plus","google_pay","loyalty_cards","loyalty_program","mobile_payment","mobile_payment_amex","mobile_payment_maestro","mobile_payment_mastercard","mobile_payment_visa","paypal","rollover","self_service","service_bay","standard_toilet","vacuum","wifi","manned"],"distance":176.31732437304,"driving_distance":null,"driving_duration":null,"website_url":"https://www.shell.at/tanken/shell-tankstellensuche/standorte.html/10022944-weiz-birkfelderstrasse","mdm_site_category":"Conventional Fuel Site","formatted_address":"BIRKFELDERSTRASSE 63\nWEIZ, Steiermark, 8160","site_category":"conventional_fuel_site"},{"id":"13048189","name":"EV BILLA GRATKORN, ST. STEFANER S.","lat":47.128433,"lng":15.34655,"brand":"Shell","inactive":false,"type":0,"country_code":"AT","address":"St. Stefaner Strasse 1","city":"Gratkorn","state":"Steiermark","postcode":"8101","telephone":"","country":"Austria","amenities":["apple_pay","credit_card","credit_card_mastercard","credit_card_visa","google_pay","mobile_payment","mobile_payment_maestro","mobile_payment_mastercard","mobile_payment_visa","shop","touchless_pay","manned"],"distance":176.92785407209,"driving_distance":null,"driving_duration":null,"website_url":"https://www.shell.at/tanken/shell-tankstellensuche/standorte.html/13048189-ev-billa-gratkorn-st-stefaner-s","mdm_site_category":"Destination Charging (EV)","formatted_address":"St. Stefaner Strasse 1\nGratkorn, Steiermark, 8101","site_category":"destination_charging_ev"},{"id":"10022949","name":"BAD TATZMANNSDORF JORMANNSDORFER S.","lat":47.345534,"lng":16.224015,"brand":"Shell","inactive":false,"type":0,"country_code":"AT","address":"JORMANNSDORFER STR 52","city":"BAD TATZMANNSDORF","state":"Burgenland","postcode":"7431","telephone":"+43 3353 8271","country":"Austria","amenities":["adblue_car","air_and_water","austrian_highway_sticker","carwash","credit_card","credit_card_mastercard","credit_card_visa","disabled_facilities","fleet_card_general","high_speed_diesel_pump","jet","rollover","rollover_and_jet","self_service","shop","standard_toilet","type_of_parking","manned"],"distance":178.6661659832,"driving_distance":null,"driving_duration":null,"website_url":"https://www.shell.at/tanken/shell-tankstellensuche/standorte.html/10022949-bad-tatzmannsdorf-jormannsdorfer-s","mdm_site_category":"Conventional Fuel Site","formatted_address":"JORMANNSDORFER STR 52\nBAD TATZMANNSDORF, Burgenland, 7431","site_category":"conventional_fuel_site"},{"id":"10022978","name":"VOELKERMARKT A2/SUEDAUTOBAHN","lat":46.679387,"lng":14.596049,"brand":"Shell","inactive":false,"type":2,"country_code":"AT","address":"A2/SUEDAUTOBAHN","city":"VOELKERMARKT","state":"Kärnten","postcode":"9100","telephone":"+43 4231 21210","country":"Austria","amenities":["standard_toilet","mobile_payment","bakery_shop","loyalty_cards","credit_card","fuel_card","credit_card_general","self_service","fleet_card_dkv","fleet_card_uta","deli2go","twenty_four_hour","shop","adblue_truck","adblue_pack","loyalty_program","go_plus","paypal","b2b_shell_card_ota","hgv_lane","air_and_water","wifi","apple_pay","google_pay","mobile_payment_amex","mobile_payment_visa","mobile_payment_mastercard","mobile_payment_maestro","manned"],"distance":179.26910153825,"driving_distance":null,"driving_duration":null,"website_url":"https://www.shell.at/tanken/shell-tankstellensuche/standorte.html/10022978-voelkermarkt-a2-suedautobahn","mdm_site_category":"Conventional Fuel Site with EV","formatted_address":"A2/SUEDAUTOBAHN\nVOELKERMARKT, Kärnten, 9100","site_category":"conventional_fuel_site_with_ev"},{"id":"10022923","name":"POELLAU BEI HARTBERG SCHLOFFERECKS.","lat":47.309653,"lng":15.830571,"brand":"Shell","inactive":false,"type":0,"country_code":"AT","address":"SCHLOFFERECKSTRASSE 413","city":"POELLAU BEI HARTBERG","state":"Steiermark","postcode":"8225","telephone":"+43 3335 2268","country":"Austria","amenities":["adblue_pack","air_and_water","carwash","credit_card","credit_card_general","full_service","rollover_and_jet","shell_card","shop","standard_toilet","manned"],"distance":180.82683312463,"driving_distance":null,"driving_duration":null,"website_url":"https://www.shell.at/tanken/shell-tankstellensuche/standorte.html/10022923-poellau-bei-hartberg-schlofferecks","mdm_site_category":"Conventional Fuel Site","formatted_address":"SCHLOFFERECKSTRASSE 413\nPOELLAU BEI HARTBERG, Steiermark, 8225","site_category":"conventional_fuel_site"},{"id":"10202366","name":"HEREND.","lat":47.128979,"lng":17.755958,"brand":"Shell","inactive":false,"type":2,"country_code":"HU","address":"8 SZ. FŐÚT","city":"HEREND","state":"Veszprem","postcode":"8440","telephone":"+36 88 261 110","country":"Hungary","amenities":["adblue_pack","air_and_water","austrian_highway_sticker","b2b_shell_card_ota","bakery_shop","credit_card","credit_card_general","fast_food","fleet_card_general","food_offerings","full_service","go_plus","hgv_lane","high_speed_diesel_pump","hungarian_highway_sticker","loyalty_cards","loyalty_program","mobile_payment","other_loyalty_cards","others","shop","standard_toilet","twenty_four_hour","type_of_parking","wifi","manned"],"distance":181.02996235636,"driving_distance":null,"driving_duration":null,"website_url":"https://find.shell.com/hu/fuel/10202366-herend/it_IT","mdm_site_category":"Conventional Fuel Site","formatted_address":"8 SZ. FŐÚT\nHEREND, Veszprem, 8440","site_category":"conventional_fuel_site"},{"id":"10202226","name":"VESZPRÉM II.","lat":47.085854,"lng":17.920128,"brand":"Shell","inactive":false,"type":0,"country_code":"HU","address":"ALMÁDI ÚT. 7/1","city":"VESZPRÉM","state":"Veszprem","postcode":"8200","telephone":"+36 88 564 890","country":"Hungary","amenities":["adblue_pack","air_and_water","austrian_highway_sticker","b2b_shell_card_ota","bakery_shop","credit_card","credit_card_general","fast_food","fleet_card_general","food_offerings","full_service","go_plus","hungarian_highway_sticker","loyalty_cards","loyalty_program","mobile_payment","other_loyalty_cards","others","pet_friendly","shop","standard_toilet","twenty_four_hour_ev_service","type_of_parking","wifi","manned"],"distance":184.15413316323,"driving_distance":null,"driving_duration":null,"website_url":"https://find.shell.com/hu/fuel/10202226-veszprem-ii/it_IT","mdm_site_category":"Conventional Fuel Site with EV","formatted_address":"ALMÁDI ÚT. 7/1\nVESZPRÉM, Veszprem, 8200","site_category":"conventional_fuel_site_with_ev"},{"id":"13016118","name":"EV TESCO VESZPREM","lat":47.103007,"lng":17.932794,"brand":"Shell","inactive":false,"type":0,"country_code":"HU","address":"KULSO-KADARTAI UT 3.","city":"VESZPREM","state":"Veszprem","postcode":"8200","telephone":"","country":"Hungary","amenities":["credit_card","credit_card_general","touchless_pay","twenty_four_hour_ev_service","manned"],"distance":186.2563975069,"driving_distance":null,"driving_duration":null,"website_url":"https://find.shell.com/hu/fuel/13016118-ev-tesco-veszprem/it_IT","mdm_site_category":"Destination Charging (EV)","formatted_address":"KULSO-KADARTAI UT 3.\nVESZPREM, Veszprem, 8200","site_category":"destination_charging_ev"},{"id":"11367830","name":"VESZPRÉM III 541","lat":47.104309,"lng":17.931935,"brand":"Shell","inactive":false,"type":0,"country_code":"HU","address":"KÜLSŐ-KÁDÁRTAI UTCA 3","city":"VESZPRÉM","state":"Veszprem","postcode":"8200","telephone":"+36 30 433 6565","country":"Hungary","amenities":["adblue_pack","air_and_water","austrian_highway_sticker","b2b_shell_card_ota","full_service","go_plus","hungarian_highway_sticker","loyalty_cards","loyalty_program","mobile_payment","other_loyalty_cards","pet_friendly","shop","standard_toilet","wifi","manned"],"distance":186.33379841656,"driving_distance":null,"driving_duration":null,"website_url":"https://find.shell.com/hu/fuel/11367830-veszprem-iii-541/it_IT","mdm_site_category":"Conventional Fuel Site","formatted_address":"KÜLSŐ-KÁDÁRTAI UTCA 3\nVESZPRÉM, Veszprem, 8200","site_category":"conventional_fuel_site"},{"id":"10022926","name":"ROHRBACH/LAFNITZ NUMMER.","lat":47.391289,"lng":15.994522,"brand":"Shell","inactive":false,"type":0,"country_code":"AT","address":"EICHBERGERSTRASSE 171","city":"ROHRBACH/LAFNITZ","state":"Steiermark","postcode":"8234","telephone":"+43 3338 24120","country":"Austria","amenities":["adblue_truck","air_and_water","austrian_highway_sticker","carwash","credit_card","credit_card_american_express","credit_card_mastercard","credit_card_visa","disabled_facilities","full_service","high_speed_diesel_pump","jet","partner_card","rollover","rollover_and_jet","self_service","shell_card","shop","standard_toilet","type_of_parking","vacuum","manned"],"distance":186.54765284802,"driving_distance":null,"driving_duration":null,"website_url":"https://www.shell.at/tanken/shell-tankstellensuche/standorte.html/10022926-rohrbach-lafnitz-nummer","mdm_site_category":"Conventional Fuel Site","formatted_address":"EICHBERGERSTRASSE 171\nROHRBACH/LAFNITZ, Steiermark, 8234","site_category":"conventional_fuel_site"},{"id":"11913039","name":"BIRKFELD BAHNHOFSTRASSE","lat":47.352952,"lng":15.697599,"brand":"Shell","inactive":false,"type":0,"country_code":"AT","address":"BAHNHOFSTRASSE 18","city":"BIRKFELD","state":"Steiermark","postcode":"8190","telephone":"+43 3174 441622","country":"Austria","amenities":["air_and_water","credit_card","credit_card_general","full_service","shell_card","shop","manned"],"distance":188.50318117239001,"driving_distance":null,"driving_duration":null,"website_url":"https://www.shell.at/tanken/shell-tankstellensuche/standorte.html/11913039-birkfeld-bahnhofstrasse","mdm_site_category":"Conventional Fuel Site","formatted_address":"BAHNHOFSTRASSE 18\nBIRKFELD, Steiermark, 8190","site_category":"conventional_fuel_site"},{"id":"11367891","name":"PÁPA III 556","lat":47.321658,"lng":17.447239,"brand":"Shell","inactive":false,"type":0,"country_code":"HU","address":"CELLI ÚT 92","city":"PÁPA","state":"Veszprem","postcode":"8500","telephone":"+36 20 413 6347","country":"Hungary","amenities":["adblue_pack","air_and_water","austrian_highway_sticker","b2b_shell_card_ota","full_service","go_plus","hungarian_highway_sticker","loyalty_cards","loyalty_program","mobile_payment","other_loyalty_cards","shop","wifi","manned"],"distance":189.18133862418,"driving_distance":null,"driving_duration":null,"website_url":"https://find.shell.com/hu/fuel/11367891-papa-iii-556/it_IT","mdm_site_category":"Conventional Fuel Site","formatted_address":"CELLI ÚT 92\nPÁPA, Veszprem, 8500","site_category":"conventional_fuel_site"},{"id":"13040794","name":"EV TESCO PAPA","lat":47.321495,"lng":17.448532,"brand":"Shell","inactive":false,"type":0,"country_code":"HU","address":"Cellei ut 92.","city":"Papa","state":"Veszprem","postcode":"8500","telephone":"","country":"Hungary","amenities":["credit_card","credit_card_general","touchless_pay","twenty_four_hour_ev_service","manned"],"distance":189.20253164241,"driving_distance":null,"driving_duration":null,"website_url":"https://find.shell.com/hu/fuel/13040794-ev-tesco-papa/it_IT","mdm_site_category":"Destination Charging (EV)","formatted_address":"Cellei ut 92.\nPapa, Veszprem, 8500","site_category":"destination_charging_ev"},{"id":"10202437","name":"PÁPA II.","lat":47.32932,"lng":17.46,"brand":"Shell","inactive":false,"type":0,"country_code":"HU","address":"CELLI U. 6","city":"PAPA","state":"Veszprem","postcode":"8500","telephone":"+36 89 511 290","country":"Hungary","amenities":["adblue_pack","air_and_water","b2b_shell_card_ota","credit_card","credit_card_general","fleet_card_general","full_service","go_plus","hungarian_highway_sticker","loyalty_cards","loyalty_program","mobile_payment","other_loyalty_cards","shop","standard_toilet","type_of_parking","wifi","manned"],"distance":190.34093657603,"driving_distance":null,"driving_duration":null,"website_url":"https://find.shell.com/hu/fuel/10202437-papa-ii/it_IT","mdm_site_category":"Conventional Fuel Site","formatted_address":"CELLI U. 6\nPAPA, Veszprem, 8500","site_category":"conventional_fuel_site"},{"id":"13078358","name":"EV BILLA STEINBERGDÖRFL, S31/B50","lat":47.490921,"lng":16.492083,"brand":"Shell","inactive":true,"type":0,"country_code":"AT","address":"S31/B50","city":"STEINBERGDÖRFL","state":"Burgenland","postcode":"7453","telephone":"","country":"Austria","amenities":["apple_pay","credit_card","credit_card_mastercard","credit_card_visa","google_pay","mobile_payment","mobile_payment_maestro","mobile_payment_mastercard","mobile_payment_visa","shop","touchless_pay","manned"],"distance":193.58279335244,"driving_distance":null,"driving_duration":null,"website_url":"https://www.shell.at/tanken/shell-tankstellensuche/standorte.html/13078358-ev-billa-steinbergdorfl-s31-b50","mdm_site_category":"Destination Charging (EV)","formatted_address":"S31/B50\nSTEINBERGDÖRFL, Burgenland, 7453","site_category":"destination_charging_ev"},{"id":"10022932","name":"BREITENAU ERHARDTSTRASSE","lat":47.384062,"lng":15.478166,"brand":"Shell","inactive":false,"type":0,"country_code":"AT","address":"ERHARDTSTRASSE 89","city":"BREITENAU","state":"Steiermark","postcode":"8614","telephone":"+43 3866 5103","country":"Austria","amenities":["air_and_water","credit_card","credit_card_general","fleet_card_general","self_service","shop","standard_toilet","manned"],"distance":197.77524910927,"driving_distance":null,"driving_duration":null,"website_url":"https://www.shell.at/tanken/shell-tankstellensuche/standorte.html/10022932-breitenau-erhardtstrasse","mdm_site_category":"Conventional Fuel Site","formatted_address":"ERHARDTSTRASSE 89\nBREITENAU, Steiermark, 8614","site_category":"conventional_fuel_site"},{"id":"10126687","name":"SHELL ZADAR TROMILJA","lat":44.115105,"lng":15.406462,"brand":"Shell","inactive":false,"type":0,"country_code":"HR","address":"Gornji Zemunik Ulica V 44","city":"Zemunik","state":null,"postcode":"23222","telephone":"","country":"Croatia","amenities":["full_service","manned"],"distance":201.13806466172002,"driving_distance":null,"driving_duration":null,"website_url":"https://find.shell.com/hr/fuel/10126687-shell-zadar-tromilja/it_IT","mdm_site_category":"Conventional Fuel Site","formatted_address":"Gornji Zemunik Ulica V 44\nZemunik, 23222","site_category":"conventional_fuel_site"},{"id":"10126702","name":"SHELL ZADAR TROMILJA 2","lat":44.115105,"lng":15.406462,"brand":"Shell","inactive":false,"type":0,"country_code":"HR","address":"Gornji Zemunik Ulica V 44","city":"Zemunik","state":null,"postcode":"23222","telephone":"","country":"Croatia","amenities":["adblue_pack","adblue_truck","air_and_water","cafe","credit_card","credit_card_general","disabled_facilities","fleet_card_general","food_offerings","full_service","loyalty_cards","other_loyalty_cards","other_oil_change","pay_at_pump","shop","standard_toilet","wifi","manned"],"distance":201.13806466172002,"driving_distance":null,"driving_duration":null,"website_url":"https://find.shell.com/hr/fuel/10126702-shell-zadar-tromilja-2/it_IT","mdm_site_category":"Conventional Fuel Site","formatted_address":"Gornji Zemunik Ulica V 44\nZemunik, 23222","site_category":"conventional_fuel_site"},{"id":"12756085","name":"RATTEN KIRCHENVIERTEL","lat":47.476842,"lng":15.715358,"brand":"Shell","inactive":false,"type":0,"country_code":"AT","address":"KIRCHENVIERTEL 201","city":"RATTEN","state":"Steiermark","postcode":"8673","telephone":"+43 3173 2770","country":"Austria","amenities":["air_and_water","shop","twenty_four_hour","unmanned"],"distance":201.14907128784,"driving_distance":null,"driving_duration":null,"website_url":"https://www.shell.at/tanken/shell-tankstellensuche/standorte.html/12756085-ratten-kirchenviertel","mdm_site_category":"Conventional Fuel Site","formatted_address":"KIRCHENVIERTEL 201\nRATTEN, Steiermark, 8673","site_category":"conventional_fuel_site"},{"id":"10126720","name":"SHELL ZADAR TROMILJA","lat":44.114187,"lng":15.40713,"brand":"Shell","inactive":false,"type":2,"country_code":"HR","address":"Gornji Zemunik Ulica V 66b","city":"Zemunik","state":null,"postcode":"23222","telephone":"","country":"Croatia","amenities":["adblue_pack","air_and_water","bottled_gas","cafe","credit_card","credit_card_general","disabled_facilities","fleet_card_general","food_offerings","full_service","hgv_lane","loyalty_cards","money_transfer_services","other_loyalty_cards","other_oil_change","pay_at_pump","restaurant","shop","standard_toilet","truck_parking","type_of_parking","wifi","manned"],"distance":201.20813470363,"driving_distance":null,"driving_duration":null,"website_url":"https://find.shell.com/hr/fuel/10126720-shell-zadar-tromilja/it_IT","mdm_site_category":"Conventional Fuel Site","formatted_address":"Gornji Zemunik Ulica V 66b\nZemunik, 23222","site_category":"conventional_fuel_site"},{"id":"13101797","name":"EV TESCO VÁRPALOTA","lat":47.200297,"lng":18.150217,"brand":"Shell","inactive":false,"type":0,"country_code":"HU","address":"Fehérvári u. 17.","city":"Várpalota","state":"Veszprem","postcode":"8100","telephone":"","country":"Hungary","amenities":["credit_card","credit_card_general","touchless_pay","twenty_four_hour_ev_service","manned"],"distance":204.868982878,"driving_distance":null,"driving_duration":null,"website_url":"https://find.shell.com/hu/fuel/13101797-ev-tesco-varpalota/it_IT","mdm_site_category":"Destination Charging (EV)","formatted_address":"Fehérvári u. 17.\nVárpalota, Veszprem, 8100","site_category":"destination_charging_ev"},{"id":"11368476","name":"VÁRPALOTA 579","lat":47.200721,"lng":18.152225,"brand":"Shell","inactive":false,"type":0,"country_code":"HU","address":"FEHÉRVÁRI UTCA 17","city":"VÁRPALOTA","state":"Veszprem","postcode":"8100","telephone":"+36 30 604 1562","country":"Hungary","amenities":["adblue_pack","air_and_water","austrian_highway_sticker","b2b_shell_card_ota","credit_card","credit_card_general","fleet_card_general","full_service","go_plus","hungarian_highway_sticker","loyalty_cards","loyalty_program","mobile_payment","other_loyalty_cards","pet_friendly","shop","type_of_parking","wifi","manned"],"distance":205.00062388888003,"driving_distance":null,"driving_duration":null,"website_url":"https://find.shell.com/hu/fuel/11368476-varpalota-579/it_IT","mdm_site_category":"Conventional Fuel Site","formatted_address":"FEHÉRVÁRI UTCA 17\nVÁRPALOTA, Veszprem, 8100","site_category":"conventional_fuel_site"},{"id":"10126710","name":"SHELL ZADAR ŽMIRIĆI","lat":44.140518,"lng":15.228063,"brand":"Shell","inactive":false,"type":0,"country_code":"HR","address":"Put Nina 250","city":"Zadar","state":null,"postcode":"23000","telephone":"","country":"Croatia","amenities":["adblue_pack","air_and_water","bottled_gas","cafe","credit_card","credit_card_general","disabled_facilities","fleet_card_general","food_offerings","full_service","loyalty_cards","money_transfer_services","other_loyalty_cards","other_oil_change","pay_at_pump","shop","standard_toilet","wifi","manned"],"distance":205.05351587327,"driving_distance":null,"driving_duration":null,"website_url":"https://find.shell.com/hr/fuel/10126710-shell-zadar-zmirici/it_IT","mdm_site_category":"Conventional Fuel Site","formatted_address":"Put Nina 250\nZadar, 23000","site_category":"conventional_fuel_site"},{"id":"10126756","name":"SHELL ZADAR CRNO","lat":44.118574,"lng":15.271994,"brand":"Shell","inactive":false,"type":0,"country_code":"HR","address":"72. bojna Vojne policije 2","city":"Zadar","state":null,"postcode":"23000","telephone":"","country":"Croatia","amenities":["adblue_pack","air_and_water","cafe","credit_card","credit_card_general","disabled_facilities","fleet_card_general","food_offerings","full_service","loyalty_cards","money_transfer_services","other_loyalty_cards","other_oil_change","pay_at_pump","shop","standard_toilet","wifi","manned"],"distance":205.54739735305998,"driving_distance":null,"driving_duration":null,"website_url":"https://find.shell.com/hr/fuel/10126756-shell-zadar-crno/it_IT","mdm_site_category":"Conventional Fuel Site","formatted_address":"72. bojna Vojne policije 2\nZadar, 23000","site_category":"conventional_fuel_site"},{"id":"10126731","name":"SHELL ZADAR","lat":44.112406,"lng":15.256018,"brand":"Shell","inactive":false,"type":2,"country_code":"HR","address":"4. gardijske brigade 3","city":"Zadar","state":null,"postcode":"23000","telephone":"","country":"Croatia","amenities":["air_and_water","bottled_gas","credit_card","credit_card_general","fleet_card_general","full_service","hgv_lane","loyalty_cards","other_loyalty_cards","shop","standard_toilet","wifi","manned"],"distance":206.74787355369997,"driving_distance":null,"driving_duration":null,"website_url":"https://find.shell.com/hr/fuel/10126731-shell-zadar/it_IT","mdm_site_category":"Conventional Fuel Site","formatted_address":"4. gardijske brigade 3\nZadar, 23000","site_category":"conventional_fuel_site"},{"id":"10022911","name":"KNITTELFELD WIENERSTRASSE","lat":47.217473,"lng":14.8275,"brand":"Shell","inactive":false,"type":0,"country_code":"AT","address":"WIENERSTRASSE 17","city":"KNITTELFELD","state":"Steiermark","postcode":"8720","telephone":"+43 3512 86812","country":"Austria","amenities":["adblue_pack","air_and_water","austrian_highway_sticker","bakery_shop","carwash","credit_card","credit_card_general","fleet_card_general","high_speed_diesel_pump","self_service","shop","standard_toilet","vacuum","manned"],"distance":207.41194826910998,"driving_distance":null,"driving_duration":null,"website_url":"https://www.shell.at/tanken/shell-tankstellensuche/standorte.html/10022911-knittelfeld-wienerstrasse","mdm_site_category":"Conventional Fuel Site","formatted_address":"WIENERSTRASSE 17\nKNITTELFELD, Steiermark, 8720","site_category":"conventional_fuel_site"},{"id":"13048185","name":"EV BILLA KNITTELFELD, KAERNTNER S.","lat":47.210935,"lng":14.81537,"brand":"Shell","inactive":false,"type":0,"country_code":"AT","address":"Kaerntner Str. 74","city":"Knittelfeld","state":"Steiermark","postcode":"8720","telephone":"","country":"Austria","amenities":["apple_pay","credit_card","credit_card_mastercard","credit_card_visa","google_pay","mobile_payment","mobile_payment_maestro","mobile_payment_mastercard","mobile_payment_visa","shop","touchless_pay","manned"],"distance":207.42147186462,"driving_distance":null,"driving_duration":null,"website_url":"https://www.shell.at/tanken/shell-tankstellensuche/standorte.html/13048185-ev-billa-knittelfeld-kaerntner-s","mdm_site_category":"Destination Charging (EV)","formatted_address":"Kaerntner Str. 74\nKnittelfeld, Steiermark, 8720","site_category":"destination_charging_ev"},{"id":"10022933","name":"ST.MAREIN/MUERZTAL HAUPTSTR.","lat":47.472633,"lng":15.365169,"brand":"Shell","inactive":false,"type":2,"country_code":"AT","address":"HAUPTSTRASSE 20","city":"ST.MAREIN I.MZT.","state":"Steiermark","postcode":"8641","telephone":"+43 3864 5510","country":"Austria","amenities":["adblue_pack","air_and_water","apple_pay","austrian_highway_sticker","b2b_shell_card_ota","bakery_shop","billa_unterwegs","carwash","credit_card","credit_card_american_express","credit_card_diners_club","credit_card_general","credit_card_mastercard","credit_card_visa","fleet_card_dkv","fleet_card_uta","go_plus","google_pay","hgv_lane","loyalty_cards","loyalty_program","mobile_payment","mobile_payment_amex","mobile_payment_maestro","mobile_payment_mastercard","mobile_payment_visa","paypal","rollover","self_service","shell_card","standard_toilet","twenty_four_hour_ev_service","wifi","manned"],"distance":210.24330335245,"driving_distance":null,"driving_duration":null,"website_url":"https://www.shell.at/tanken/shell-tankstellensuche/standorte.html/10022933-st-marein-muerztal-hauptstr","mdm_site_category":"Conventional Fuel Site with EV","formatted_address":"HAUPTSTRASSE 20\nST.MAREIN I.MZT., Steiermark, 8641","site_category":"conventional_fuel_site_with_ev"},{"id":"13059441","name":"EV BILLA LEOBEN, PESTALOZZISTRASSE","lat":47.375706,"lng":15.073677,"brand":"Shell","inactive":false,"type":0,"country_code":"AT","address":"PESTALOZZISTRASSE 71","city":"LEOBEN","state":"Steiermark","postcode":"8704","telephone":"","country":"Austria","amenities":["apple_pay","credit_card","credit_card_mastercard","credit_card_visa","google_pay","mobile_payment","mobile_payment_maestro","mobile_payment_mastercard","mobile_payment_visa","shop","touchless_pay","manned"],"distance":211.10518217783,"driving_distance":null,"driving_duration":null,"website_url":"https://www.shell.at/tanken/shell-tankstellensuche/standorte.html/13059441-ev-billa-leoben-pestalozzistrasse","mdm_site_category":"Destination Charging (EV)","formatted_address":"PESTALOZZISTRASSE 71\nLEOBEN, Steiermark, 8704","site_category":"destination_charging_ev"},{"id":"10202042","name":"SZÉKESFEHÉRVÁR IV.","lat":47.181797,"lng":18.4069,"brand":"Shell","inactive":false,"type":0,"country_code":"HU","address":"BALATONI ÚT 6083/3","city":"SZÉKESFEHÉRVÁR","state":"Fejer","postcode":"8000","telephone":"+36 22 503 710","country":"Hungary","amenities":["adblue_pack","air_and_water","b2b_shell_card_ota","credit_card","credit_card_general","fleet_card_general","full_service","go_plus","hungarian_highway_sticker","loyalty_cards","loyalty_program","mobile_payment","other_loyalty_cards","shop","standard_toilet","type_of_parking","wifi","manned"],"distance":216.03667873714,"driving_distance":null,"driving_duration":null,"website_url":"https://find.shell.com/hu/fuel/10202042-szekesfehervar-iv/it_IT","mdm_site_category":"Conventional Fuel Site","formatted_address":"BALATONI ÚT 6083/3\nSZÉKESFEHÉRVÁR, Fejer, 8000","site_category":"conventional_fuel_site"},{"id":"10202010","name":"SZÉKESFEHÉRVÁR III.","lat":47.1937,"lng":18.40194,"brand":"Shell","inactive":false,"type":0,"country_code":"HU","address":"PALOTAI ÚT 5508/1 HRS","city":"SZÉKESFEHÉRVÁR","state":"Fejer","postcode":"8000","telephone":"+36 22 502 616","country":"Hungary","amenities":["adblue_pack","air_and_water","b2b_shell_card_ota","bakery_shop","carwash","food_offerings","full_service","go_plus","hungarian_highway_sticker","loyalty_cards","loyalty_program","mobile_payment","other_loyalty_cards","other_third_party_rental","others","rollover","shop","standard_toilet","twenty_four_hour","wifi","manned"],"distance":216.74763707207,"driving_distance":null,"driving_duration":null,"website_url":"https://find.shell.com/hu/fuel/10202010-szekesfehervar-iii/it_IT","mdm_site_category":"Conventional Fuel Site","formatted_address":"PALOTAI ÚT 5508/1 HRS\nSZÉKESFEHÉRVÁR, Fejer, 8000","site_category":"conventional_fuel_site"},{"id":"10202043","name":"SZÉKESFEHÉRVÁR V.","lat":47.19916,"lng":18.41905,"brand":"Shell","inactive":false,"type":2,"country_code":"HU","address":"OLAJ U. 1","city":"SZÉKESFEHÉRVÁR","state":"Fejer","postcode":"8000","telephone":"+36 22 500 495","country":"Hungary","amenities":["adblue_pack","air_and_water","b2b_shell_card_ota","bakery_shop","carwash","credit_card","credit_card_general","fleet_card_general","full_service","go_plus","hgv_lane","high_speed_diesel_pump","hungarian_highway_sticker","loyalty_cards","loyalty_program","mobile_payment","other_loyalty_cards","rollover_and_jet","shop","standard_toilet","type_of_parking","wifi","manned"],"distance":218.07319944499,"driving_distance":null,"driving_duration":null,"website_url":"https://find.shell.com/hu/fuel/10202043-szekesfehervar-v/it_IT","mdm_site_category":"Conventional Fuel Site","formatted_address":"OLAJ U. 1\nSZÉKESFEHÉRVÁR, Fejer, 8000","site_category":"conventional_fuel_site"},{"id":"11368066","name":"SZÉKESFE. VI 561","lat":47.209185,"lng":18.425131,"brand":"Shell","inactive":false,"type":0,"country_code":"HU","address":"ASZALVÖLGYI UTCA 1","city":"SZÉKESFEHÉRVÁR","state":"Fejer","postcode":"8000","telephone":"+36 22 726 041","country":"Hungary","amenities":["adblue_pack","air_and_water","b2b_shell_card_ota","credit_card","credit_card_general","fleet_card_general","full_service","go_plus","loyalty_cards","loyalty_program","mobile_payment","other_loyalty_cards","shop","standard_toilet","type_of_parking","wifi","manned"],"distance":219.20168890201998,"driving_distance":null,"driving_duration":null,"website_url":"https://find.shell.com/hu/fuel/11368066-szekesfe-vi-561/it_IT","mdm_site_category":"Conventional Fuel Site","formatted_address":"ASZALVÖLGYI UTCA 1\nSZÉKESFEHÉRVÁR, Fejer, 8000","site_category":"conventional_fuel_site"},{"id":"10202016","name":"SZÉKESFEHÉRVÁR M7 B.","lat":47.175849,"lng":18.47655,"brand":"Shell","inactive":false,"type":2,"country_code":"HU","address":"M-7.59 KMSZ.B.OLD.","city":"SZÉKESFEHÉRVÁR","state":"Fejer","postcode":"8000","telephone":"+36 22 505 105","country":"Hungary","amenities":["adblue_pack","adblue_truck","air_and_water","b2b_shell_card_ota","bakery_shop","credit_card","credit_card_general","fast_food","fleet_card_general","food_offerings","full_service","go_plus","hgv_lane","high_speed_diesel_pump","hungarian_highway_sticker","loyalty_cards","loyalty_program","mobile_payment","other_loyalty_cards","others","pet_friendly","shop","shower","standard_toilet","twenty_four_hour","twenty_four_hour_ev_service","type_of_parking","wifi","motorway_service","manned"],"distance":219.20391939205,"driving_distance":null,"driving_duration":null,"website_url":"https://find.shell.com/hu/fuel/10202016-szekesfehervar-m7-b/it_IT","mdm_site_category":"Conventional Fuel Site with EV","formatted_address":"M-7.59 KMSZ.B.OLD.\nSZÉKESFEHÉRVÁR, Fejer, 8000","site_category":"conventional_fuel_site_with_ev"},{"id":"10202008","name":"SZÉKESFEHÉRVÁR M7 A","lat":47.17703,"lng":18.476679,"brand":"Shell","inactive":false,"type":2,"country_code":"HU","address":"M-7.59 KMSZ.","city":"SZÉKESFEHÉRVÁR","state":"Fejer","postcode":"8000","telephone":"+36 22 502 702","country":"Hungary","amenities":["adblue_pack","air_and_water","austrian_highway_sticker","b2b_shell_card_ota","bakery_shop","credit_card","credit_card_general","fast_food","fleet_card_general","food_offerings","full_service","go_plus","hgv_lane","high_speed_diesel_pump","hungarian_highway_sticker","loyalty_cards","loyalty_program","mobile_payment","other_loyalty_cards","others","pet_friendly","shop","shower","standard_toilet","twenty_four_hour","twenty_four_hour_ev_service","type_of_parking","wifi","motorway_service","manned"],"distance":219.3045869876,"driving_distance":null,"driving_duration":null,"website_url":"https://find.shell.com/hu/fuel/10202008-szekesfehervar-m7-a/it_IT","mdm_site_category":"Conventional Fuel Site with EV","formatted_address":"M-7.59 KMSZ.\nSZÉKESFEHÉRVÁR, Fejer, 8000","site_category":"conventional_fuel_site_with_ev"},{"id":"11368677","name":"OROSZLÁNY II 585","lat":47.495058,"lng":18.321344,"brand":"Shell","inactive":false,"type":0,"country_code":"HU","address":"KÖRNYEI ÚT 3-5","city":"OROSZLÁNY","state":"Komarom-Esztergom","postcode":"2840","telephone":"+36 34 704 006","country":"Hungary","amenities":["adblue_pack","air_and_water","austrian_highway_sticker","b2b_shell_card_ota","credit_card","credit_card_general","fleet_card_general","full_service","go_plus","hungarian_highway_sticker","loyalty_cards","loyalty_program","mobile_payment","other_loyalty_cards","shop","type_of_parking","wifi","manned"],"distance":238.73008457496,"driving_distance":null,"driving_duration":null,"website_url":"https://find.shell.com/hu/fuel/11368677-oroszlany-ii-585/it_IT","mdm_site_category":"Conventional Fuel Site","formatted_address":"KÖRNYEI ÚT 3-5\nOROSZLÁNY, Komarom-Esztergom, 2840","site_category":"conventional_fuel_site"},{"id":"13016119","name":"EV TESCO OROSZLANY","lat":47.496034,"lng":18.321406,"brand":"Shell","inactive":false,"type":0,"country_code":"HU","address":"KORNYEI UT 3-5.","city":"OROSZLANY","state":"Komarom-Esztergom","postcode":"2840","telephone":"","country":"Hungary","amenities":["credit_card","credit_card_general","shop","touchless_pay","twenty_four_hour_ev_service","manned"],"distance":238.82031504977,"driving_distance":null,"driving_duration":null,"website_url":"https://find.shell.com/hu/fuel/13016119-ev-tesco-oroszlany/it_IT","mdm_site_category":"Destination Charging (EV)","formatted_address":"KORNYEI UT 3-5.\nOROSZLANY, Komarom-Esztergom, 2840","site_category":"destination_charging_ev"}],"clusters":[]}