{"locations":[{"id":"10127283","name":"DAR ALLOUCHE","lat":36.968986,"lng":11.050481,"brand":"Shell","inactive":false,"type":0,"country_code":"TN","address":"Route de Houaria","city":"Dar Allouche","state":"NABEUL","postcode":"8055","telephone":"+216 71 249 149","country":"Tunisia","amenities":["air_and_water","bottled_gas","credit_card","credit_card_general","free_toilet","full_service","other_oil_change","pay_at_pump","service_bay","shell_card","standard_toilet","twenty_four_hour","manned"],"distance":141.25593762068,"driving_distance":null,"driving_duration":null,"website_url":"https://find.shell.com/tn/fuel/10127283-dar-allouche/it_IT","mdm_site_category":"Conventional Fuel Site","formatted_address":"Route de Houaria\nDar Allouche, NABEUL, 8055","site_category":"conventional_fuel_site"},{"id":"10127353","name":"KELIBIA","lat":36.845578,"lng":11.084472,"brand":"Shell","inactive":false,"type":0,"country_code":"TN","address":"Avenue Habib Bourguiba","city":"Kelibia","state":"NABEUL","postcode":"8090","telephone":"+216 71 249 149","country":"Tunisia","amenities":["air_and_water","bottled_gas","credit_card","credit_card_general","free_toilet","full_service","other_oil_change","pay_at_pump","service_bay","shell_card","standard_toilet","twenty_four_hour","manned"],"distance":144.99782880939,"driving_distance":null,"driving_duration":null,"website_url":"https://find.shell.com/tn/fuel/10127353-kelibia/it_IT","mdm_site_category":"Conventional Fuel Site","formatted_address":"Avenue Habib Bourguiba\nKelibia, NABEUL, 8090","site_category":"conventional_fuel_site"},{"id":"10127440","name":"MENZEL TEMIME","lat":36.774408,"lng":10.982122,"brand":"Shell","inactive":false,"type":0,"country_code":"TN","address":"Avenue Hedi Chaker","city":"Menzel Temime","state":"NABEUL","postcode":"2000","telephone":"+216 71 249 149","country":"Tunisia","amenities":["air_and_water","bottled_gas","credit_card","credit_card_general","food_offerings","free_toilet","full_service","other_oil_change","others","pay_at_pump","service_bay","shell_card","standard_toilet","twenty_four_hour","manned"],"distance":156.88348524308998,"driving_distance":null,"driving_duration":null,"website_url":"https://find.shell.com/tn/fuel/10127440-menzel-temime/it_IT","mdm_site_category":"Conventional Fuel Site","formatted_address":"Avenue Hedi Chaker\nMenzel Temime, NABEUL, 2000","site_category":"conventional_fuel_site"},{"id":"10127373","name":"KORBA","lat":36.578367,"lng":10.834486,"brand":"Shell","inactive":false,"type":0,"country_code":"TN","address":"Route de Tunis PK 2 - Ben Aichoun","city":"Korba","state":"NABEUL","postcode":"8070","telephone":"+216 71 249 149","country":"Tunisia","amenities":["air_and_water","bottled_gas","credit_card","credit_card_general","food_offerings","free_toilet","full_service","other_oil_change","others","pay_at_pump","service_bay","shell_card","standard_toilet","twenty_four_hour","manned"],"distance":179.87170758804,"driving_distance":null,"driving_duration":null,"website_url":"https://find.shell.com/tn/fuel/10127373-korba/it_IT","mdm_site_category":"Conventional Fuel Site","formatted_address":"Route de Tunis PK 2 - Ben Aichoun\nKorba, NABEUL, 8070","site_category":"conventional_fuel_site"},{"id":"10127291","name":"DAR CHAABANE","lat":36.460861,"lng":10.760694,"brand":"Shell","inactive":false,"type":0,"country_code":"TN","address":"Route MC 27 PK 27 - Dar Chaabane El Fehri","city":"Dar Chaabane","state":"NABEUL","postcode":"1004","telephone":"+216 71 249 149","country":"Tunisia","amenities":["air_and_water","bottled_gas","credit_card","credit_card_general","food_offerings","free_toilet","full_service","other_oil_change","others","pay_at_pump","service_bay","shell_card","shop","standard_toilet","twenty_four_hour","wifi","manned"],"distance":192.92029531916,"driving_distance":null,"driving_duration":null,"website_url":"https://find.shell.com/tn/fuel/10127291-dar-chaabane/it_IT","mdm_site_category":"Conventional Fuel Site","formatted_address":"Route MC 27 PK 27 - Dar Chaabane El Fehri\nDar Chaabane, NABEUL, 1004","site_category":"conventional_fuel_site"},{"id":"10127298","name":"BENI KHALLED","lat":36.649444,"lng":10.593889,"brand":"Shell","inactive":false,"type":0,"country_code":"TN","address":"Route de Korba MC 44","city":"Beni Khalled","state":"NABEUL","postcode":"8021","telephone":"+216 71 249 149","country":"Tunisia","amenities":["air_and_water","bottled_gas","credit_card","credit_card_general","free_toilet","full_service","other_oil_change","pay_at_pump","service_bay","shell_card","standard_toilet","twenty_four_hour","manned"],"distance":193.7494690213,"driving_distance":null,"driving_duration":null,"website_url":"https://find.shell.com/tn/fuel/10127298-beni-khalled/it_IT","mdm_site_category":"Conventional Fuel Site","formatted_address":"Route de Korba MC 44\nBeni Khalled, NABEUL, 8021","site_category":"conventional_fuel_site"},{"id":"10127287","name":"NABEUL MC 27","lat":36.48175,"lng":10.702417,"brand":"Shell","inactive":false,"type":0,"country_code":"TN","address":"Avenue Habib Bourguiba","city":"Nabeul","state":"NABEUL","postcode":"8000","telephone":"+216 71 249 149","country":"Tunisia","amenities":["air_and_water","bottled_gas","credit_card","credit_card_general","free_toilet","full_service","other_oil_change","pay_at_pump","service_bay","shell_card","shop","standard_toilet","twenty_four_hour","manned"],"distance":195.71933440939,"driving_distance":null,"driving_duration":null,"website_url":"https://find.shell.com/tn/fuel/10127287-nabeul-mc-27/it_IT","mdm_site_category":"Conventional Fuel Site","formatted_address":"Avenue Habib Bourguiba\nNabeul, NABEUL, 8000","site_category":"conventional_fuel_site"},{"id":"10127446","name":"NABEUL MC 28","lat":36.442086,"lng":10.709392,"brand":"Shell","inactive":false,"type":0,"country_code":"TN","address":"Nabeul Mc 28 Route De Merazgua Nabeul 8000","city":"Nabeul","state":"NABEUL","postcode":"8000","telephone":"+216 71 249 149","country":"Tunisia","amenities":["air_and_water","bottled_gas","credit_card","credit_card_general","food_offerings","free_toilet","full_service","other_oil_change","others","pay_at_pump","service_bay","shell_card","standard_toilet","twenty_four_hour","manned"],"distance":197.83806558881,"driving_distance":null,"driving_duration":null,"website_url":"https://find.shell.com/tn/fuel/10127446-nabeul-mc-28/it_IT","mdm_site_category":"Conventional Fuel Site","formatted_address":"Nabeul Mc 28 Route De Merazgua Nabeul 8000\nNabeul, NABEUL, 8000","site_category":"conventional_fuel_site"},{"id":"10127399","name":"HAMMAMET","lat":36.405703,"lng":10.601611,"brand":"Shell","inactive":false,"type":0,"country_code":"TN","address":"Avenue des Nations Unies","city":"Hammamet","state":"NABEUL","postcode":"8050","telephone":"+216 71 249 149","country":"Tunisia","amenities":["air_and_water","bottled_gas","credit_card","credit_card_general","free_toilet","full_service","other_oil_change","pay_at_pump","shell_card","standard_toilet","twenty_four_hour","manned"],"distance":207.98811956269,"driving_distance":null,"driving_duration":null,"website_url":"https://find.shell.com/tn/fuel/10127399-hammamet/it_IT","mdm_site_category":"Conventional Fuel Site","formatted_address":"Avenue des Nations Unies\nHammamet, NABEUL, 8050","site_category":"conventional_fuel_site"},{"id":"10127412","name":"RELAIS DU GOLFE","lat":36.39545,"lng":10.553975,"brand":"Shell","inactive":false,"type":0,"country_code":"TN","address":"Relais Du Golfe - Route de Sousse GP 1","city":"Relais Du Golfe","state":"NABEUL","postcode":"8050","telephone":"+216 71 249 149","country":"Tunisia","amenities":["air_and_water","bottled_gas","credit_card","credit_card_general","free_toilet","full_service","other_oil_change","pay_at_pump","service_bay","shell_card","standard_toilet","twenty_four_hour","manned"],"distance":212.1027682685,"driving_distance":null,"driving_duration":null,"website_url":"https://find.shell.com/tn/fuel/10127412-relais-du-golfe/it_IT","mdm_site_category":"Conventional Fuel Site","formatted_address":"Relais Du Golfe - Route de Sousse GP 1\nRelais Du Golfe, NABEUL, 8050","site_category":"conventional_fuel_site"},{"id":"10127312","name":"KORBA II","lat":36.35355,"lng":10.52217,"brand":"Shell","inactive":false,"type":0,"country_code":"TN","address":"Route de Menzel Temime MC 27 KM 2","city":"Nabeul","state":"NABEUL","postcode":"8070","telephone":"+216 71 249 149","country":"Tunisia","amenities":["air_and_water","bottled_gas","credit_card","credit_card_general","food_offerings","free_toilet","full_service","other_oil_change","others","shell_card","shop","standard_toilet","twenty_four_hour","manned"],"distance":217.15415853223,"driving_distance":null,"driving_duration":null,"website_url":"https://find.shell.com/tn/fuel/10127312-korba-ii/it_IT","mdm_site_category":"Conventional Fuel Site","formatted_address":"Route de Menzel Temime MC 27 KM 2\nNabeul, NABEUL, 8070","site_category":"conventional_fuel_site"}],"clusters":[]}