{"locations":[{"id":"10127427","name":"TABARKA","lat":36.945147,"lng":8.795386,"brand":"Shell","inactive":false,"type":0,"country_code":"TN","address":"Route de Tunis","city":"Tabarka","state":"JENDOUBA","postcode":"8110","telephone":"+216 71 249 149","country":"Tunisia","amenities":["air_and_water","carwash","credit_card","credit_card_general","fleet_card_general","free_toilet","full_service","jet","other_oil_change","parking_lanes","pay_at_pump","quick_lubes","service_bay","shell_card","standard_toilet","twenty_four_hour","type_of_parking","manned"],"distance":67.01161794404,"driving_distance":null,"driving_duration":null,"website_url":"https://find.shell.com/tn/fuel/10127427-tabarka/it_IT","mdm_site_category":"Conventional Fuel Site","formatted_address":"Route de Tunis\nTabarka, JENDOUBA, 8110","site_category":"conventional_fuel_site"},{"id":"10127454","name":"ZAHRET MEDIEN","lat":36.775147,"lng":9.095119,"brand":"Shell","inactive":false,"type":0,"country_code":"TN","address":"Zahret Medien","city":"Zahret Medien","state":"BEJA","postcode":"9030","telephone":"+216 71 249 149","country":"Tunisia","amenities":["air_and_water","bottled_gas","carwash","fleet_card_general","free_toilet","full_service","jet","other_oil_change","parking_lanes","pay_at_pump","phone_shop","service_bay","shell_card","standard_toilet","twenty_four_hour","type_of_parking","manned"],"distance":96.32851287077001,"driving_distance":null,"driving_duration":null,"website_url":"https://find.shell.com/tn/fuel/10127454-zahret-medien/it_IT","mdm_site_category":"Conventional Fuel Site","formatted_address":"Zahret Medien\nZahret Medien, BEJA, 9030","site_category":"conventional_fuel_site"},{"id":"10127364","name":"GHEZALA","lat":37.084303,"lng":9.535731,"brand":"Shell","inactive":false,"type":0,"country_code":"TN","address":"Route GP7 PK 75","city":"Ghezala","state":"BIZERTE","postcode":"7022","telephone":"+216 71 249 149","country":"Tunisia","amenities":["air_and_water","bottled_gas","carwash","credit_card","credit_card_general","fleet_card_general","free_toilet","full_service","jet","other_oil_change","parking_lanes","pay_at_pump","quick_lubes","service_bay","shell_card","standard_toilet","twenty_four_hour","type_of_parking","manned"],"distance":102.62144617087999,"driving_distance":null,"driving_duration":null,"website_url":"https://find.shell.com/tn/fuel/10127364-ghezala/it_IT","mdm_site_category":"Conventional Fuel Site","formatted_address":"Route GP7 PK 75\nGhezala, BIZERTE, 7022","site_category":"conventional_fuel_site"},{"id":"10127288","name":"BEJA VILLE","lat":36.725706,"lng":9.188461,"brand":"Shell","inactive":false,"type":0,"country_code":"TN","address":"Avenue Habib Thameur","city":"Beja Ville","state":"BEJA","postcode":"9000","telephone":"+216 71 249 149","country":"Tunisia","amenities":["air_and_water","bottled_gas","cafe","carwash","credit_card","credit_card_general","fleet_card_general","food_offerings","free_toilet","full_service","jet","other_oil_change","parking_lanes","pay_at_pump","quick_lubes","service_bay","shell_card","shop","standard_toilet","twenty_four_hour","type_of_parking","manned"],"distance":105.54351296962,"driving_distance":null,"driving_duration":null,"website_url":"https://find.shell.com/tn/fuel/10127288-beja-ville/it_IT","mdm_site_category":"Conventional Fuel Site","formatted_address":"Avenue Habib Thameur\nBeja Ville, BEJA, 9000","site_category":"conventional_fuel_site"},{"id":"10127278","name":"BEJA III","lat":36.727511,"lng":9.197772,"brand":"Shell","inactive":false,"type":0,"country_code":"TN","address":"Route De Tunis GP 6","city":"Beja","state":"BEJA","postcode":"9000","telephone":"+216 71 249 149","country":"Tunisia","amenities":["air_and_water","cafe","carwash","credit_card","credit_card_general","fleet_card_general","food_offerings","free_toilet","full_service","jet","other_oil_change","others","parking_lanes","pay_at_pump","pizza","quick_lubes","restaurant","sandwich","service_bay","shell_card","shop","standard_toilet","twenty_four_hour","type_of_parking","manned"],"distance":105.85983020024,"driving_distance":null,"driving_duration":null,"website_url":"https://find.shell.com/tn/fuel/10127278-beja-iii/it_IT","mdm_site_category":"Conventional Fuel Site","formatted_address":"Route De Tunis GP 6\nBeja, BEJA, 9000","site_category":"conventional_fuel_site"},{"id":"10127300","name":"BOUSALEM","lat":36.605417,"lng":8.969542,"brand":"Shell","inactive":false,"type":0,"country_code":"TN","address":"Rue de Jendouba","city":"Bousalem","state":"JENDOUBA","postcode":"9030","telephone":"+216 71 249 149","country":"Tunisia","amenities":["air_and_water","bottled_gas","cafe","carwash","credit_card","credit_card_general","fleet_card_general","food_offerings","free_toilet","full_service","jet","other_oil_change","parking_lanes","pay_at_pump","quick_lubes","service_bay","shell_card","standard_toilet","twenty_four_hour","type_of_parking","manned"],"distance":107.84749968041,"driving_distance":null,"driving_duration":null,"website_url":"https://find.shell.com/tn/fuel/10127300-bousalem/it_IT","mdm_site_category":"Conventional Fuel Site","formatted_address":"Rue de Jendouba\nBousalem, JENDOUBA, 9030","site_category":"conventional_fuel_site"},{"id":"10127357","name":"JENDOUBA","lat":36.497244,"lng":8.777144,"brand":"Shell","inactive":false,"type":0,"country_code":"TN","address":"Place du 2 Mars 1934","city":"Jendouba","state":"JENDOUBA","postcode":"9030","telephone":"+216 71 249 149","country":"Tunisia","amenities":["air_and_water","bottled_gas","cafe","carwash","credit_card","credit_card_general","fleet_card_general","food_offerings","free_toilet","full_service","jet","other_oil_change","parking_lanes","pay_at_pump","service_bay","shell_card","standard_toilet","twenty_four_hour","type_of_parking","manned"],"distance":114.18538446415,"driving_distance":null,"driving_duration":null,"website_url":"https://find.shell.com/tn/fuel/10127357-jendouba/it_IT","mdm_site_category":"Conventional Fuel Site","formatted_address":"Place du 2 Mars 1934\nJendouba, JENDOUBA, 9030","site_category":"conventional_fuel_site"},{"id":"10127350","name":"MATEUR SUD","lat":37.036108,"lng":9.661428,"brand":"Shell","inactive":false,"type":0,"country_code":"TN","address":"Route de Joumine","city":"mateur","state":"BIZERTE","postcode":"7030","telephone":"+216 71 249 149","country":"Tunisia","amenities":["air_and_water","bottled_gas","credit_card","credit_card_general","fleet_card_general","free_toilet","full_service","other_oil_change","pay_at_pump","quick_lubes","service_bay","shell_card","shop","standard_toilet","twenty_four_hour","manned"],"distance":114.99211589484,"driving_distance":null,"driving_duration":null,"website_url":"https://find.shell.com/tn/fuel/10127350-mateur-sud/it_IT","mdm_site_category":"Conventional Fuel Site","formatted_address":"Route de Joumine\nmateur, BIZERTE, 7030","site_category":"conventional_fuel_site"},{"id":"10127448","name":"MATEUR CENTRE","lat":37.037897,"lng":9.670944,"brand":"Shell","inactive":false,"type":0,"country_code":"TN","address":"Avenue Habib Bourguiba","city":"Mateur Sud","state":"BIZERTE","postcode":"7030","telephone":"+216 71 249 149","country":"Tunisia","amenities":["air_and_water","bottled_gas","credit_card","credit_card_general","fleet_card_general","free_toilet","full_service","other_oil_change","pay_at_pump","shell_card","shop","standard_toilet","twenty_four_hour","manned"],"distance":115.65569819158,"driving_distance":null,"driving_duration":null,"website_url":"https://find.shell.com/tn/fuel/10127448-mateur-centre/it_IT","mdm_site_category":"Conventional Fuel Site","formatted_address":"Avenue Habib Bourguiba\nMateur Sud, BIZERTE, 7030","site_category":"conventional_fuel_site"},{"id":"10127355","name":"GHARDIMAOU","lat":36.451192,"lng":8.441564,"brand":"Shell","inactive":false,"type":0,"country_code":"TN","address":"Route GP 6","city":"Jendouba","state":"JENDOUBA","postcode":"8160","telephone":"+216 71 249 149","country":"Tunisia","amenities":["air_and_water","bottled_gas","carwash","fleet_card_general","free_toilet","full_service","jet","other_oil_change","parking_lanes","pay_at_pump","service_bay","shell_card","standard_toilet","twenty_four_hour","type_of_parking","manned"],"distance":116.73775375421,"driving_distance":null,"driving_duration":null,"website_url":"https://find.shell.com/tn/fuel/10127355-ghardimaou/it_IT","mdm_site_category":"Conventional Fuel Site","formatted_address":"Route GP 6\nJendouba, JENDOUBA, 8160","site_category":"conventional_fuel_site"},{"id":"10127465","name":"TINJA","lat":37.167953,"lng":9.758939,"brand":"Shell","inactive":false,"type":0,"country_code":"TN","address":"Route GP 11","city":"Tinja","state":"BIZERTE","postcode":"7032","telephone":"+216 71 249 149","country":"Tunisia","amenities":["air_and_water","bottled_gas","carwash","credit_card","credit_card_general","fleet_card_general","free_toilet","full_service","jet","other_oil_change","parking_lanes","pay_at_pump","quick_lubes","service_bay","shell_card","standard_toilet","twenty_four_hour","type_of_parking","manned"],"distance":117.26910111382999,"driving_distance":null,"driving_duration":null,"website_url":"https://find.shell.com/tn/fuel/10127465-tinja/it_IT","mdm_site_category":"Conventional Fuel Site","formatted_address":"Route GP 11\nTinja, BIZERTE, 7032","site_category":"conventional_fuel_site"},{"id":"10127396","name":"MENZEL BOURGUIBA","lat":37.153603,"lng":9.793719,"brand":"Shell","inactive":false,"type":0,"country_code":"TN","address":"190 Avenue Mongi Slim","city":"Menzel Bourguiba","state":"BIZERTE","postcode":"7050","telephone":"+216 71 249 149","country":"Tunisia","amenities":["air_and_water","bottled_gas","carwash","credit_card","credit_card_general","fleet_card_general","free_toilet","full_service","jet","other_oil_change","pay_at_pump","quick_lubes","service_bay","shell_card","standard_toilet","twenty_four_hour","manned"],"distance":120.70157193046,"driving_distance":null,"driving_duration":null,"website_url":"https://find.shell.com/tn/fuel/10127396-menzel-bourguiba/it_IT","mdm_site_category":"Conventional Fuel Site","formatted_address":"190 Avenue Mongi Slim\nMenzel Bourguiba, BIZERTE, 7050","site_category":"conventional_fuel_site"},{"id":"10127264","name":"BIZERTE GP11","lat":37.264075,"lng":9.845428,"brand":"Shell","inactive":false,"type":0,"country_code":"TN","address":"Route Menzel Bourguiba GP 11","city":"Bizerte","state":"BIZERTE","postcode":"7000","telephone":"+216 71 249 149","country":"Tunisia","amenities":["air_and_water","bottled_gas","cafe","carwash","credit_card","credit_card_general","fleet_card_general","food_offerings","free_toilet","full_service","jet","other_oil_change","parking_lanes","pay_at_pump","quick_lubes","service_bay","shell_card","shop","standard_toilet","twenty_four_hour","type_of_parking","manned"],"distance":121.73586338834001,"driving_distance":null,"driving_duration":null,"website_url":"https://find.shell.com/tn/fuel/10127264-bizerte-gp11/it_IT","mdm_site_category":"Conventional Fuel Site","formatted_address":"Route Menzel Bourguiba GP 11\nBizerte, BIZERTE, 7000","site_category":"conventional_fuel_site"},{"id":"10127255","name":"BIZERTE","lat":37.2701,"lng":9.873206,"brand":"Shell","inactive":false,"type":0,"country_code":"TN","address":"Rue du 1er Janvier","city":"Bizerte","state":"BIZERTE","postcode":"7000","telephone":"+216 71 249 149","country":"Tunisia","amenities":["air_and_water","bottled_gas","carwash","credit_card","credit_card_general","fleet_card_general","free_toilet","full_service","jet","other_oil_change","pay_at_pump","quick_lubes","service_bay","shell_card","twenty_four_hour","manned"],"distance":123.98900197242,"driving_distance":null,"driving_duration":null,"website_url":"https://find.shell.com/tn/fuel/10127255-bizerte/it_IT","mdm_site_category":"Conventional Fuel Site","formatted_address":"Rue du 1er Janvier\nBizerte, BIZERTE, 7000","site_category":"conventional_fuel_site"},{"id":"10127422","name":"RIMEL","lat":37.254139,"lng":9.904667,"brand":"Shell","inactive":false,"type":0,"country_code":"TN","address":"Route GP 8 - Menzel Jemil","city":"Menzel Jemil","state":"BIZERTE","postcode":"7080","telephone":"+216 71 249 149","country":"Tunisia","amenities":["air_and_water","bottled_gas","cafe","carwash","credit_card","credit_card_general","fleet_card_general","food_offerings","free_toilet","full_service","helix_oil_change","jet","other_oil_change","pay_at_pump","quick_lubes","service_bay","shell_card","shop","standard_toilet","twenty_four_hour","manned"],"distance":127.09297752173,"driving_distance":null,"driving_duration":null,"website_url":"https://find.shell.com/tn/fuel/10127422-rimel/it_IT","mdm_site_category":"Conventional Fuel Site","formatted_address":"Route GP 8 - Menzel Jemil\nMenzel Jemil, BIZERTE, 7080","site_category":"conventional_fuel_site"},{"id":"10127417","name":"MENZEL JEMIL","lat":37.227369,"lng":9.924822,"brand":"Shell","inactive":false,"type":0,"country_code":"TN","address":"Route de Bizerte","city":"Menzel Jemil","state":"BIZERTE","postcode":"7080","telephone":"+216 71 249 149","country":"Tunisia","amenities":["air_and_water","bottled_gas","cafe","carwash","credit_card","credit_card_general","fleet_card_general","food_offerings","free_toilet","full_service","jet","other_oil_change","pay_at_pump","quick_lubes","service_bay","shell_card","shop","standard_toilet","twenty_four_hour","manned"],"distance":129.51885735135,"driving_distance":null,"driving_duration":null,"website_url":"https://find.shell.com/tn/fuel/10127417-menzel-jemil/it_IT","mdm_site_category":"Conventional Fuel Site","formatted_address":"Route de Bizerte\nMenzel Jemil, BIZERTE, 7080","site_category":"conventional_fuel_site"},{"id":"10127459","name":"TEBOURSOUK","lat":36.453428,"lng":9.250022,"brand":"Shell","inactive":false,"type":0,"country_code":"TN","address":"Route du Kef","city":"Teboursouk","state":"BEJA","postcode":"9040","telephone":"+216 71 249 149","country":"Tunisia","amenities":["air_and_water","bottled_gas","carwash","credit_card","credit_card_general","free_toilet","full_service","jet","other_oil_change","pay_at_pump","service_bay","shell_card","standard_toilet","twenty_four_hour","manned"],"distance":134.09490102732002,"driving_distance":null,"driving_duration":null,"website_url":"https://find.shell.com/tn/fuel/10127459-teboursouk/it_IT","mdm_site_category":"Conventional Fuel Site","formatted_address":"Route du Kef\nTeboursouk, BEJA, 9040","site_category":"conventional_fuel_site"},{"id":"10127463","name":"TESTOUR","lat":36.552,"lng":9.442239,"brand":"Shell","inactive":false,"type":0,"country_code":"TN","address":"Route GP 5","city":"Testour","state":"BEJA","postcode":"9060","telephone":"+216 71 249 149","country":"Tunisia","amenities":["air_and_water","bottled_gas","cafe","carwash","credit_card","credit_card_general","fleet_card_general","food_offerings","free_toilet","full_service","jet","other_oil_change","pay_at_pump","quick_lubes","selectshop","service_bay","shell_card","standard_toilet","twenty_four_hour","manned"],"distance":134.56633919991,"driving_distance":null,"driving_duration":null,"website_url":"https://find.shell.com/tn/fuel/10127463-testour/it_IT","mdm_site_category":"Conventional Fuel Site","formatted_address":"Route GP 5\nTestour, BEJA, 9060","site_category":"conventional_fuel_site"},{"id":"10127384","name":"MEDJEZ EL BAB","lat":36.649894,"lng":9.61,"brand":"Shell","inactive":false,"type":0,"country_code":"TN","address":"Avenue Habib Bourguiba","city":"mejez ek bab","state":"BEJA","postcode":"9070","telephone":"+216 71 249 149","country":"Tunisia","amenities":["air_and_water","credit_card","credit_card_general","fleet_card_general","free_toilet","full_service","other_oil_change","pay_at_pump","quick_lubes","service_bay","shell_card","shop","standard_toilet","twenty_four_hour","manned"],"distance":136.50022997730002,"driving_distance":null,"driving_duration":null,"website_url":"https://find.shell.com/tn/fuel/10127384-medjez-el-bab/it_IT","mdm_site_category":"Conventional Fuel Site","formatted_address":"Avenue Habib Bourguiba\nmejez ek bab, BEJA, 9070","site_category":"conventional_fuel_site"},{"id":"10127453","name":"TEBOURBA","lat":36.825231,"lng":9.842958,"brand":"Shell","inactive":false,"type":0,"country_code":"TN","address":"Avenue Habib Bourguiba","city":"Tebourba","state":"MANOUBA","postcode":"2121","telephone":"+216 71 249 149","country":"Tunisia","amenities":["air_and_water","bottled_gas","carwash","credit_card","credit_card_general","fleet_card_general","free_toilet","full_service","jet","other_oil_change","parking_lanes","pay_at_pump","quick_lubes","service_bay","shell_card","standard_toilet","twenty_four_hour","type_of_parking","manned"],"distance":140.68100896514,"driving_distance":null,"driving_duration":null,"website_url":"https://find.shell.com/tn/fuel/10127453-tebourba/it_IT","mdm_site_category":"Conventional Fuel Site","formatted_address":"Avenue Habib Bourguiba\nTebourba, MANOUBA, 2121","site_category":"conventional_fuel_site"},{"id":"10127391","name":"RAS JEBEL","lat":37.220483,"lng":10.115547,"brand":"Shell","inactive":false,"type":0,"country_code":"TN","address":"Route de Metline","city":"Ras Jebel","state":"BIZERTE","postcode":"7070","telephone":"+216 71 249 149","country":"Tunisia","amenities":["air_and_water","bottled_gas","credit_card","credit_card_general","fleet_card_general","free_toilet","full_service","other_oil_change","pay_at_pump","quick_lubes","service_bay","shell_card","standard_toilet","twenty_four_hour","manned"],"distance":146.12657565615,"driving_distance":null,"driving_duration":null,"website_url":"https://find.shell.com/tn/fuel/10127391-ras-jebel/it_IT","mdm_site_category":"Conventional Fuel Site","formatted_address":"Route de Metline\nRas Jebel, BIZERTE, 7070","site_category":"conventional_fuel_site"},{"id":"10127426","name":"LE KEF I","lat":36.178731,"lng":8.716714,"brand":"Shell","inactive":false,"type":0,"country_code":"TN","address":"Avenue Habib Bourguiba","city":"Le Kef","state":"LE KEF","postcode":"7100","telephone":"+216 71 249 149","country":"Tunisia","amenities":["air_and_water","carwash","credit_card","credit_card_general","fleet_card_general","free_toilet","full_service","jet","other_oil_change","pay_at_pump","quick_lubes","service_bay","shell_card","standard_toilet","twenty_four_hour","manned"],"distance":148.17885592140001,"driving_distance":null,"driving_duration":null,"website_url":"https://find.shell.com/tn/fuel/10127426-le-kef-i/it_IT","mdm_site_category":"Conventional Fuel Site","formatted_address":"Avenue Habib Bourguiba\nLe Kef, LE KEF, 7100","site_category":"conventional_fuel_site"},{"id":"10127352","name":"LE KEF II","lat":36.166675,"lng":8.700803,"brand":"Shell","inactive":false,"type":0,"country_code":"TN","address":"Cité Jardin","city":"Le Kef","state":"LE KEF","postcode":"7100","telephone":"+216 71 249 149","country":"Tunisia","amenities":["air_and_water","cafe","carwash","credit_card","credit_card_general","fleet_card_general","food_offerings","free_toilet","full_service","jet","other_oil_change","parking_lanes","pay_at_pump","quick_lubes","service_bay","shell_card","shop","standard_toilet","twenty_four_hour","type_of_parking","manned"],"distance":149.3322637032,"driving_distance":null,"driving_duration":null,"website_url":"https://find.shell.com/tn/fuel/10127352-le-kef-ii/it_IT","mdm_site_category":"Conventional Fuel Site","formatted_address":"Cité Jardin\nLe Kef, LE KEF, 7100","site_category":"conventional_fuel_site"},{"id":"10127408","name":"LAAROUSSA","lat":36.380097,"lng":9.455825,"brand":"Shell","inactive":false,"type":0,"country_code":"TN","address":"Route de Bouarada MC 47","city":"Siliana","state":"SILIANA","postcode":"6116","telephone":"+216 71 249 149","country":"Tunisia","amenities":["air_and_water","bottled_gas","carwash","credit_card","credit_card_general","fleet_card_general","free_toilet","full_service","jet","other_oil_change","parking_lanes","pay_at_pump","service_bay","shell_card","standard_toilet","twenty_four_hour","type_of_parking","manned"],"distance":150.74044166486001,"driving_distance":null,"driving_duration":null,"website_url":"https://find.shell.com/tn/fuel/10127408-laaroussa/it_IT","mdm_site_category":"Conventional Fuel Site","formatted_address":"Route de Bouarada MC 47\nSiliana, SILIANA, 6116","site_category":"conventional_fuel_site"},{"id":"10127296","name":"BEJAOUA","lat":36.833919,"lng":9.985972,"brand":"Shell","inactive":false,"type":0,"country_code":"TN","address":"Route de Mateur Km 14,5","city":"Bejaoua","state":"MANOUBA","postcode":"9115","telephone":"+216 71 249 149","country":"Tunisia","amenities":["air_and_water","bottled_gas","carwash","credit_card","credit_card_general","fleet_card_general","free_toilet","full_service","jet","other_oil_change","pay_at_pump","quick_lubes","service_bay","shell_card","standard_toilet","twenty_four_hour","manned"],"distance":151.06896036781998,"driving_distance":null,"driving_duration":null,"website_url":"https://find.shell.com/tn/fuel/10127296-bejaoua/it_IT","mdm_site_category":"Conventional Fuel Site","formatted_address":"Route de Mateur Km 14,5\nBejaoua, MANOUBA, 9115","site_category":"conventional_fuel_site"},{"id":"10127418","name":"LAKHOUET","lat":36.258431,"lng":9.256119,"brand":"Shell","inactive":false,"type":0,"country_code":"TN","address":"Route MC 73 - Route de Gaafour","city":"Lakhouet","state":"SILIANA","postcode":null,"telephone":"+216 71 249 149","country":"Tunisia","amenities":["air_and_water","carwash","free_toilet","full_service","jet","other_oil_change","parking_lanes","pay_at_pump","service_bay","shell_card","standard_toilet","twenty_four_hour","type_of_parking","manned"],"distance":153.56447619313,"driving_distance":null,"driving_duration":null,"website_url":"https://find.shell.com/tn/fuel/10127418-lakhouet/it_IT","mdm_site_category":"Conventional Fuel Site","formatted_address":"Route MC 73 - Route de Gaafour\nLakhouet, SILIANA","site_category":"conventional_fuel_site"},{"id":"10127356","name":"OUED ELLIL","lat":36.832069,"lng":10.04085,"brand":"Shell","inactive":false,"type":0,"country_code":"TN","address":"Route De Mateur - Route GP 7","city":"Oued Ellil","state":"MANOUBA","postcode":"2121","telephone":"+216 71 249 149","country":"Tunisia","amenities":["air_and_water","bottled_gas","credit_card","credit_card_general","fleet_card_general","free_toilet","full_service","other_oil_change","pay_at_pump","shell_card","twenty_four_hour","manned"],"distance":155.42487427831,"driving_distance":null,"driving_duration":null,"website_url":"https://find.shell.com/tn/fuel/10127356-oued-ellil/it_IT","mdm_site_category":"Conventional Fuel Site","formatted_address":"Route De Mateur - Route GP 7\nOued Ellil, MANOUBA, 2121","site_category":"conventional_fuel_site"},{"id":"10127439","name":"MANOUBA","lat":36.820917,"lng":10.078861,"brand":"Shell","inactive":false,"type":0,"country_code":"TN","address":"Route De Mateur Km 7","city":"Manouba","state":"MANOUBA","postcode":"2080","telephone":"+216 71 249 149","country":"Tunisia","amenities":["air_and_water","bottled_gas","cafe","carwash","credit_card","credit_card_general","fleet_card_general","food_offerings","free_toilet","full_service","jet","other_oil_change","parking_lanes","pay_at_pump","quick_lubes","service_bay","shell_card","shop","standard_toilet","twenty_four_hour","type_of_parking","manned"],"distance":158.98588038213,"driving_distance":null,"driving_duration":null,"website_url":"https://find.shell.com/tn/fuel/10127439-manouba/it_IT","mdm_site_category":"Conventional Fuel Site","formatted_address":"Route De Mateur Km 7\nManouba, MANOUBA, 2080","site_category":"conventional_fuel_site"},{"id":"10127268","name":"RAOUED","lat":36.942377,"lng":10.176104,"brand":"Shell","inactive":false,"type":0,"country_code":"TN","address":"Avenue de la Terre","city":"Station Raoued","state":"ARIANA","postcode":"2056","telephone":"+216 71 249 149","country":"Tunisia","amenities":["air_and_water","bottled_gas","cafe","carwash","credit_card","credit_card_general","fleet_card_general","food_offerings","free_toilet","full_service","jet","other_oil_change","parking_lanes","pay_at_pump","quick_lubes","service_bay","shell_card","shop","standard_toilet","twenty_four_hour","type_of_parking","tyre_centre","wifi","manned"],"distance":160.83981506836,"driving_distance":null,"driving_duration":null,"website_url":"https://find.shell.com/tn/fuel/10127268-raoued/it_IT","mdm_site_category":"Conventional Fuel Site","formatted_address":"Avenue de la Terre\nStation Raoued, ARIANA, 2056","site_category":"conventional_fuel_site"},{"id":"10127378","name":"MNIHLA","lat":36.837381,"lng":10.116764,"brand":"Shell","inactive":false,"type":0,"country_code":"TN","address":"Route MC 31","city":"Mnihla","state":"ARIANA","postcode":"2094","telephone":"+216 71 249 149","country":"Tunisia","amenities":["air_and_water","carwash","credit_card","credit_card_general","fleet_card_general","free_toilet","full_service","jet","other_oil_change","pay_at_pump","quick_lubes","service_bay","shell_card","shop","standard_toilet","twenty_four_hour","tyre_centre","manned"],"distance":161.09016772237,"driving_distance":null,"driving_duration":null,"website_url":"https://find.shell.com/tn/fuel/10127378-mnihla/it_IT","mdm_site_category":"Conventional Fuel Site","formatted_address":"Route MC 31\nMnihla, ARIANA, 2094","site_category":"conventional_fuel_site"},{"id":"10129112","name":"DENDEN II","lat":36.787528,"lng":10.083528,"brand":"Shell","inactive":false,"type":0,"country_code":"TN","address":"avenue Houcine Day el Agba 2027 ","city":"EL HRAIRIA","state":"MANOUBA","postcode":"2027","telephone":"+216 71 249 149","country":"Tunisia","amenities":["bottled_gas","cafe","carwash","credit_card","credit_card_general","fleet_card_general","food_offerings","other_oil_change","parking_lanes","quick_lubes","selectshop","shell_card","standard_toilet","type_of_parking","manned"],"distance":161.16921278312,"driving_distance":null,"driving_duration":null,"website_url":"https://find.shell.com/tn/fuel/10129112-denden-ii/it_IT","mdm_site_category":"Conventional Fuel Site","formatted_address":"avenue Houcine Day el Agba 2027 \nEL HRAIRIA, MANOUBA, 2027","site_category":"conventional_fuel_site"},{"id":"10127452","name":"SORTIE OUEST II","lat":36.774389,"lng":10.078156,"brand":"Shell","inactive":false,"type":0,"country_code":"TN","address":"Route GP 5","city":"Sejoumi","state":"TUNIS","postcode":"2052","telephone":"+216 71 249 149","country":"Tunisia","amenities":["air_and_water","bottled_gas","burger","cafe","carwash","credit_card","credit_card_general","fleet_card_general","food_offerings","free_toilet","full_service","jet","other_oil_change","others","parking_lanes","pay_at_pump","pizza","quick_lubes","restaurant","sandwich","selectshop","service_bay","shell_card","standard_toilet","twenty_four_hour","type_of_parking","manned"],"distance":161.49020529846,"driving_distance":null,"driving_duration":null,"website_url":"https://find.shell.com/tn/fuel/10127452-sortie-ouest-ii/it_IT","mdm_site_category":"Conventional Fuel Site","formatted_address":"Route GP 5\nSejoumi, TUNIS, 2052","site_category":"conventional_fuel_site"},{"id":"10127409","name":"JARDIN EL MENZAH","lat":36.848556,"lng":10.131056,"brand":"Shell","inactive":false,"type":0,"country_code":"TN","address":"Route X3","city":"Ennasr","state":"ARIANA","postcode":"2080","telephone":"+216 71 249 149","country":"Tunisia","amenities":["air_and_water","bottled_gas","carwash","credit_card","credit_card_general","fleet_card_general","food_offerings","free_toilet","full_service","jet","other_oil_change","others","pay_at_pump","pizza","quick_lubes","service_bay","shell_card","shop","standard_toilet","twenty_four_hour","tyre_centre","manned"],"distance":161.64719203822,"driving_distance":null,"driving_duration":null,"website_url":"https://find.shell.com/tn/fuel/10127409-jardin-el-menzah/it_IT","mdm_site_category":"Conventional Fuel Site","formatted_address":"Route X3\nEnnasr, ARIANA, 2080","site_category":"conventional_fuel_site"},{"id":"10127274","name":"BOUARADA","lat":36.351111,"lng":9.623131,"brand":"Shell","inactive":false,"type":0,"country_code":"TN","address":"Avenue Habib Bourguiba","city":"Bouarada","state":"SILIANA","postcode":"6180","telephone":"+216 71 249 149","country":"Tunisia","amenities":["air_and_water","bottled_gas","carwash","credit_card","credit_card_general","fleet_card_general","free_toilet","full_service","jet","other_oil_change","pay_at_pump","service_bay","shell_card","standard_toilet","twenty_four_hour","manned"],"distance":162.13135036636,"driving_distance":null,"driving_duration":null,"website_url":"https://find.shell.com/tn/fuel/10127274-bouarada/it_IT","mdm_site_category":"Conventional Fuel Site","formatted_address":"Avenue Habib Bourguiba\nBouarada, SILIANA, 6180","site_category":"conventional_fuel_site"},{"id":"10127302","name":"DENDEN","lat":36.797303,"lng":10.102942,"brand":"Shell","inactive":false,"type":0,"country_code":"TN","address":"Route du Kef Km 5","city":"Denden","state":"MANOUBA","postcode":"2011","telephone":"+216 71 249 149","country":"Tunisia","amenities":["air_and_water","bottled_gas","cafe","carwash","credit_card","credit_card_general","fleet_card_general","food_offerings","free_toilet","full_service","jet","other_oil_change","parking_lanes","pay_at_pump","quick_lubes","selectshop","service_bay","shell_card","standard_toilet","twenty_four_hour","type_of_parking","manned"],"distance":162.13530710997,"driving_distance":null,"driving_duration":null,"website_url":"https://find.shell.com/tn/fuel/10127302-denden/it_IT","mdm_site_category":"Conventional Fuel Site","formatted_address":"Route du Kef Km 5\nDenden, MANOUBA, 2011","site_category":"conventional_fuel_site"},{"id":"10127387","name":"KSAR SAID","lat":36.812736,"lng":10.115628,"brand":"Shell","inactive":false,"type":0,"country_code":"TN","address":"Route de Oued Ellil GP 7  PK 2","city":"Ksar Said","state":"MANOUBA","postcode":"2037","telephone":"+216 71 249 149","country":"Tunisia","amenities":["air_and_water","bottled_gas","cafe","carwash","credit_card","credit_card_general","fleet_card_general","food_offerings","free_toilet","full_service","jet","other_oil_change","pay_at_pump","quick_lubes","service_bay","shell_card","shop","standard_toilet","twenty_four_hour","manned"],"distance":162.29351922944,"driving_distance":null,"driving_duration":null,"website_url":"https://find.shell.com/tn/fuel/10127387-ksar-said/it_IT","mdm_site_category":"Conventional Fuel Site","formatted_address":"Route de Oued Ellil GP 7  PK 2\nKsar Said, MANOUBA, 2037","site_category":"conventional_fuel_site"},{"id":"10127359","name":"ENTREE OUEST 2","lat":36.776167,"lng":10.090028,"brand":"Shell","inactive":false,"type":0,"country_code":"TN","address":"Route entrée ouest ,cité ettayarane ","city":"TUNIS","state":"TUNIS","postcode":"2052","telephone":"+216 71 249 149","country":"Tunisia","amenities":["air_and_water","bottled_gas","cafe","carwash","credit_card","credit_card_general","fleet_card_general","food_offerings","free_toilet","full_service","jet","other_oil_change","parking_lanes","pay_at_pump","quick_lubes","selectshop","service_bay","shell_card","standard_toilet","twenty_four_hour","type_of_parking","manned"],"distance":162.30306417175998,"driving_distance":null,"driving_duration":null,"website_url":"https://find.shell.com/tn/fuel/10127359-entree-ouest-2/it_IT","mdm_site_category":"Conventional Fuel Site","formatted_address":"Route entrée ouest ,cité ettayarane \nTUNIS, TUNIS, 2052","site_category":"conventional_fuel_site"},{"id":"10127299","name":"JAYARA","lat":36.776167,"lng":10.090028,"brand":"Shell","inactive":false,"type":0,"country_code":"TN","address":"Route de Mjez El Beb Km5 Borj Chakir","city":"Tunis","state":"TUNIS","postcode":"1095","telephone":"+216 71 249 149","country":"Tunisia","amenities":["air_and_water","bottled_gas","burger","cafe","carwash","credit_card","credit_card_general","fleet_card_general","food_offerings","free_toilet","full_service","jet","other_oil_change","others","parking_lanes","pay_at_pump","pizza","quick_lubes","restaurant","sandwich","selectshop","service_bay","shell_card","standard_toilet","twenty_four_hour","type_of_parking","manned"],"distance":162.30306417175998,"driving_distance":null,"driving_duration":null,"website_url":"https://find.shell.com/tn/fuel/10127299-jayara/it_IT","mdm_site_category":"Conventional Fuel Site","formatted_address":"Route de Mjez El Beb Km5 Borj Chakir\nTunis, TUNIS, 1095","site_category":"conventional_fuel_site"},{"id":"10127430","name":"Rte X BARDO","lat":36.819303,"lng":10.130025,"brand":"Shell","inactive":false,"type":0,"country_code":"TN","address":"Boulevard Mohamed Bouazizi- Route X","city":"Bardo","state":"TUNIS","postcode":"2037","telephone":"+216 71 249 149","country":"Tunisia","amenities":["air_and_water","atm","atm_out","bottled_gas","cafe","carwash","credit_card","credit_card_general","fleet_card_general","food_offerings","free_toilet","full_service","jet","other_oil_change","others","parking_lanes","pay_at_pump","quick_lubes","selectshop","service_bay","shell_card","standard_toilet","twenty_four_hour","type_of_parking","tyre_centre","manned"],"distance":163.07443175624,"driving_distance":null,"driving_duration":null,"website_url":"https://find.shell.com/tn/fuel/10127430-rte-x-bardo/it_IT","mdm_site_category":"Conventional Fuel Site","formatted_address":"Boulevard Mohamed Bouazizi- Route X\nBardo, TUNIS, 2037","site_category":"conventional_fuel_site"},{"id":"10127347","name":"ENNASR","lat":36.852294,"lng":10.152828,"brand":"Shell","inactive":false,"type":0,"country_code":"TN","address":"Route du 1er Septembre","city":"Ennasr","state":"ARIANA","postcode":"2080","telephone":"+216 71 249 149","country":"Tunisia","amenities":["air_and_water","bottled_gas","cafe","carwash","credit_card","credit_card_general","fleet_card_general","food_offerings","free_toilet","full_service","jet","other_oil_change","parking_lanes","pay_at_pump","quick_lubes","service_bay","shell_card","shop","standard_toilet","twenty_four_hour","type_of_parking","tyre_centre","manned"],"distance":163.18677506096998,"driving_distance":null,"driving_duration":null,"website_url":"https://find.shell.com/tn/fuel/10127347-ennasr/it_IT","mdm_site_category":"Conventional Fuel Site","formatted_address":"Route du 1er Septembre\nEnnasr, ARIANA, 2080","site_category":"conventional_fuel_site"},{"id":"10127331","name":"EL HADIKA","lat":36.823206,"lng":10.136197,"brand":"Shell","inactive":false,"type":0,"country_code":"TN","address":"Route MC N 130","city":"El Hadika","state":"TUNIS","postcode":"1002","telephone":"+216 71 249 149","country":"Tunisia","amenities":["air_and_water","atm","atm_out","bottled_gas","carwash","credit_card","credit_card_general","fleet_card_general","free_toilet","full_service","jet","other_oil_change","parking_lanes","pay_at_pump","quick_lubes","service_bay","shell_card","shop","standard_toilet","twenty_four_hour","type_of_parking","tyre_centre","manned"],"distance":163.3553814451,"driving_distance":null,"driving_duration":null,"website_url":"https://find.shell.com/tn/fuel/10127331-el-hadika/it_IT","mdm_site_category":"Conventional Fuel Site","formatted_address":"Route MC N 130\nEl Hadika, TUNIS, 1002","site_category":"conventional_fuel_site"},{"id":"10127386","name":"EZZOUHOUR","lat":36.795369,"lng":10.135522,"brand":"Shell","inactive":false,"type":0,"country_code":"TN","address":"Cité Ezzouhour - Route MC 37","city":"Ezzouhour","state":"TUNIS","postcode":"1013","telephone":"+216 71 249 149","country":"Tunisia","amenities":["air_and_water","bottled_gas","cafe","carwash","credit_card","credit_card_general","fleet_card_general","food_offerings","free_toilet","full_service","jet","other_oil_change","parking_lanes","pay_at_pump","quick_lubes","selectshop","service_bay","shell_card","standard_toilet","twenty_four_hour","type_of_parking","manned"],"distance":164.77495927598002,"driving_distance":null,"driving_duration":null,"website_url":"https://find.shell.com/tn/fuel/10127386-ezzouhour/it_IT","mdm_site_category":"Conventional Fuel Site","formatted_address":"Cité Ezzouhour - Route MC 37\nEzzouhour, TUNIS, 1013","site_category":"conventional_fuel_site"},{"id":"10127402","name":"RAS TABIA","lat":36.813169,"lng":10.148317,"brand":"Shell","inactive":false,"type":0,"country_code":"TN","address":"3 Avenue Habib Bougatfa","city":"Ras Tabia","state":"TUNIS","postcode":"2000","telephone":"+216 71 249 149","country":"Tunisia","amenities":["air_and_water","cafe","carwash","credit_card","credit_card_general","fleet_card_general","food_offerings","free_toilet","full_service","jet","other_oil_change","parking_lanes","pay_at_pump","quick_lubes","service_bay","shell_card","shop","standard_toilet","twenty_four_hour","type_of_parking","tyre_centre","manned"],"distance":164.8320243516,"driving_distance":null,"driving_duration":null,"website_url":"https://find.shell.com/tn/fuel/10127402-ras-tabia/it_IT","mdm_site_category":"Conventional Fuel Site","formatted_address":"3 Avenue Habib Bougatfa\nRas Tabia, TUNIS, 2000","site_category":"conventional_fuel_site"},{"id":"10127294","name":"KABARIA","lat":36.764492,"lng":10.114839,"brand":"Shell","inactive":false,"type":0,"country_code":"TN","address":"Route P1  Tunis/Hammamet -KM 3","city":"TUNIS","state":"TUNIS","postcode":"1009","telephone":"+216 71 249 149","country":"Tunisia","amenities":["air_and_water","bottled_gas","cafe","carwash","credit_card","credit_card_general","fleet_card_general","food_offerings","free_toilet","full_service","jet","other_oil_change","parking_lanes","pay_at_pump","quick_lubes","service_bay","shell_card","standard_toilet","twenty_four_hour","type_of_parking","manned"],"distance":164.86610333606998,"driving_distance":null,"driving_duration":null,"website_url":"https://find.shell.com/tn/fuel/10127294-kabaria/it_IT","mdm_site_category":"Conventional Fuel Site","formatted_address":"Route P1  Tunis/Hammamet -KM 3\nTUNIS, TUNIS, 1009","site_category":"conventional_fuel_site"},{"id":"10127261","name":"SEJOUMI II","lat":36.764492,"lng":10.114839,"brand":"Shell","inactive":false,"type":0,"country_code":"TN","address":"Route Régionale 21","city":"SIDI HASSINE","state":"TUNIS","postcode":"1095","telephone":"+216 71 249 149","country":"Tunisia","amenities":["air_and_water","cafe","carwash","credit_card","credit_card_general","fleet_card_general","food_offerings","free_toilet","full_service","jet","local_community_use","other_oil_change","parking_lanes","pay_at_pump","quick_lubes","service_bay","shell_card","standard_toilet","twenty_four_hour","type_of_parking","manned"],"distance":164.86610333606998,"driving_distance":null,"driving_duration":null,"website_url":"https://find.shell.com/tn/fuel/10127261-sejoumi-ii/it_IT","mdm_site_category":"Conventional Fuel Site","formatted_address":"Route Régionale 21\nSIDI HASSINE, TUNIS, 1095","site_category":"conventional_fuel_site"},{"id":"10127404","name":"SEJOUMI","lat":36.764492,"lng":10.114839,"brand":"Shell","inactive":false,"type":0,"country_code":"TN","address":"Route MC 39","city":"Sejoumi","state":"TUNIS","postcode":"2052","telephone":"+216 71 249 149","country":"Tunisia","amenities":["air_and_water","bottled_gas","cafe","carwash","credit_card","credit_card_general","fleet_card_general","food_offerings","free_toilet","full_service","jet","other_oil_change","parking_lanes","pay_at_pump","quick_lubes","selectshop","service_bay","shell_card","standard_toilet","twenty_four_hour","type_of_parking","manned"],"distance":164.86610333606998,"driving_distance":null,"driving_duration":null,"website_url":"https://find.shell.com/tn/fuel/10127404-sejoumi/it_IT","mdm_site_category":"Conventional Fuel Site","formatted_address":"Route MC 39\nSejoumi, TUNIS, 2052","site_category":"conventional_fuel_site"},{"id":"10127469","name":"Rte X 2","lat":36.838794,"lng":10.171844,"brand":"Shell","inactive":false,"type":0,"country_code":"TN","address":"Avenue Tahar Ben Achour - Route X 2","city":"Ennasr","state":"TUNIS","postcode":"2080","telephone":"+216 71 249 149","country":"Tunisia","amenities":["air_and_water","bottled_gas","cafe","carwash","credit_card","credit_card_general","fleet_card_general","food_offerings","free_toilet","full_service","jet","other_oil_change","parking_lanes","pay_at_pump","quick_lubes","service_bay","shell_card","shop","standard_toilet","twenty_four_hour","type_of_parking","tyre_centre","manned"],"distance":165.37390625752,"driving_distance":null,"driving_duration":null,"website_url":"https://find.shell.com/tn/fuel/10127469-rte-x-2/it_IT","mdm_site_category":"Conventional Fuel Site","formatted_address":"Avenue Tahar Ben Achour - Route X 2\nEnnasr, TUNIS, 2080","site_category":"conventional_fuel_site"},{"id":"10127370","name":"SERS","lat":36.072347,"lng":9.022414,"brand":"Shell","inactive":false,"type":0,"country_code":"TN","address":"Route GP 12 - Route du Kef","city":"Sers","state":"LE KEF","postcode":"7180","telephone":"+216 71 249 149","country":"Tunisia","amenities":["air_and_water","bottled_gas","carwash","credit_card","credit_card_general","fleet_card_general","free_toilet","full_service","jet","other_oil_change","parking_lanes","pay_at_pump","service_bay","shell_card","standard_toilet","twenty_four_hour","type_of_parking","manned"],"distance":165.42366030667,"driving_distance":null,"driving_duration":null,"website_url":"https://find.shell.com/tn/fuel/10127370-sers/it_IT","mdm_site_category":"Conventional Fuel Site","formatted_address":"Route GP 12 - Route du Kef\nSers, LE KEF, 7180","site_category":"conventional_fuel_site"},{"id":"10127330","name":"Ariana","lat":36.854786,"lng":10.186511,"brand":"Shell","inactive":false,"type":0,"country_code":"TN","address":"Avenue Habib Bourguiba","city":"Ariana","state":"ARIANA","postcode":"2080","telephone":"+216 71 249 149","country":"Tunisia","amenities":["air_and_water","bottled_gas","cafe","carwash","credit_card","credit_card_general","fleet_card_general","food_offerings","free_toilet","full_service","jet","other_oil_change","pay_at_pump","quick_lubes","service_bay","shell_card","shop","standard_toilet","twenty_four_hour","tyre_centre","manned"],"distance":165.74740597552,"driving_distance":null,"driving_duration":null,"website_url":"https://find.shell.com/tn/fuel/10127330-ariana/it_IT","mdm_site_category":"Conventional Fuel Site","formatted_address":"Avenue Habib Bourguiba\nAriana, ARIANA, 2080","site_category":"conventional_fuel_site"},{"id":"10127374","name":"GP 8","lat":36.866453,"lng":10.198278,"brand":"Shell","inactive":false,"type":0,"country_code":"TN","address":"Gp 8 Route De Bizerte","city":"Ariana","state":"ARIANA","postcode":"2080","telephone":"+216 71 249 149","country":"Tunisia","amenities":["air_and_water","carwash","credit_card","credit_card_general","fleet_card_general","free_toilet","full_service","jet","other_oil_change","parking_lanes","pay_at_pump","quick_lubes","service_bay","shell_card","shop","standard_toilet","twenty_four_hour","type_of_parking","tyre_centre","manned"],"distance":166.12305056828998,"driving_distance":null,"driving_duration":null,"website_url":"https://find.shell.com/tn/fuel/10127374-gp-8/it_IT","mdm_site_category":"Conventional Fuel Site","formatted_address":"Gp 8 Route De Bizerte\nAriana, ARIANA, 2080","site_category":"conventional_fuel_site"},{"id":"10127252","name":"Ariana Gp10","lat":36.858778,"lng":10.195667,"brand":"Shell","inactive":false,"type":0,"country_code":"TN","address":"Rue Taieb Mhiri - Route Gp 10","city":"Ariana","state":"ARIANA","postcode":"2080","telephone":"+216 71 249 149","country":"Tunisia","amenities":["air_and_water","bottled_gas","cafe","carwash","credit_card","credit_card_general","fleet_card_general","food_offerings","free_toilet","full_service","jet","other_oil_change","pay_at_pump","quick_lubes","service_bay","shell_card","shop","standard_toilet","twenty_four_hour","tyre_centre","manned"],"distance":166.28462057954,"driving_distance":null,"driving_duration":null,"website_url":"https://find.shell.com/tn/fuel/10127252-ariana-gp10/it_IT","mdm_site_category":"Conventional Fuel Site","formatted_address":"Rue Taieb Mhiri - Route Gp 10\nAriana, ARIANA, 2080","site_category":"conventional_fuel_site"},{"id":"10127332","name":"EL OMRANE","lat":36.813883,"lng":10.169172,"brand":"Shell","inactive":false,"type":0,"country_code":"TN","address":"Rue Larbi El Kabadi","city":"El Omrane","state":"TUNIS","postcode":"2073","telephone":"+216 71 249 149","country":"Tunisia","amenities":["air_and_water","bottled_gas","carwash","credit_card","credit_card_general","fleet_card_general","free_toilet","full_service","jet","other_oil_change","pay_at_pump","quick_lubes","service_bay","shell_card","shop","standard_toilet","twenty_four_hour","tyre_centre","manned"],"distance":166.43495202483,"driving_distance":null,"driving_duration":null,"website_url":"https://find.shell.com/tn/fuel/10127332-el-omrane/it_IT","mdm_site_category":"Conventional Fuel Site","formatted_address":"Rue Larbi El Kabadi\nEl Omrane, TUNIS, 2073","site_category":"conventional_fuel_site"},{"id":"10127395","name":"LIBERTE","lat":36.814661,"lng":10.178844,"brand":"Shell","inactive":false,"type":0,"country_code":"TN","address":"Avenue de la Liberté","city":"Liberte","state":"TUNIS","postcode":"1002","telephone":"+216 71 249 149","country":"Tunisia","amenities":["air_and_water","bottled_gas","carwash","credit_card","credit_card_general","fleet_card_general","food_offerings","free_toilet","full_service","jet","other_oil_change","others","parking_lanes","pay_at_pump","quick_lubes","service_bay","shell_card","standard_toilet","twenty_four_hour","type_of_parking","tyre_centre","manned"],"distance":167.15701976848,"driving_distance":null,"driving_duration":null,"website_url":"https://find.shell.com/tn/fuel/10127395-liberte/it_IT","mdm_site_category":"Conventional Fuel Site","formatted_address":"Avenue de la Liberté\nLiberte, TUNIS, 1002","site_category":"conventional_fuel_site"},{"id":"10127398","name":"LA SOUKRA","lat":36.870672,"lng":10.230389,"brand":"Shell","inactive":false,"type":0,"country_code":"TN","address":"Avenue de l'UMA","city":"La Soukra","state":"ARIANA","postcode":"2080","telephone":"+216 71 249 149","country":"Tunisia","amenities":["air_and_water","atm","atm_out","bottled_gas","cafe","carwash","credit_card","credit_card_general","fleet_card_general","food_offerings","free_toilet","full_service","jet","other_oil_change","pay_at_pump","quick_lubes","service_bay","shell_card","shop","standard_toilet","tbd","twenty_four_hour","tyre_centre","wifi","manned"],"distance":168.50424828910002,"driving_distance":null,"driving_duration":null,"website_url":"https://find.shell.com/tn/fuel/10127398-la-soukra/it_IT","mdm_site_category":"Conventional Fuel Site","formatted_address":"Avenue de l'UMA\nLa Soukra, ARIANA, 2080","site_category":"conventional_fuel_site"},{"id":"10127434","name":"RUE DE TURQUIE","lat":36.793578,"lng":10.187022,"brand":"Shell","inactive":false,"type":0,"country_code":"TN","address":"Croisement Avenue Moncef Bey et Rue de Turquie","city":"Rue De Turquie","state":"TUNIS","postcode":"1013","telephone":"+216 71 249 149","country":"Tunisia","amenities":["air_and_water","bottled_gas","cafe","carwash","credit_card","credit_card_general","fleet_card_general","food_offerings","free_toilet","full_service","jet","other_oil_change","parking_lanes","pay_at_pump","quick_lubes","selectshop","service_bay","shell_card","standard_toilet","twenty_four_hour","type_of_parking","manned"],"distance":168.89824358628002,"driving_distance":null,"driving_duration":null,"website_url":"https://find.shell.com/tn/fuel/10127434-rue-de-turquie/it_IT","mdm_site_category":"Conventional Fuel Site","formatted_address":"Croisement Avenue Moncef Bey et Rue de Turquie\nRue De Turquie, TUNIS, 1013","site_category":"conventional_fuel_site"},{"id":"10127436","name":"Z4 I","lat":36.777597,"lng":10.208947,"brand":"Shell","inactive":false,"type":0,"country_code":"TN","address":"Route de Tunis Z4 -Saint Gobain","city":"Megrine","state":"TUNIS","postcode":"2033","telephone":"+216 71 249 149","country":"Tunisia","amenities":["air_and_water","bottled_gas","cafe","carwash","credit_card","credit_card_general","fleet_card_general","food_offerings","free_toilet","full_service","jet","other_oil_change","parking_lanes","pay_at_pump","quick_lubes","selectshop","service_bay","shell_card","standard_toilet","twenty_four_hour","type_of_parking","manned"],"distance":171.46024874733,"driving_distance":null,"driving_duration":null,"website_url":"https://find.shell.com/tn/fuel/10127436-z4-i/it_IT","mdm_site_category":"Conventional Fuel Site","formatted_address":"Route de Tunis Z4 -Saint Gobain\nMegrine, TUNIS, 2033","site_category":"conventional_fuel_site"},{"id":"10127419","name":"Jbel Jelloud","lat":36.771139,"lng":10.208878,"brand":"Shell","inactive":false,"type":0,"country_code":"TN","address":"Route de Sousse GP 1","city":"Jbel Jelloud","state":"TUNIS","postcode":"2033","telephone":"+216 71 249 149","country":"Tunisia","amenities":["air_and_water","bottled_gas","cafe","carwash","credit_card","credit_card_general","fleet_card_general","food_offerings","free_toilet","full_service","jet","other_oil_change","parking_lanes","pay_at_pump","quick_lubes","selectshop","service_bay","shell_card","standard_toilet","twenty_four_hour","type_of_parking","manned"],"distance":171.79810799547,"driving_distance":null,"driving_duration":null,"website_url":"https://find.shell.com/tn/fuel/10127419-jbel-jelloud/it_IT","mdm_site_category":"Conventional Fuel Site","formatted_address":"Route de Sousse GP 1\nJbel Jelloud, TUNIS, 2033","site_category":"conventional_fuel_site"},{"id":"10127443","name":"Z4 II","lat":36.775764,"lng":10.213661,"brand":"Shell","inactive":false,"type":0,"country_code":"TN","address":"Route de Megrine Z4 - Saint Gobain","city":"Megrine","state":"BEN AROUS","postcode":"2033","telephone":"+216 71 249 149","country":"Tunisia","amenities":["air_and_water","bottled_gas","carwash","credit_card","credit_card_general","fleet_card_general","free_toilet","full_service","jet","other_oil_change","parking_lanes","pay_at_pump","quick_lubes","service_bay","shell_card","standard_toilet","twenty_four_hour","type_of_parking","manned"],"distance":171.92649409777,"driving_distance":null,"driving_duration":null,"website_url":"https://find.shell.com/tn/fuel/10127443-z4-ii/it_IT","mdm_site_category":"Conventional Fuel Site","formatted_address":"Route de Megrine Z4 - Saint Gobain\nMegrine, BEN AROUS, 2033","site_category":"conventional_fuel_site"},{"id":"10127441","name":"SIDI FATHALLAH","lat":36.767836,"lng":10.209111,"brand":"Shell","inactive":false,"type":0,"country_code":"TN","address":"Sidi Fathallah","city":"Sidi Fathallah","state":"TUNIS","postcode":"2023","telephone":"+216 71 249 149","country":"Tunisia","amenities":["air_and_water","bottled_gas","cafe","carwash","credit_card","credit_card_general","fleet_card_general","food_offerings","free_toilet","full_service","jet","other_oil_change","parking_lanes","pay_at_pump","quick_lubes","selectshop","service_bay","shell_card","standard_toilet","twenty_four_hour","type_of_parking","manned"],"distance":171.99275951338998,"driving_distance":null,"driving_duration":null,"website_url":"https://find.shell.com/tn/fuel/10127441-sidi-fathallah/it_IT","mdm_site_category":"Conventional Fuel Site","formatted_address":"Sidi Fathallah\nSidi Fathallah, TUNIS, 2023","site_category":"conventional_fuel_site"},{"id":"10127390","name":"FOUCHANA","lat":36.699119,"lng":10.1699,"brand":"Shell","inactive":false,"type":0,"country_code":"TN","address":"Route de Fouchana GP 3","city":"Fouchana","state":"BEN AROUS","postcode":"1145","telephone":"+216 71 249 149","country":"Tunisia","amenities":["air_and_water","bottled_gas","cafe","credit_card","credit_card_general","fleet_card_general","food_offerings","free_toilet","full_service","other_oil_change","pay_at_pump","quick_lubes","selectshop","shell_card","standard_toilet","twenty_four_hour","manned"],"distance":172.80822991349,"driving_distance":null,"driving_duration":null,"website_url":"https://find.shell.com/tn/fuel/10127390-fouchana/it_IT","mdm_site_category":"Conventional Fuel Site","formatted_address":"Route de Fouchana GP 3\nFouchana, BEN AROUS, 1145","site_category":"conventional_fuel_site"},{"id":"10127354","name":"MGHIRA","lat":36.71225,"lng":10.180528,"brand":"Shell","inactive":false,"type":0,"country_code":"TN","address":"46 Lotissement El Wifak - Cité Elhidhab","city":"Mghira","state":"BEN AROUS","postcode":"2082","telephone":"+216 71 249 149","country":"Tunisia","amenities":["air_and_water","bottled_gas","cafe","carwash","credit_card","credit_card_general","fleet_card_general","food_offerings","free_toilet","full_service","jet","other_oil_change","parking_lanes","pay_at_pump","quick_lubes","selectshop","service_bay","shell_card","standard_toilet","twenty_four_hour","type_of_parking","manned"],"distance":172.86119843138002,"driving_distance":null,"driving_duration":null,"website_url":"https://find.shell.com/tn/fuel/10127354-mghira/it_IT","mdm_site_category":"Conventional Fuel Site","formatted_address":"46 Lotissement El Wifak - Cité Elhidhab\nMghira, BEN AROUS, 2082","site_category":"conventional_fuel_site"},{"id":"10127366","name":"Mohamedia","lat":36.679328,"lng":10.156533,"brand":"Shell","inactive":false,"type":0,"country_code":"TN","address":"Route de Zaghouan Gp3","city":"Mohamedia","state":"BEN AROUS","postcode":"1145","telephone":"+216 71 249 149","country":"Tunisia","amenities":["air_and_water","bottled_gas","carwash","credit_card","credit_card_general","fleet_card_general","free_toilet","full_service","jet","other_oil_change","parking_lanes","pay_at_pump","quick_lubes","service_bay","shell_card","standard_toilet","twenty_four_hour","type_of_parking","manned"],"distance":172.96060176577,"driving_distance":null,"driving_duration":null,"website_url":"https://find.shell.com/tn/fuel/10127366-mohamedia/it_IT","mdm_site_category":"Conventional Fuel Site","formatted_address":"Route de Zaghouan Gp3\nMohamedia, BEN AROUS, 1145","site_category":"conventional_fuel_site"},{"id":"10127385","name":"GP 9","lat":36.867731,"lng":10.305333,"brand":"Shell","inactive":false,"type":0,"country_code":"TN","address":"Route GP 9 KM 10 - Route de La Marsa","city":"Marsa","state":"TUNIS","postcode":"2078","telephone":"+216 71 249 149","country":"Tunisia","amenities":["air_and_water","atm","atm_out","bottled_gas","cafe","carwash","credit_card","credit_card_general","fleet_card_general","food_offerings","free_toilet","full_service","jet","other_oil_change","others","parking_lanes","pay_at_pump","quick_lubes","sandwich","service_bay","shell_card","shop","standard_toilet","tbd","twenty_four_hour","type_of_parking","tyre_centre","manned"],"distance":174.69937051845002,"driving_distance":null,"driving_duration":null,"website_url":"https://find.shell.com/tn/fuel/10127385-gp-9/it_IT","mdm_site_category":"Conventional Fuel Site with EV","formatted_address":"Route GP 9 KM 10 - Route de La Marsa\nMarsa, TUNIS, 2078","site_category":"conventional_fuel_site_with_ev"},{"id":"10127458","name":"SORTIE SUD","lat":36.733275,"lng":10.224572,"brand":"Shell","inactive":false,"type":0,"country_code":"TN","address":"Autoroute A1 - PK 8","city":"Mourouj","state":"BEN AROUS","postcode":"2013","telephone":"+216 71 249 149","country":"Tunisia","amenities":["air_and_water","atm","atm_in","baby_change_facilities","burger","cafe","credit_card","credit_card_general","disability_assistance","disability_parking","fleet_card_general","food_offerings","free_toilet","full_service","mobile_payment","other_oil_change","others","parking_lanes","pay_at_pump","pizza","quick_lubes","restaurant","sandwich","selectshop","service_bay","shell_card","standard_toilet","tbd","twenty_four_hour","type_of_parking","manned"],"distance":175.07073664027,"driving_distance":null,"driving_duration":null,"website_url":"https://find.shell.com/tn/fuel/10127458-sortie-sud/it_IT","mdm_site_category":"Conventional Fuel Site with EV","formatted_address":"Autoroute A1 - PK 8\nMourouj, BEN AROUS, 2013","site_category":"conventional_fuel_site_with_ev"},{"id":"10127431","name":"SILIANA","lat":36.086486,"lng":9.372025,"brand":"Shell","inactive":false,"type":0,"country_code":"TN","address":"Cité Ezzouhour","city":"Siliana","state":"SILIANA","postcode":"6100","telephone":"+216 71 249 149","country":"Tunisia","amenities":["air_and_water","bottled_gas","carwash","credit_card","credit_card_general","fleet_card_general","free_toilet","full_service","jet","other_oil_change","pay_at_pump","quick_lubes","service_bay","shell_card","standard_toilet","twenty_four_hour","manned"],"distance":175.30785627487,"driving_distance":null,"driving_duration":null,"website_url":"https://find.shell.com/tn/fuel/10127431-siliana/it_IT","mdm_site_category":"Conventional Fuel Site","formatted_address":"Cité Ezzouhour\nSiliana, SILIANA, 6100","site_category":"conventional_fuel_site"},{"id":"10127323","name":"EL FAHS","lat":36.381339,"lng":9.90815,"brand":"Shell","inactive":false,"type":0,"country_code":"TN","address":"Route GP 3 PK 58,5","city":"El Fahs","state":"ZAGHOUAN","postcode":"1140","telephone":"+216 71 249 149","country":"Tunisia","amenities":["air_and_water","bakery_shop","bottled_gas","credit_card","credit_card_general","fleet_card_general","free_toilet","full_service","other_oil_change","pay_at_pump","service_bay","standard_toilet","twenty_four_hour","manned"],"distance":176.44546812027,"driving_distance":null,"driving_duration":null,"website_url":"https://find.shell.com/tn/fuel/10127323-el-fahs/it_IT","mdm_site_category":"Conventional Fuel Site","formatted_address":"Route GP 3 PK 58,5\nEl Fahs, ZAGHOUAN, 1140","site_category":"conventional_fuel_site"},{"id":"10127361","name":"LE KRAM","lat":36.833125,"lng":10.315939,"brand":"Shell","inactive":false,"type":0,"country_code":"TN","address":"Avenue Habib Bourguiba","city":"Le Kram","state":"TUNIS","postcode":"2015","telephone":"+216 71 249 149","country":"Tunisia","amenities":["air_and_water","bottled_gas","carwash","credit_card","credit_card_general","fleet_card_general","free_toilet","full_service","jet","other_oil_change","pay_at_pump","quick_lubes","service_bay","shell_card","shop","standard_toilet","twenty_four_hour","tyre_centre","manned"],"distance":177.1691840228,"driving_distance":null,"driving_duration":null,"website_url":"https://find.shell.com/tn/fuel/10127361-le-kram/it_IT","mdm_site_category":"Conventional Fuel Site","formatted_address":"Avenue Habib Bourguiba\nLe Kram, TUNIS, 2015","site_category":"conventional_fuel_site"},{"id":"10127376","name":"EZZAHRA II","lat":36.730636,"lng":10.250975,"brand":"Shell","inactive":false,"type":0,"country_code":"TN","address":"A 22 Route Nationale MC 39","city":"Ezzahra","state":"BEN AROUS","postcode":"2034","telephone":"+216 71 249 149","country":"Tunisia","amenities":["air_and_water","bottled_gas","cafe","credit_card","credit_card_general","fleet_card_general","food_offerings","free_toilet","full_service","other_oil_change","parking_lanes","pay_at_pump","quick_lubes","selectshop","service_bay","shell_card","standard_toilet","twenty_four_hour","type_of_parking","manned"],"distance":177.26281078783998,"driving_distance":null,"driving_duration":null,"website_url":"https://find.shell.com/tn/fuel/10127376-ezzahra-ii/it_IT","mdm_site_category":"Conventional Fuel Site with EV","formatted_address":"A 22 Route Nationale MC 39\nEzzahra, BEN AROUS, 2034","site_category":"conventional_fuel_site_with_ev"},{"id":"10127265","name":"CITE SPORTIVE","lat":36.744486,"lng":10.264411,"brand":"Shell","inactive":false,"type":0,"country_code":"TN","address":"Cité Sportive de Rades","city":"Cite Sportive","state":"BEN AROUS","postcode":"2018","telephone":"+216 71 249 149","country":"Tunisia","amenities":["air_and_water","atm","atm_out","carwash","credit_card","credit_card_general","fleet_card_general","free_toilet","full_service","jet","other_oil_change","parking_lanes","pay_at_pump","quick_lubes","service_bay","shell_card","standard_toilet","tbd","twenty_four_hour","type_of_parking","manned"],"distance":177.56084296428,"driving_distance":null,"driving_duration":null,"website_url":"https://find.shell.com/tn/fuel/10127265-cite-sportive/it_IT","mdm_site_category":"Conventional Fuel Site","formatted_address":"Cité Sportive de Rades\nCite Sportive, BEN AROUS, 2018","site_category":"conventional_fuel_site"},{"id":"10127293","name":"BOUMHEL","lat":36.727078,"lng":10.305528,"brand":"Shell","inactive":false,"type":0,"country_code":"TN","address":"Boumhel Bassatine","city":"Boumhel","state":"BEN AROUS","postcode":"2097","telephone":"+216 71 249 149","country":"Tunisia","amenities":["air_and_water","atm","atm_out","bottled_gas","carwash","credit_card","credit_card_general","fleet_card_general","food_offerings","free_toilet","full_service","other_oil_change","others","pay_at_pump","service_bay","shell_card","standard_toilet","twenty_four_hour","manned"],"distance":181.70420568492,"driving_distance":null,"driving_duration":null,"website_url":"https://find.shell.com/tn/fuel/10127293-boumhel/it_IT","mdm_site_category":"Conventional Fuel Site","formatted_address":"Boumhel Bassatine\nBoumhel, BEN AROUS, 2097","site_category":"conventional_fuel_site"},{"id":"10127367","name":"EZZAHRA","lat":36.733628,"lng":10.317883,"brand":"Shell","inactive":false,"type":0,"country_code":"TN","address":"Route GP 1 - Route Hammam Lif Ezzahra","city":"Ezzahra","state":"BEN AROUS","postcode":"2034","telephone":"+216 71 249 149","country":"Tunisia","amenities":["air_and_water","bottled_gas","credit_card","credit_card_general","food_offerings","free_toilet","full_service","other_oil_change","others","pay_at_pump","service_bay","shell_card","standard_toilet","twenty_four_hour","manned"],"distance":182.32246091254,"driving_distance":null,"driving_duration":null,"website_url":"https://find.shell.com/tn/fuel/10127367-ezzahra/it_IT","mdm_site_category":"Conventional Fuel Site","formatted_address":"Route GP 1 - Route Hammam Lif Ezzahra\nEzzahra, BEN AROUS, 2034","site_category":"conventional_fuel_site"},{"id":"10127414","name":"MORNAG","lat":36.683681,"lng":10.285861,"brand":"Shell","inactive":false,"type":0,"country_code":"TN","address":"Route MC 34","city":"Mornag","state":"BEN AROUS","postcode":"2090","telephone":"+216 71 249 149","country":"Tunisia","amenities":["air_and_water","bottled_gas","carwash","credit_card","credit_card_general","food_offerings","free_toilet","full_service","other_oil_change","others","pay_at_pump","service_bay","shell_card","standard_toilet","twenty_four_hour","manned"],"distance":182.55990953803,"driving_distance":null,"driving_duration":null,"website_url":"https://find.shell.com/tn/fuel/10127414-mornag/it_IT","mdm_site_category":"Conventional Fuel Site","formatted_address":"Route MC 34\nMornag, BEN AROUS, 2090","site_category":"conventional_fuel_site"},{"id":"10127389","name":"HAMMAM LIF","lat":36.732053,"lng":10.331667,"brand":"Shell","inactive":false,"type":0,"country_code":"TN","address":"Avenue de La République","city":"Hammam Lif","state":"BEN AROUS","postcode":"2050","telephone":"+216 71 249 149","country":"Tunisia","amenities":["air_and_water","bottled_gas","credit_card","credit_card_general","free_toilet","full_service","other_oil_change","pay_at_pump","standard_toilet","twenty_four_hour","manned"],"distance":183.48668088164,"driving_distance":null,"driving_duration":null,"website_url":"https://find.shell.com/tn/fuel/10127389-hammam-lif/it_IT","mdm_site_category":"Conventional Fuel Site","formatted_address":"Avenue de La République\nHammam Lif, BEN AROUS, 2050","site_category":"conventional_fuel_site"},{"id":"10127321","name":"ZAGHOUAN II","lat":36.420536,"lng":10.125334,"brand":"Shell","inactive":false,"type":0,"country_code":"TN","address":"Boulevard de l'Environnement","city":"Errouguia - Zaghouan","state":"ZAGHOUAN","postcode":"1100","telephone":"+216 71 249 149","country":"Tunisia","amenities":["air_and_water","carwash","credit_card","credit_card_general","fleet_card_general","free_toilet","full_service","jet","other_oil_change","parking_lanes","quick_lubes","shell_card","standard_toilet","twenty_four_hour","type_of_parking","manned"],"distance":187.77685180949,"driving_distance":null,"driving_duration":null,"website_url":"https://find.shell.com/tn/fuel/10127321-zaghouan-ii/it_IT","mdm_site_category":"Conventional Fuel Site","formatted_address":"Boulevard de l'Environnement\nErrouguia - Zaghouan, ZAGHOUAN, 1100","site_category":"conventional_fuel_site"},{"id":"10127450","name":"ZAGHOUAN","lat":36.406169,"lng":10.140775,"brand":"Shell","inactive":false,"type":0,"country_code":"TN","address":"Avenue du 14 Janvier 2011 - Rue de L' Indépendance","city":"Zaghouan","state":"ZAGHOUAN","postcode":"1100","telephone":"+216 71 249 149","country":"Tunisia","amenities":["air_and_water","bottled_gas","cafe","carwash","credit_card","credit_card_general","fleet_card_general","food_offerings","free_toilet","full_service","jet","other_oil_change","parking_lanes","pay_at_pump","quick_lubes","selectshop","service_bay","shell_card","standard_toilet","twenty_four_hour","type_of_parking","manned"],"distance":189.86377598337,"driving_distance":null,"driving_duration":null,"website_url":"https://find.shell.com/tn/fuel/10127450-zaghouan/it_IT","mdm_site_category":"Conventional Fuel Site","formatted_address":"Avenue du 14 Janvier 2011 - Rue de L' Indépendance\nZaghouan, ZAGHOUAN, 1100","site_category":"conventional_fuel_site"},{"id":"10127445","name":"SOLIMAN II","lat":36.696114,"lng":10.469067,"brand":"Shell","inactive":false,"type":0,"country_code":"TN","address":"Route de Tunis - PK 2","city":"Soliman Ii","state":"NABEUL","postcode":"8020","telephone":"+216 71 249 149","country":"Tunisia","amenities":["air_and_water","bottled_gas","credit_card","credit_card_general","free_toilet","full_service","other_oil_change","pay_at_pump","service_bay","shell_card","standard_toilet","twenty_four_hour","manned"],"distance":196.17721871182,"driving_distance":null,"driving_duration":null,"website_url":"https://find.shell.com/tn/fuel/10127445-soliman-ii/it_IT","mdm_site_category":"Conventional Fuel Site","formatted_address":"Route de Tunis - PK 2\nSoliman Ii, NABEUL, 8020","site_category":"conventional_fuel_site"},{"id":"10127438","name":"SOLIMAN I","lat":36.694794,"lng":10.486525,"brand":"Shell","inactive":false,"type":0,"country_code":"TN","address":"Avenue Habib Bourguiba","city":"Soliman I","state":"NABEUL","postcode":"8020","telephone":"+216 71 249 149","country":"Tunisia","amenities":["air_and_water","bottled_gas","credit_card","credit_card_general","free_toilet","full_service","other_oil_change","pay_at_pump","service_bay","shell_card","standard_toilet","twenty_four_hour","manned"],"distance":197.62445799792,"driving_distance":null,"driving_duration":null,"website_url":"https://find.shell.com/tn/fuel/10127438-soliman-i/it_IT","mdm_site_category":"Conventional Fuel Site","formatted_address":"Avenue Habib Bourguiba\nSoliman I, NABEUL, 8020","site_category":"conventional_fuel_site"},{"id":"10127368","name":"PLACE PASTEUR","lat":36.24745,"lng":10.178631,"brand":"Shell","inactive":false,"type":0,"country_code":"TN","address":"Place Pasteur","city":"Place Pasteur","state":"TUNIS","postcode":"2045","telephone":"+216 71 249 149","country":"Tunisia","amenities":["air_and_water","bottled_gas","carwash","credit_card","credit_card_general","fleet_card_general","free_toilet","full_service","jet","other_oil_change","parking_lanes","pay_at_pump","quick_lubes","service_bay","shell_card","standard_toilet","twenty_four_hour","type_of_parking","tyre_centre","manned"],"distance":204.18319302299,"driving_distance":null,"driving_duration":null,"website_url":"https://find.shell.com/tn/fuel/10127368-place-pasteur/it_IT","mdm_site_category":"Conventional Fuel Site with EV","formatted_address":"Place Pasteur\nPlace Pasteur, TUNIS, 2045","site_category":"conventional_fuel_site_with_ev"},{"id":"10127277","name":"PK 28","lat":36.580082,"lng":10.494988,"brand":"Shell","inactive":false,"type":0,"country_code":"TN","address":"Autoroute A1 - PK 28","city":"Grombalia","state":"NABEUL","postcode":"8030","telephone":"+216 71 249 149","country":"Tunisia","amenities":["air_and_water","atm","atm_in","bottled_gas","credit_card","credit_card_general","food_offerings","free_toilet","full_service","local_community_use","other_oil_change","others","pay_at_pump","service_bay","shell_card","shop","standard_toilet","twenty_four_hour","wifi","manned"],"distance":204.48524753818998,"driving_distance":null,"driving_duration":null,"website_url":"https://find.shell.com/tn/fuel/10127277-pk-28/it_IT","mdm_site_category":"Conventional Fuel Site with EV","formatted_address":"Autoroute A1 - PK 28\nGrombalia, NABEUL, 8030","site_category":"conventional_fuel_site_with_ev"},{"id":"10127421","name":"Sidi Khelifa","lat":36.24745,"lng":10.425831,"brand":"Shell","inactive":false,"type":0,"country_code":"TN","address":"Autoroute A1","city":"Sidi Khelifa","state":"SOUSSE","postcode":"8050","telephone":"+216 71 249 149","country":"Tunisia","amenities":["air_and_water","atm","atm_in","baby_change_facilities","bottled_gas","credit_card","credit_card_general","disability_assistance","food_offerings","free_toilet","full_service","local_community_use","other_oil_change","others","parking_lanes","pay_at_pump","quick_lubes","shell_card","standard_toilet","twenty_four_hour","type_of_parking","wifi","manned"],"distance":220.77074315332,"driving_distance":null,"driving_duration":null,"website_url":"https://find.shell.com/tn/fuel/10127421-sidi-khelifa/it_IT","mdm_site_category":"Conventional Fuel Site","formatted_address":"Autoroute A1\nSidi Khelifa, SOUSSE, 8050","site_category":"conventional_fuel_site"},{"id":"10127340","name":"ENFIDHA","lat":36.135556,"lng":10.380833,"brand":"Shell","inactive":false,"type":0,"country_code":"TN","address":"Avenue Habib Thameur","city":"Enfidha","state":"SOUSSE","postcode":"4030","telephone":"+216 71 249 149","country":"Tunisia","amenities":["air_and_water","bakery_shop","bottled_gas","credit_card","credit_card_general","fleet_card_general","free_toilet","full_service","other_oil_change","pay_at_pump","service_bay","standard_toilet","twenty_four_hour","manned"],"distance":225.93287214707001,"driving_distance":null,"driving_duration":null,"website_url":"https://find.shell.com/tn/fuel/10127340-enfidha/it_IT","mdm_site_category":"Conventional Fuel Site","formatted_address":"Avenue Habib Thameur\nEnfidha, SOUSSE, 4030","site_category":"conventional_fuel_site"}],"clusters":[]}