{"locations":[{"id":"10126819","name":"Sabaudia","lat":41.317394,"lng":13.094259,"brand":"Shell","inactive":false,"type":0,"country_code":"IT","address":"S.R. 148 Pontina Km. 94+705","city":"Sabaudia","state":"Latina","postcode":"04016","telephone":"","country":"Italy","amenities":["credit_card","credit_card_general","fleet_card_general","full_service","pay_at_pump","shell_card","manned"],"distance":103.70538219516999,"driving_distance":null,"driving_duration":null,"website_url":"https://find.shell.com/it/fuel/10126819-sabaudia/it_IT","mdm_site_category":"Conventional Fuel Site","formatted_address":"S.R. 148 Pontina Km. 94+705\nSabaudia, Latina, 04016","site_category":"conventional_fuel_site"},{"id":"10126811","name":"Fiumicino","lat":41.762408,"lng":12.235205,"brand":"Shell","inactive":false,"type":0,"country_code":"IT","address":"Via del Faro, 149","city":"Fiumicino","state":"Rome","postcode":"00054","telephone":"","country":"Italy","amenities":["credit_card","credit_card_general","fleet_card_general","full_service","pay_at_pump","shell_card","manned"],"distance":142.11440018515,"driving_distance":null,"driving_duration":null,"website_url":"https://find.shell.com/it/fuel/10126811-fiumicino/it_IT","mdm_site_category":"Conventional Fuel Site","formatted_address":"Via del Faro, 149\nFiumicino, Rome, 00054","site_category":"conventional_fuel_site"},{"id":"10126776","name":"Roma","lat":41.779133,"lng":12.42187,"brand":"Shell","inactive":false,"type":0,"country_code":"IT","address":"Via di Mezzocammino,96","city":"Roma","state":"Rome","postcode":"00100","telephone":"","country":"Italy","amenities":["credit_card","credit_card_general","fleet_card_general","full_service","pay_at_pump","shell_card","manned"],"distance":142.38368025651002,"driving_distance":null,"driving_duration":null,"website_url":"https://find.shell.com/it/fuel/10126776-roma/it_IT","mdm_site_category":"Conventional Fuel Site","formatted_address":"Via di Mezzocammino,96\nRoma, Rome, 00100","site_category":"conventional_fuel_site"},{"id":"10126761","name":"Roma","lat":41.826136,"lng":12.49968,"brand":"Shell","inactive":false,"type":0,"country_code":"IT","address":"Via di Vigna Murata, 202","city":"Roma","state":"Rome","postcode":"00143","telephone":"","country":"Italy","amenities":["credit_card","credit_card_general","fleet_card_general","full_service","pay_at_pump","shell_card","manned"],"distance":147.45980069177,"driving_distance":null,"driving_duration":null,"website_url":"https://find.shell.com/it/fuel/10126761-roma/it_IT","mdm_site_category":"Conventional Fuel Site","formatted_address":"Via di Vigna Murata, 202\nRoma, Rome, 00143","site_category":"conventional_fuel_site"},{"id":"10126708","name":"Carinola","lat":41.20346,"lng":14.00634,"brand":"Shell","inactive":false,"type":0,"country_code":"IT","address":"S.S. 7 APPIA KM 178 + 920","city":"Carinola","state":"Caserta","postcode":"81030","telephone":"","country":"Italy","amenities":["credit_card","credit_card_general","fleet_card_general","full_service","pay_at_pump","shell_card","standard_toilet","manned"],"distance":148.89390049189,"driving_distance":null,"driving_duration":null,"website_url":"https://find.shell.com/it/fuel/10126708-carinola/it_IT","mdm_site_category":"Conventional Fuel Site","formatted_address":"S.S. 7 APPIA KM 178 + 920\nCarinola, Caserta, 81030","site_category":"conventional_fuel_site"},{"id":"10126785","name":"Roma","lat":41.86196,"lng":12.533543,"brand":"Shell","inactive":false,"type":0,"country_code":"IT","address":"Via Appia Nuova, 735","city":"Roma","state":"Rome","postcode":"00100","telephone":"","country":"Italy","amenities":["credit_card","credit_card_general","fleet_card_general","full_service","pay_at_pump","shell_card","manned"],"distance":151.46926181860002,"driving_distance":null,"driving_duration":null,"website_url":"https://find.shell.com/it/fuel/10126785-roma/it_IT","mdm_site_category":"Conventional Fuel Site","formatted_address":"Via Appia Nuova, 735\nRoma, Rome, 00100","site_category":"conventional_fuel_site"},{"id":"10126769","name":"Roma","lat":41.875273,"lng":12.587542,"brand":"Shell","inactive":false,"type":0,"country_code":"IT","address":"Via Tor Tre Teste 93/95","city":"Roma","state":"Rome","postcode":"00100","telephone":"","country":"Italy","amenities":["credit_card","credit_card_general","fleet_card_general","full_service","pay_at_pump","shell_card","manned"],"distance":153.09892270600002,"driving_distance":null,"driving_duration":null,"website_url":"https://find.shell.com/it/fuel/10126769-roma/it_IT","mdm_site_category":"Conventional Fuel Site","formatted_address":"Via Tor Tre Teste 93/95\nRoma, Rome, 00100","site_category":"conventional_fuel_site"},{"id":"10126805","name":"Roma","lat":41.87973,"lng":12.440131,"brand":"Shell","inactive":false,"type":0,"country_code":"IT","address":"Via di Forte Bravetta, 6","city":"Roma","state":"Rome","postcode":"00164","telephone":"","country":"Italy","amenities":["credit_card","credit_card_general","fleet_card_general","full_service","pay_at_pump","shell_card","manned"],"distance":153.50094527749002,"driving_distance":null,"driving_duration":null,"website_url":"https://find.shell.com/it/fuel/10126805-roma/it_IT","mdm_site_category":"Conventional Fuel Site","formatted_address":"Via di Forte Bravetta, 6\nRoma, Rome, 00164","site_category":"conventional_fuel_site"},{"id":"10126821","name":"Roma","lat":41.884286,"lng":12.543576,"brand":"Shell","inactive":false,"type":0,"country_code":"IT","address":"Via Acqua Bullicante 92","city":"Roma","state":"Rome","postcode":"00177","telephone":"","country":"Italy","amenities":["adblue_truck","credit_card","credit_card_general","fleet_card_general","full_service","pay_at_pump","shell_card","standard_toilet","manned"],"distance":153.96896521513,"driving_distance":null,"driving_duration":null,"website_url":"https://find.shell.com/it/fuel/10126821-roma/it_IT","mdm_site_category":"Conventional Fuel Site","formatted_address":"Via Acqua Bullicante 92\nRoma, Rome, 00177","site_category":"conventional_fuel_site"},{"id":"10126793","name":"Roma","lat":41.89191,"lng":12.40825,"brand":"Shell","inactive":false,"type":0,"country_code":"IT","address":"Via Gregorio XI, 319-329","city":"Roma","state":"Rome","postcode":"00197","telephone":"","country":"Italy","amenities":["credit_card","credit_card_general","fleet_card_general","full_service","pay_at_pump","shell_card","manned"],"distance":154.96377724615002,"driving_distance":null,"driving_duration":null,"website_url":"https://find.shell.com/it/fuel/10126793-roma/it_IT","mdm_site_category":"Conventional Fuel Site","formatted_address":"Via Gregorio XI, 319-329\nRoma, Rome, 00197","site_category":"conventional_fuel_site"},{"id":"10126814","name":"Roma","lat":41.91205,"lng":12.389643,"brand":"Shell","inactive":false,"type":0,"country_code":"IT","address":"Via Gino Frontali 9/11","city":"Roma","state":"Rome","postcode":"00166","telephone":"","country":"Italy","amenities":["credit_card","credit_card_general","fleet_card_general","full_service","pay_at_pump","shell_card","standard_toilet","manned"],"distance":157.28415175635,"driving_distance":null,"driving_duration":null,"website_url":"https://find.shell.com/it/fuel/10126814-roma/it_IT","mdm_site_category":"Conventional Fuel Site","formatted_address":"Via Gino Frontali 9/11\nRoma, Rome, 00166","site_category":"conventional_fuel_site"},{"id":"10126697","name":"Casagiove","lat":41.080719,"lng":14.30147,"brand":"Shell","inactive":false,"type":2,"country_code":"IT","address":"Via Tifata","city":"Casagiove","state":"Caserta","postcode":"81022","telephone":"","country":"Italy","amenities":["adblue_truck","credit_card","credit_card_general","fleet_card_general","full_service","hgv_lane","high_speed_diesel_pump","pay_at_pump","shell_card","standard_toilet","twenty_four_hour_ev_service","manned"],"distance":164.82944838992,"driving_distance":null,"driving_duration":null,"website_url":"https://find.shell.com/it/fuel/10126697-casagiove/it_IT","mdm_site_category":"Other","formatted_address":"Via Tifata\nCasagiove, Caserta, 81022","site_category":"lng_site"},{"id":"10126784","name":"Pietravairano","lat":41.319464,"lng":14.183234,"brand":"Shell","inactive":false,"type":2,"country_code":"IT","address":"SS 372 Telesina Km 7 + 648","city":"Pietravairano","state":"Caserta","postcode":"81050","telephone":"","country":"Italy","amenities":["credit_card","credit_card_general","fleet_card_general","full_service","hgv_lane","high_speed_diesel_pump","pay_at_pump","shell_card","truck_parking","type_of_parking","manned"],"distance":168.25389115464,"driving_distance":null,"driving_duration":null,"website_url":"https://find.shell.com/it/fuel/10126784-pietravairano/it_IT","mdm_site_category":"Conventional Fuel Site","formatted_address":"SS 372 Telesina Km 7 + 648\nPietravairano, Caserta, 81050","site_category":"conventional_fuel_site"},{"id":"10126770","name":"Capistrello","lat":41.983112,"lng":13.408943,"brand":"Shell","inactive":false,"type":2,"country_code":"IT","address":"S.S. 690 ”Avezzano - Sora”  Km 8 + 515 lt sx","city":"Capistrello","state":"L'Aquila","postcode":"67053","telephone":"","country":"Italy","amenities":["credit_card","credit_card_general","fleet_card_general","full_service","hgv_lane","high_speed_diesel_pump","pay_at_pump","shell_card","truck_parking","type_of_parking","manned"],"distance":181.58054423418,"driving_distance":null,"driving_duration":null,"website_url":"https://find.shell.com/it/fuel/10126770-capistrello/it_IT","mdm_site_category":"Conventional Fuel Site","formatted_address":"S.S. 690 ”Avezzano - Sora”  Km 8 + 515 lt sx\nCapistrello, L'Aquila, 67053","site_category":"conventional_fuel_site"}],"clusters":[]}