{"locations":[{"id":"10029177","name":"SHELL MOUGINS AUT A 8","lat":43.592028,"lng":7.03616,"brand":"Shell","inactive":false,"type":2,"country_code":"FR","address":"AUT A8 - AIRE DES BREGUIERES","city":"MOUGINS","state":"Alpes-Maritimes","postcode":"06250","telephone":"+33 4 93 94 51 85","country":"France","amenities":["adblue_pack","adblue_truck","air_and_water","apple_pay","atm","credit_card","credit_card_american_express","credit_card_general","credit_card_mastercard","credit_card_visa","deli_by_shell","disabled_facilities","fleet_card_dkv","fleet_card_esso","fleet_card_uta","go_plus","google_pay","hgv_lane","high_speed_diesel_pump","loyalty_cards","loyalty_program","mobile_payment","mobile_payment_amex","mobile_payment_cartes_bancaires","mobile_payment_maestro","mobile_payment_mastercard","mobile_payment_visa","paypal","pizza_hut","pizza_hut_express","self_service","shell_card","shop","standard_toilet","starbucks","tbd","twenty_four_hour","twenty_four_hour_ev_service","motorway_service","manned"],"distance":118.42186290725,"driving_distance":null,"driving_duration":null,"website_url":"https://find.shell.com/fr/fuel/10029177-shell-mougins-aut-a-8/it_IT","mdm_site_category":"Conventional Fuel Site with EV","formatted_address":"AUT A8 - AIRE DES BREGUIERES\nMOUGINS, Alpes-Maritimes, 06250","site_category":"conventional_fuel_site_with_ev"},{"id":"10126735","name":"Marina Di Carrara","lat":44.033161,"lng":10.052134,"brand":"Shell","inactive":false,"type":0,"country_code":"IT","address":"Viale da Verrazzano 15","city":"Marina Di Carrara","state":"Massa Carrara","postcode":"54033","telephone":"","country":"Italy","amenities":["credit_card","credit_card_general","fleet_card_general","full_service","pay_at_pump","shell_card","manned"],"distance":138.01614217801,"driving_distance":null,"driving_duration":null,"website_url":"https://find.shell.com/it/fuel/10126735-marina-di-carrara/it_IT","mdm_site_category":"Conventional Fuel Site","formatted_address":"Viale da Verrazzano 15\nMarina Di Carrara, Massa Carrara, 54033","site_category":"conventional_fuel_site"},{"id":"10126715","name":"Carrara","lat":44.059636,"lng":10.04495,"brand":"Shell","inactive":false,"type":0,"country_code":"IT","address":"Via Aurelia KM 387+8 - Loc. Avenza","city":"Carrara","state":"Massa Carrara","postcode":"54033","telephone":"","country":"Italy","amenities":["credit_card","credit_card_general","fleet_card_general","full_service","pay_at_pump","shell_card","standard_toilet","manned"],"distance":138.76550565527998,"driving_distance":null,"driving_duration":null,"website_url":"https://find.shell.com/it/fuel/10126715-carrara/it_IT","mdm_site_category":"Conventional Fuel Site","formatted_address":"Via Aurelia KM 387+8 - Loc. Avenza\nCarrara, Massa Carrara, 54033","site_category":"conventional_fuel_site"},{"id":"10126664","name":"Nizza Monferrato","lat":44.771297,"lng":8.370238,"brand":"Shell","inactive":false,"type":0,"country_code":"IT","address":"Strada Alessandria n.40 (SP 28 per Alessandria Km 25+896)","city":"Nizza Monferrato","state":"Asti","postcode":"14049","telephone":"","country":"Italy","amenities":["credit_card","credit_card_general","fleet_card_general","full_service","pay_at_pump","shell_card","standard_toilet","manned"],"distance":141.74070295167002,"driving_distance":null,"driving_duration":null,"website_url":"https://find.shell.com/it/fuel/10126664-nizza-monferrato/it_IT","mdm_site_category":"Conventional Fuel Site","formatted_address":"Strada Alessandria n.40 (SP 28 per Alessandria Km 25+896)\nNizza Monferrato, Asti, 14049","site_category":"conventional_fuel_site"},{"id":"10126678","name":"Novi Ligure","lat":44.758271,"lng":8.80754,"brand":"Shell","inactive":false,"type":2,"country_code":"IT","address":"Via Circonvallazione n.20 (SP 35bis km 5+106)","city":"Novi Ligure","state":"Alessandria","postcode":"15067","telephone":"","country":"Italy","amenities":["credit_card","credit_card_general","fleet_card_general","full_service","hgv_lane","high_speed_diesel_pump","pay_at_pump","shell_card","manned"],"distance":142.04996905069,"driving_distance":null,"driving_duration":null,"website_url":"https://find.shell.com/it/fuel/10126678-novi-ligure/it_IT","mdm_site_category":"Conventional Fuel Site","formatted_address":"Via Circonvallazione n.20 (SP 35bis km 5+106)\nNovi Ligure, Alessandria, 15067","site_category":"conventional_fuel_site"},{"id":"10126840","name":"Massa","lat":44.029651,"lng":10.130691,"brand":"Shell","inactive":false,"type":0,"country_code":"IT","address":"Via Marina Vecchia 198","city":"Massa","state":"Massa Carrara","postcode":"54100","telephone":"","country":"Italy","amenities":["credit_card","credit_card_general","fleet_card_general","full_service","pay_at_pump","shell_card","manned"],"distance":143.58091519315,"driving_distance":null,"driving_duration":null,"website_url":"https://find.shell.com/it/fuel/10126840-massa/it_IT","mdm_site_category":"Conventional Fuel Site","formatted_address":"Via Marina Vecchia 198\nMassa, Massa Carrara, 54100","site_category":"conventional_fuel_site"},{"id":"10126704","name":"Seravezza","lat":43.979201,"lng":10.196958,"brand":"Shell","inactive":false,"type":0,"country_code":"IT","address":"Via Aurelia  Km 371+050 - Loc. Querceta","city":"Seravezza","state":"Lucca","postcode":"55047","telephone":"","country":"Italy","amenities":["credit_card","credit_card_general","fleet_card_general","full_service","pay_at_pump","shell_card","standard_toilet","manned"],"distance":146.36872720525,"driving_distance":null,"driving_duration":null,"website_url":"https://find.shell.com/it/fuel/10126704-seravezza/it_IT","mdm_site_category":"Conventional Fuel Site","formatted_address":"Via Aurelia  Km 371+050 - Loc. Querceta\nSeravezza, Lucca, 55047","site_category":"conventional_fuel_site"},{"id":"10126726","name":"Lucca","lat":43.97924,"lng":10.19696,"brand":"Shell","inactive":false,"type":0,"country_code":"IT","address":"Ss.12 Km.10+610","city":"Lucca","state":"Lucca","postcode":"55100","telephone":"","country":"Italy","amenities":["credit_card","credit_card_general","fleet_card_general","full_service","pay_at_pump","shell_card","standard_toilet","manned"],"distance":146.37041403855,"driving_distance":null,"driving_duration":null,"website_url":"https://find.shell.com/it/fuel/10126726-lucca/it_IT","mdm_site_category":"Conventional Fuel Site","formatted_address":"Ss.12 Km.10+610\nLucca, Lucca, 55100","site_category":"conventional_fuel_site"},{"id":"10126782","name":"Livorno","lat":43.532005,"lng":10.318109,"brand":"Shell","inactive":false,"type":0,"country_code":"IT","address":"Via N.Sauro 95","city":"Livorno","state":"Livorno","postcode":"57123","telephone":"","country":"Italy","amenities":["adblue_truck","credit_card","credit_card_general","fleet_card_general","full_service","pay_at_pump","shell_card","manned"],"distance":146.64653897376002,"driving_distance":null,"driving_duration":null,"website_url":"https://find.shell.com/it/fuel/10126782-livorno/it_IT","mdm_site_category":"Conventional Fuel Site","formatted_address":"Via N.Sauro 95\nLivorno, Livorno, 57123","site_category":"conventional_fuel_site"},{"id":"10126768","name":"Viareggio","lat":43.859356,"lng":10.2621,"brand":"Shell","inactive":false,"type":0,"country_code":"IT","address":"Via Nicola Pisano 181","city":"Viareggio","state":"Lucca","postcode":"55049","telephone":"","country":"Italy","amenities":["credit_card","credit_card_general","fleet_card_general","full_service","pay_at_pump","shell_card","manned"],"distance":147.22665688393,"driving_distance":null,"driving_duration":null,"website_url":"https://find.shell.com/it/fuel/10126768-viareggio/it_IT","mdm_site_category":"Conventional Fuel Site","formatted_address":"Via Nicola Pisano 181\nViareggio, Lucca, 55049","site_category":"conventional_fuel_site"},{"id":"10126681","name":"Viareggio","lat":43.868188,"lng":10.258991,"brand":"Shell","inactive":false,"type":0,"country_code":"IT","address":"L.Go Risorgimento 1","city":"Viareggio","state":"Lucca","postcode":"55049","telephone":"","country":"Italy","amenities":["credit_card","credit_card_general","fleet_card_general","full_service","pay_at_pump","shell_card","manned"],"distance":147.24602396173998,"driving_distance":null,"driving_duration":null,"website_url":"https://find.shell.com/it/fuel/10126681-viareggio/it_IT","mdm_site_category":"Conventional Fuel Site","formatted_address":"L.Go Risorgimento 1\nViareggio, Lucca, 55049","site_category":"conventional_fuel_site"},{"id":"10126671","name":"Livorno","lat":43.543204,"lng":10.326621,"brand":"Shell","inactive":false,"type":0,"country_code":"IT","address":"Viale Petrarca","city":"Livorno","state":"Livorno","postcode":"57123","telephone":"","country":"Italy","amenities":["credit_card","credit_card_general","fleet_card_general","full_service","pay_at_pump","shell_card","manned"],"distance":147.35434631112,"driving_distance":null,"driving_duration":null,"website_url":"https://find.shell.com/it/fuel/10126671-livorno/it_IT","mdm_site_category":"Conventional Fuel Site","formatted_address":"Viale Petrarca\nLivorno, Livorno, 57123","site_category":"conventional_fuel_site"},{"id":"10126667","name":"San Piero A Grado","lat":43.639013,"lng":10.355121,"brand":"Shell","inactive":false,"type":0,"country_code":"IT","address":"Via Livornese, 1287","city":"San Piero A Grado","state":"Pisa","postcode":"56100","telephone":"","country":"Italy","amenities":["credit_card","credit_card_general","fleet_card_general","full_service","pay_at_pump","shell_card","standard_toilet","manned"],"distance":150.25209256306,"driving_distance":null,"driving_duration":null,"website_url":"https://find.shell.com/it/fuel/10126667-san-piero-a-grado/it_IT","mdm_site_category":"Conventional Fuel Site","formatted_address":"Via Livornese, 1287\nSan Piero A Grado, Pisa, 56100","site_category":"conventional_fuel_site"},{"id":"10126752","name":"Rosignano Marittimo","lat":43.39763,"lng":10.430071,"brand":"Shell","inactive":false,"type":0,"country_code":"IT","address":"Via Aurelia 360","city":"Rosignano Marittimo","state":"Livorno","postcode":"57016","telephone":"","country":"Italy","amenities":["credit_card","credit_card_general","fleet_card_general","full_service","pay_at_pump","shell_card","standard_toilet","manned"],"distance":156.21940512906,"driving_distance":null,"driving_duration":null,"website_url":"https://find.shell.com/it/fuel/10126752-rosignano-marittimo/it_IT","mdm_site_category":"Conventional Fuel Site","formatted_address":"Via Aurelia 360\nRosignano Marittimo, Livorno, 57016","site_category":"conventional_fuel_site"},{"id":"10126742","name":"Navacchio","lat":43.689357,"lng":10.47464,"brand":"Shell","inactive":false,"type":2,"country_code":"IT","address":"Via Tosco Romagnola 2351","city":"Navacchio","state":"Pisa","postcode":"56021","telephone":"","country":"Italy","amenities":["credit_card","credit_card_general","fleet_card_general","full_service","hgv_lane","high_speed_diesel_pump","pay_at_pump","shell_card","standard_toilet","truck_parking","type_of_parking","manned"],"distance":160.40458775967,"driving_distance":null,"driving_duration":null,"website_url":"https://find.shell.com/it/fuel/10126742-navacchio/it_IT","mdm_site_category":"Conventional Fuel Site","formatted_address":"Via Tosco Romagnola 2351\nNavacchio, Pisa, 56021","site_category":"conventional_fuel_site"},{"id":"10126690","name":"Lucca","lat":43.850078,"lng":10.460973,"brand":"Shell","inactive":false,"type":0,"country_code":"IT","address":"Via Sarzanese 600","city":"Lucca","state":"Lucca","postcode":"55100","telephone":"","country":"Italy","amenities":["adblue_truck","credit_card","credit_card_general","fleet_card_general","full_service","pay_at_pump","shell_card","manned"],"distance":162.43764552199,"driving_distance":null,"driving_duration":null,"website_url":"https://find.shell.com/it/fuel/10126690-lucca/it_IT","mdm_site_category":"Conventional Fuel Site","formatted_address":"Via Sarzanese 600\nLucca, Lucca, 55100","site_category":"conventional_fuel_site"},{"id":"10126703","name":"Fiorenzuola D'Arda","lat":44.942211,"lng":9.889936,"brand":"Shell","inactive":false,"type":2,"country_code":"IT","address":"Via Emilia (SS 9 Km 241+923)","city":"Fiorenzuola D'Arda","state":"Piacenza","postcode":"29017","telephone":"","country":"Italy","amenities":["credit_card","credit_card_general","fleet_card_general","full_service","hgv_lane","high_speed_diesel_pump","pay_at_pump","shell_card","standard_toilet","truck_parking","type_of_parking","manned"],"distance":194.8919730812,"driving_distance":null,"driving_duration":null,"website_url":"https://find.shell.com/it/fuel/10126703-fiorenzuola-d-arda/it_IT","mdm_site_category":"Conventional Fuel Site","formatted_address":"Via Emilia (SS 9 Km 241+923)\nFiorenzuola D'Arda, Piacenza, 29017","site_category":"conventional_fuel_site"},{"id":"10126686","name":"Casalmaggiore","lat":44.983208,"lng":10.436318,"brand":"Shell","inactive":false,"type":0,"country_code":"IT","address":"S.P. 420 Sabbionetana Km 35+0.83","city":"Casalmaggiore","state":"Cremona","postcode":"26041","telephone":"","country":"Italy","amenities":["adblue_truck","credit_card","credit_card_general","fleet_card_general","full_service","pay_at_pump","shell_card","standard_toilet","manned"],"distance":225.80239738591,"driving_distance":null,"driving_duration":null,"website_url":"https://find.shell.com/it/fuel/10126686-casalmaggiore/it_IT","mdm_site_category":"Conventional Fuel Site","formatted_address":"S.P. 420 Sabbionetana Km 35+0.83\nCasalmaggiore, Cremona, 26041","site_category":"conventional_fuel_site"}],"clusters":[]}