{"locations":[{"id":"10126663","name":"Anghiari","lat":43.545461,"lng":12.023939,"brand":"Shell","inactive":false,"type":0,"country_code":"IT","address":"Via Provinciale Libbia 39","city":"Anghiari","state":"Arezzo","postcode":"52031","telephone":"","country":"Italy","amenities":["credit_card","credit_card_general","fleet_card_general","full_service","pay_at_pump","shell_card","manned"],"distance":38.71507984083,"driving_distance":null,"driving_duration":null,"website_url":"https://find.shell.com/it/fuel/10126663-anghiari/it_IT","mdm_site_category":"Conventional Fuel Site","formatted_address":"Via Provinciale Libbia 39\nAnghiari, Arezzo, 52031","site_category":"conventional_fuel_site"},{"id":"10126737","name":"Fabriano","lat":43.344397,"lng":12.974991,"brand":"Shell","inactive":false,"type":0,"country_code":"IT","address":"SS76 Ancona Perugia km 19+606","city":"Fabriano","state":"Ancona","postcode":"60044","telephone":"","country":"Italy","amenities":["credit_card","credit_card_general","fleet_card_general","full_service","pay_at_pump","shell_card","standard_toilet","manned"],"distance":42.08256704537,"driving_distance":null,"driving_duration":null,"website_url":"https://find.shell.com/it/fuel/10126737-fabriano/it_IT","mdm_site_category":"Conventional Fuel Site","formatted_address":"SS76 Ancona Perugia km 19+606\nFabriano, Ancona, 60044","site_category":"conventional_fuel_site"},{"id":"10126806","name":"Serra De' Conti","lat":43.560772,"lng":13.02676,"brand":"Shell","inactive":false,"type":0,"country_code":"IT","address":"S.S. 360 Arceviese Km 24 + 164,5","city":"Serra De' Conti","state":"Ancona","postcode":"60100","telephone":"","country":"Italy","amenities":["credit_card","credit_card_general","fleet_card_general","full_service","pay_at_pump","shell_card","manned"],"distance":43.0002713146,"driving_distance":null,"driving_duration":null,"website_url":"https://find.shell.com/it/fuel/10126806-serra-de-conti/it_IT","mdm_site_category":"Conventional Fuel Site","formatted_address":"S.S. 360 Arceviese Km 24 + 164,5\nSerra De' Conti, Ancona, 60100","site_category":"conventional_fuel_site"},{"id":"10126787","name":"Matelica","lat":43.270895,"lng":13.006152,"brand":"Shell","inactive":false,"type":0,"country_code":"IT","address":"SS 256 Muccese Km 28 + 528","city":"Matelica","state":"Macerata","postcode":"62024","telephone":"","country":"Italy","amenities":["credit_card","credit_card_general","fleet_card_general","full_service","pay_at_pump","shell_card","manned"],"distance":48.187175776720004,"driving_distance":null,"driving_duration":null,"website_url":"https://find.shell.com/it/fuel/10126787-matelica/it_IT","mdm_site_category":"Conventional Fuel Site","formatted_address":"SS 256 Muccese Km 28 + 528\nMatelica, Macerata, 62024","site_category":"conventional_fuel_site"},{"id":"10126670","name":"Arezzo","lat":43.458345,"lng":11.90099,"brand":"Shell","inactive":false,"type":0,"country_code":"IT","address":"Via Anconetana 102","city":"Arezzo","state":"Arezzo","postcode":"52100","telephone":"","country":"Italy","amenities":["credit_card","credit_card_general","fleet_card_general","full_service","pay_at_pump","shell_card","manned"],"distance":48.552977794170005,"driving_distance":null,"driving_duration":null,"website_url":"https://find.shell.com/it/fuel/10126670-arezzo/it_IT","mdm_site_category":"Conventional Fuel Site","formatted_address":"Via Anconetana 102\nArezzo, Arezzo, 52100","site_category":"conventional_fuel_site"},{"id":"10126842","name":"Corinaldo","lat":43.646321,"lng":13.080032,"brand":"Shell","inactive":false,"type":0,"country_code":"IT","address":"SP Corinaldese","city":"Corinaldo","state":"Ancona","postcode":"60013","telephone":"","country":"Italy","amenities":["credit_card","credit_card_general","fleet_card_general","full_service","pay_at_pump","shell_card","manned"],"distance":49.478957858449995,"driving_distance":null,"driving_duration":null,"website_url":"https://find.shell.com/it/fuel/10126842-corinaldo/it_IT","mdm_site_category":"Conventional Fuel Site","formatted_address":"SP Corinaldese\nCorinaldo, Ancona, 60013","site_category":"conventional_fuel_site"},{"id":"10126751","name":"San Lazzaro","lat":43.446222,"lng":11.859865,"brand":"Shell","inactive":false,"type":0,"country_code":"IT","address":"Via Romana Loc. S.Lazzaro","city":"San Lazzaro","state":"Arezzo","postcode":"52100","telephone":"","country":"Italy","amenities":["credit_card","credit_card_general","fleet_card_general","full_service","pay_at_pump","shell_card","manned"],"distance":51.99988013907,"driving_distance":null,"driving_duration":null,"website_url":"https://find.shell.com/it/fuel/10126751-san-lazzaro/it_IT","mdm_site_category":"Conventional Fuel Site","formatted_address":"Via Romana Loc. S.Lazzaro\nSan Lazzaro, Arezzo, 52100","site_category":"conventional_fuel_site"},{"id":"10126675","name":"Pesaro","lat":43.910357,"lng":12.890271,"brand":"Shell","inactive":false,"type":0,"country_code":"IT","address":"Via Ponchielli, 69","city":"Pesaro","state":"Pesaro e Urbino","postcode":"61100","telephone":"","country":"Italy","amenities":["credit_card","credit_card_general","fleet_card_general","full_service","pay_at_pump","shell_card","manned"],"distance":55.37337164766,"driving_distance":null,"driving_duration":null,"website_url":"https://find.shell.com/it/fuel/10126675-pesaro/it_IT","mdm_site_category":"Conventional Fuel Site","formatted_address":"Via Ponchielli, 69\nPesaro, Pesaro e Urbino, 61100","site_category":"conventional_fuel_site"},{"id":"10126841","name":"Jesi","lat":43.576576,"lng":13.325186,"brand":"Shell","inactive":false,"type":2,"country_code":"IT","address":"S.S. 76 Km. 67+504","city":"Jesi","state":"Ancona","postcode":"60035","telephone":"","country":"Italy","amenities":["adblue_truck","credit_card","credit_card_general","fleet_card_general","full_service","hgv_lane","high_speed_diesel_pump","pay_at_pump","shell_card","standard_toilet","truck_parking","type_of_parking","manned"],"distance":67.05818437960001,"driving_distance":null,"driving_duration":null,"website_url":"https://find.shell.com/it/fuel/10126841-jesi/it_IT","mdm_site_category":"Conventional Fuel Site","formatted_address":"S.S. 76 Km. 67+504\nJesi, Ancona, 60035","site_category":"conventional_fuel_site"},{"id":"10126810","name":"Chiaravalle","lat":43.611098,"lng":13.326426,"brand":"Shell","inactive":false,"type":0,"country_code":"IT","address":"Via Maestri del Lavoro","city":"Chiaravalle","state":"Ancona","postcode":"60033","telephone":"","country":"Italy","amenities":["credit_card","credit_card_general","fleet_card_general","full_service","pay_at_pump","shell_card","manned"],"distance":67.73234342323,"driving_distance":null,"driving_duration":null,"website_url":"https://find.shell.com/it/fuel/10126810-chiaravalle/it_IT","mdm_site_category":"Conventional Fuel Site","formatted_address":"Via Maestri del Lavoro\nChiaravalle, Ancona, 60033","site_category":"conventional_fuel_site"},{"id":"10126741","name":"Montevarchi","lat":43.502491,"lng":11.613262,"brand":"Shell","inactive":false,"type":0,"country_code":"IT","address":"S.S. 69 Loc. Levane","city":"Montevarchi","state":"Arezzo","postcode":"52025","telephone":"","country":"Italy","amenities":["credit_card","credit_card_general","fleet_card_general","full_service","pay_at_pump","shell_card","manned"],"distance":71.52129038595,"driving_distance":null,"driving_duration":null,"website_url":"https://find.shell.com/it/fuel/10126741-montevarchi/it_IT","mdm_site_category":"Conventional Fuel Site","formatted_address":"S.S. 69 Loc. Levane\nMontevarchi, Arezzo, 52025","site_category":"conventional_fuel_site"},{"id":"10126794","name":"Falconara","lat":43.612359,"lng":13.376081,"brand":"Shell","inactive":false,"type":0,"country_code":"IT","address":"Via Marconi - Loc. Castelferretti","city":"Falconara","state":"Ancona","postcode":"60015","telephone":"","country":"Italy","amenities":["credit_card","credit_card_general","fleet_card_general","full_service","pay_at_pump","shell_card","manned"],"distance":71.69385149832999,"driving_distance":null,"driving_duration":null,"website_url":"https://find.shell.com/it/fuel/10126794-falconara/it_IT","mdm_site_category":"Conventional Fuel Site","formatted_address":"Via Marconi - Loc. Castelferretti\nFalconara, Ancona, 60015","site_category":"conventional_fuel_site"},{"id":"10126767","name":"Falconara","lat":43.615907,"lng":13.394917,"brand":"Shell","inactive":false,"type":2,"country_code":"IT","address":"SS 16 Km 291+475 sx","city":"Falconara","state":"Ancona","postcode":"60015","telephone":"","country":"Italy","amenities":["credit_card","credit_card_general","fleet_card_general","full_service","hgv_lane","high_speed_diesel_pump","pay_at_pump","shell_card","standard_toilet","truck_parking","type_of_parking","manned"],"distance":73.25522850816999,"driving_distance":null,"driving_duration":null,"website_url":"https://find.shell.com/it/fuel/10126767-falconara/it_IT","mdm_site_category":"Conventional Fuel Site","formatted_address":"SS 16 Km 291+475 sx\nFalconara, Ancona, 60015","site_category":"conventional_fuel_site"},{"id":"10126797","name":"Ancona","lat":43.600363,"lng":13.449899,"brand":"Shell","inactive":false,"type":0,"country_code":"IT","address":"SP Vallone Km 1+  045- Loc. Torrette","city":"Ancona","state":"Ancona","postcode":"60121","telephone":"","country":"Italy","amenities":["credit_card","credit_card_general","fleet_card_general","full_service","pay_at_pump","shell_card","manned"],"distance":77.36201701339,"driving_distance":null,"driving_duration":null,"website_url":"https://find.shell.com/it/fuel/10126797-ancona/it_IT","mdm_site_category":"Conventional Fuel Site","formatted_address":"SP Vallone Km 1+  045- Loc. Torrette\nAncona, Ancona, 60121","site_category":"conventional_fuel_site"},{"id":"10126669","name":"Osimo","lat":43.499087,"lng":13.497053,"brand":"Shell","inactive":false,"type":0,"country_code":"IT","address":"SS 361 Km 5 + 060","city":"Osimo","state":"Ancona","postcode":"60027","telephone":"","country":"Italy","amenities":["credit_card","credit_card_general","fleet_card_general","full_service","pay_at_pump","shell_card","manned"],"distance":80.42055302352,"driving_distance":null,"driving_duration":null,"website_url":"https://find.shell.com/it/fuel/10126669-osimo/it_IT","mdm_site_category":"Conventional Fuel Site","formatted_address":"SS 361 Km 5 + 060\nOsimo, Ancona, 60027","site_category":"conventional_fuel_site"},{"id":"10126778","name":"Ancona","lat":43.582899,"lng":13.499733,"brand":"Shell","inactive":false,"type":0,"country_code":"IT","address":"Strada Vecchia del Pinocchio","city":"Ancona","state":"Ancona","postcode":"60127","telephone":"","country":"Italy","amenities":["credit_card","credit_card_general","fleet_card_general","full_service","pay_at_pump","shell_card","manned"],"distance":81.10616244895,"driving_distance":null,"driving_duration":null,"website_url":"https://find.shell.com/it/fuel/10126778-ancona/it_IT","mdm_site_category":"Conventional Fuel Site","formatted_address":"Strada Vecchia del Pinocchio\nAncona, Ancona, 60127","site_category":"conventional_fuel_site"},{"id":"10126682","name":"Ancona","lat":43.542552,"lng":13.509251,"brand":"Shell","inactive":false,"type":2,"country_code":"IT","address":"S.S.16 Km 307+100 (VIA 1. MAGGIO)","city":"Ancona","state":"Ancona","postcode":"60121","telephone":"","country":"Italy","amenities":["adblue_truck","credit_card","credit_card_general","fleet_card_general","full_service","hgv_lane","high_speed_diesel_pump","pay_at_pump","shell_card","truck_parking","type_of_parking","manned"],"distance":81.51247490627,"driving_distance":null,"driving_duration":null,"website_url":"https://find.shell.com/it/fuel/10126682-ancona/it_IT","mdm_site_category":"Conventional Fuel Site","formatted_address":"S.S.16 Km 307+100 (VIA 1. MAGGIO)\nAncona, Ancona, 60121","site_category":"conventional_fuel_site"},{"id":"10126818","name":"Ancona","lat":43.549784,"lng":13.509902,"brand":"Shell","inactive":false,"type":2,"country_code":"IT","address":"Via Albertini","city":"Ancona","state":"Ancona","postcode":"60100","telephone":"","country":"Italy","amenities":["adblue_truck","credit_card","credit_card_general","fleet_card_general","full_service","hgv_lane","high_speed_diesel_pump","pay_at_pump","shell_card","truck_parking","twenty_four_hour","type_of_parking","manned"],"distance":81.61060142942999,"driving_distance":null,"driving_duration":null,"website_url":"https://find.shell.com/it/fuel/10126818-ancona/it_IT","mdm_site_category":"Conventional Fuel Site","formatted_address":"Via Albertini\nAncona, Ancona, 60100","site_category":"conventional_fuel_site"},{"id":"10126798","name":"Camerano","lat":43.524773,"lng":13.523303,"brand":"Shell","inactive":false,"type":0,"country_code":"IT","address":"Via Farfica - Loc. Aspio Terme","city":"Camerano","state":"Ancona","postcode":"60021","telephone":"","country":"Italy","amenities":["credit_card","credit_card_general","fleet_card_general","full_service","pay_at_pump","shell_card","manned"],"distance":82.56614275147001,"driving_distance":null,"driving_duration":null,"website_url":"https://find.shell.com/it/fuel/10126798-camerano/it_IT","mdm_site_category":"Conventional Fuel Site","formatted_address":"Via Farfica - Loc. Aspio Terme\nCamerano, Ancona, 60021","site_category":"conventional_fuel_site"},{"id":"10126781","name":"Ancona","lat":43.586565,"lng":13.524738,"brand":"Shell","inactive":false,"type":0,"country_code":"IT","address":"SP Cameranense Km 0 + 100","city":"Ancona","state":"Ancona","postcode":"60121","telephone":"","country":"Italy","amenities":["credit_card","credit_card_general","fleet_card_general","full_service","pay_at_pump","shell_card","manned"],"distance":83.15255419044,"driving_distance":null,"driving_duration":null,"website_url":"https://find.shell.com/it/fuel/10126781-ancona/it_IT","mdm_site_category":"Conventional Fuel Site","formatted_address":"SP Cameranense Km 0 + 100\nAncona, Ancona, 60121","site_category":"conventional_fuel_site"},{"id":"10126843","name":"Cervia","lat":44.25561,"lng":12.339885,"brand":"Shell","inactive":false,"type":0,"country_code":"IT","address":"Via Romea Sud n.9 (SS 16 Adriatica Km 173+175)","city":null,"state":"Rimini","postcode":"48015","telephone":"","country":"Italy","amenities":["coca_cola_freestyle","credit_card","credit_card_general","fleet_card_general","full_service","pay_at_pump","shell_card","manned"],"distance":84.99452082751,"driving_distance":null,"driving_duration":null,"website_url":"https://find.shell.com/it/fuel/10126843-cervia/it_IT","mdm_site_category":"Conventional Fuel Site","formatted_address":"Via Romea Sud n.9 (SS 16 Adriatica Km 173+175)\nRimini, 48015","site_category":"conventional_fuel_site"},{"id":"10126683","name":"Incisa Valdarno","lat":43.653393,"lng":11.450929,"brand":"Shell","inactive":false,"type":0,"country_code":"IT","address":"Via Roma","city":"Incisa Valdarno","state":"Firenze","postcode":"50063","telephone":"","country":"Italy","amenities":["credit_card","credit_card_general","fleet_card_general","full_service","pay_at_pump","shell_card","standard_toilet","manned"],"distance":86.21192865839,"driving_distance":null,"driving_duration":null,"website_url":"https://find.shell.com/it/fuel/10126683-incisa-valdarno/it_IT","mdm_site_category":"Conventional Fuel Site","formatted_address":"Via Roma\nIncisa Valdarno, Firenze, 50063","site_category":"conventional_fuel_site"},{"id":"10126803","name":"Castelfidardo","lat":43.477706,"lng":13.619969,"brand":"Shell","inactive":false,"type":0,"country_code":"IT","address":"Via Musone","city":"Castelfidardo","state":"Ancona","postcode":"60022","telephone":"","country":"Italy","amenities":["credit_card","credit_card_general","fleet_card_general","full_service","pay_at_pump","shell_card","twenty_four_hour","manned"],"distance":90.38452265715,"driving_distance":null,"driving_duration":null,"website_url":"https://find.shell.com/it/fuel/10126803-castelfidardo/it_IT","mdm_site_category":"Conventional Fuel Site","formatted_address":"Via Musone\nCastelfidardo, Ancona, 60022","site_category":"conventional_fuel_site"},{"id":"10126777","name":"Orvieto","lat":42.717694,"lng":12.124048,"brand":"Shell","inactive":false,"type":0,"country_code":"IT","address":"Viale 1 Maggio, 123","city":"Orvieto","state":"Terni","postcode":"05018","telephone":"","country":"Italy","amenities":["credit_card","credit_card_general","fleet_card_general","full_service","pay_at_pump","shell_card","manned"],"distance":92.18669343514999,"driving_distance":null,"driving_duration":null,"website_url":"https://find.shell.com/it/fuel/10126777-orvieto/it_IT","mdm_site_category":"Conventional Fuel Site","formatted_address":"Viale 1 Maggio, 123\nOrvieto, Terni, 05018","site_category":"conventional_fuel_site"},{"id":"10126732","name":"Greve In Chianti","lat":43.587298,"lng":11.314827,"brand":"Shell","inactive":false,"type":0,"country_code":"IT","address":"Ss.222 Chiantigiana","city":"Greve In Chianti","state":"Firenze","postcode":"50022","telephone":"","country":"Italy","amenities":["credit_card","credit_card_general","fleet_card_general","full_service","pay_at_pump","shell_card","manned"],"distance":96.01572788259,"driving_distance":null,"driving_duration":null,"website_url":"https://find.shell.com/it/fuel/10126732-greve-in-chianti/it_IT","mdm_site_category":"Conventional Fuel Site","formatted_address":"Ss.222 Chiantigiana\nGreve In Chianti, Firenze, 50022","site_category":"conventional_fuel_site"},{"id":"10126701","name":"Vicchio Del Mugello Fi","lat":43.934004,"lng":11.458209,"brand":"Shell","inactive":false,"type":0,"country_code":"IT","address":"Via Martiri Campo Marte 10","city":"Vicchio Del Mugello Fi","state":"Firenze","postcode":"50039","telephone":"","country":"Italy","amenities":["credit_card","credit_card_general","fleet_card_general","full_service","pay_at_pump","shell_card","manned"],"distance":96.63749665446001,"driving_distance":null,"driving_duration":null,"website_url":"https://find.shell.com/it/fuel/10126701-vicchio-del-mugello-fi/it_IT","mdm_site_category":"Conventional Fuel Site","formatted_address":"Via Martiri Campo Marte 10\nVicchio Del Mugello Fi, Firenze, 50039","site_category":"conventional_fuel_site"},{"id":"10126661","name":"Siena","lat":43.324349,"lng":11.320681,"brand":"Shell","inactive":false,"type":0,"country_code":"IT","address":"Via Di Pescaia","city":"Siena","state":"Siena","postcode":"53100","telephone":"","country":"Italy","amenities":["credit_card","credit_card_general","fleet_card_general","full_service","pay_at_pump","shell_card","manned"],"distance":97.24062755348,"driving_distance":null,"driving_duration":null,"website_url":"https://find.shell.com/it/fuel/10126661-siena/it_IT","mdm_site_category":"Conventional Fuel Site","formatted_address":"Via Di Pescaia\nSiena, Siena, 53100","site_category":"conventional_fuel_site"},{"id":"10126789","name":"Monteurano","lat":43.206674,"lng":13.646931,"brand":"Shell","inactive":false,"type":0,"country_code":"IT","address":"S.P. Ete Morto","city":"Monteurano","state":"Ascoli Piceno","postcode":"63813","telephone":"","country":"Italy","amenities":["credit_card","credit_card_general","fleet_card_general","full_service","pay_at_pump","shell_card","manned"],"distance":98.30134396495001,"driving_distance":null,"driving_duration":null,"website_url":"https://find.shell.com/it/fuel/10126789-monteurano/it_IT","mdm_site_category":"Conventional Fuel Site","formatted_address":"S.P. Ete Morto\nMonteurano, Ascoli Piceno, 63813","site_category":"conventional_fuel_site"},{"id":"10126721","name":"Firenze","lat":43.756594,"lng":11.293393,"brand":"Shell","inactive":false,"type":0,"country_code":"IT","address":"V.Le Europa Ang. Via Albania","city":"Firenze","state":"Firenze","postcode":"50122","telephone":"","country":"Italy","amenities":["credit_card","credit_card_general","fleet_card_general","full_service","pay_at_pump","shell_card","manned"],"distance":101.21895435593,"driving_distance":null,"driving_duration":null,"website_url":"https://find.shell.com/it/fuel/10126721-firenze/it_IT","mdm_site_category":"Conventional Fuel Site","formatted_address":"V.Le Europa Ang. Via Albania\nFirenze, Firenze, 50122","site_category":"conventional_fuel_site"},{"id":"10126838","name":"Faenza","lat":44.303139,"lng":11.902708,"brand":"Shell","inactive":false,"type":0,"country_code":"IT","address":"Via Ravegnana n. 148 (SS 302 Km 101+970)","city":"Faenza","state":"Ravenna","postcode":"48018","telephone":"","country":"Italy","amenities":["credit_card","credit_card_general","fleet_card_general","full_service","pay_at_pump","shell_card","manned"],"distance":101.31798041672,"driving_distance":null,"driving_duration":null,"website_url":"https://find.shell.com/it/fuel/10126838-faenza/it_IT","mdm_site_category":"Conventional Fuel Site","formatted_address":"Via Ravegnana n. 148 (SS 302 Km 101+970)\nFaenza, Ravenna, 48018","site_category":"conventional_fuel_site"},{"id":"10126835","name":"San Casciano in Val di Pesa","lat":43.53827,"lng":11.220538,"brand":"Shell","inactive":false,"type":2,"country_code":"IT","address":"R.A. 3 Firenze - Siena Km 41 + 893","city":"San Casciano in Val di Pesa","state":"Pisa","postcode":"50020","telephone":"","country":"Italy","amenities":["credit_card","credit_card_general","fleet_card_general","full_service","hgv_lane","high_speed_diesel_pump","pay_at_pump","shell_card","truck_parking","type_of_parking","manned"],"distance":103.25291693026,"driving_distance":null,"driving_duration":null,"website_url":"https://find.shell.com/it/fuel/10126835-san-casciano-in-val-di-pesa/it_IT","mdm_site_category":"Conventional Fuel Site","formatted_address":"R.A. 3 Firenze - Siena Km 41 + 893\nSan Casciano in Val di Pesa, Pisa, 50020","site_category":"conventional_fuel_site"},{"id":"10126836","name":"Faenza","lat":44.328912,"lng":11.910498,"brand":"Shell","inactive":false,"type":2,"country_code":"IT","address":"Via Granarolo n. 211 (SP 8 Canale Naviglio km.1+400 sx)","city":"Faenza","state":"Ravenna","postcode":"48018","telephone":"","country":"Italy","amenities":["credit_card","credit_card_general","fleet_card_general","full_service","hgv_lane","high_speed_diesel_pump","pay_at_pump","shell_card","truck_parking","type_of_parking","manned"],"distance":103.56204106955,"driving_distance":null,"driving_duration":null,"website_url":"https://find.shell.com/it/fuel/10126836-faenza/it_IT","mdm_site_category":"Conventional Fuel Site","formatted_address":"Via Granarolo n. 211 (SP 8 Canale Naviglio km.1+400 sx)\nFaenza, Ravenna, 48018","site_category":"conventional_fuel_site"},{"id":"10126673","name":"Firenze","lat":43.76925,"lng":11.236813,"brand":"Shell","inactive":false,"type":0,"country_code":"IT","address":"V.Le Aleardi 45/47","city":"Firenze","state":"Firenze","postcode":"50122","telephone":"","country":"Italy","amenities":["credit_card","credit_card_general","fleet_card_general","full_service","pay_at_pump","shell_card","manned"],"distance":105.97448859628,"driving_distance":null,"driving_duration":null,"website_url":"https://find.shell.com/it/fuel/10126673-firenze/it_IT","mdm_site_category":"Conventional Fuel Site","formatted_address":"V.Le Aleardi 45/47\nFirenze, Firenze, 50122","site_category":"conventional_fuel_site"},{"id":"10126766","name":"Porto S. Elpidio","lat":43.2368,"lng":13.77013,"brand":"Shell","inactive":false,"type":0,"country_code":"IT","address":"Via Mazzini 368","city":"Porto S. Elpidio","state":"Ascoli Piceno","postcode":"63821","telephone":"","country":"Italy","amenities":["credit_card","credit_card_general","fleet_card_general","full_service","pay_at_pump","shell_card","manned"],"distance":106.75782583163,"driving_distance":null,"driving_duration":null,"website_url":"https://find.shell.com/it/fuel/10126766-porto-s-elpidio/it_IT","mdm_site_category":"Conventional Fuel Site","formatted_address":"Via Mazzini 368\nPorto S. Elpidio, Ascoli Piceno, 63821","site_category":"conventional_fuel_site"},{"id":"10126692","name":"Firenze","lat":43.80135,"lng":11.238012,"brand":"Shell","inactive":false,"type":0,"country_code":"IT","address":"Via Reginaldo Giuliani 126","city":"Firenze","state":"Firenze","postcode":"50122","telephone":"","country":"Italy","amenities":["credit_card","credit_card_general","fleet_card_general","full_service","pay_at_pump","shell_card","standard_toilet","manned"],"distance":106.92017780757999,"driving_distance":null,"driving_duration":null,"website_url":"https://find.shell.com/it/fuel/10126692-firenze/it_IT","mdm_site_category":"Conventional Fuel Site","formatted_address":"Via Reginaldo Giuliani 126\nFirenze, Firenze, 50122","site_category":"conventional_fuel_site"},{"id":"10126764","name":"Narni","lat":42.533445,"lng":12.556825,"brand":"Shell","inactive":false,"type":0,"country_code":"IT","address":"S.S. 3 Flaminia Km 90+250","city":"Narni","state":"Terni","postcode":"05035","telephone":"","country":"Italy","amenities":["credit_card","credit_card_general","fleet_card_general","full_service","pay_at_pump","shell_card","manned"],"distance":107.57540073041,"driving_distance":null,"driving_duration":null,"website_url":"https://find.shell.com/it/fuel/10126764-narni/it_IT","mdm_site_category":"Conventional Fuel Site","formatted_address":"S.S. 3 Flaminia Km 90+250\nNarni, Terni, 05035","site_category":"conventional_fuel_site"},{"id":"10126680","name":"Firenze","lat":43.770641,"lng":11.210157,"brand":"Shell","inactive":false,"type":0,"country_code":"IT","address":"Via B.Da Montelupo / V.Lunga","city":"Firenze","state":"Firenze","postcode":"50122","telephone":"","country":"Italy","amenities":["credit_card","credit_card_general","fleet_card_general","full_service","shell_card","manned"],"distance":108.07576128548,"driving_distance":null,"driving_duration":null,"website_url":"https://find.shell.com/it/fuel/10126680-firenze/it_IT","mdm_site_category":"Conventional Fuel Site","formatted_address":"Via B.Da Montelupo / V.Lunga\nFirenze, Firenze, 50122","site_category":"conventional_fuel_site"},{"id":"10126747","name":"Firenze","lat":43.764278,"lng":11.200658,"brand":"Shell","inactive":false,"type":0,"country_code":"IT","address":"Viale Pietro Nenni 39","city":"Firenze","state":"Firenze","postcode":"50143","telephone":"","country":"Italy","amenities":["credit_card","credit_card_general","fleet_card_general","full_service","pay_at_pump","shell_card","standard_toilet","manned"],"distance":108.62195142494,"driving_distance":null,"driving_duration":null,"website_url":"https://find.shell.com/it/fuel/10126747-firenze/it_IT","mdm_site_category":"Conventional Fuel Site","formatted_address":"Viale Pietro Nenni 39\nFirenze, Firenze, 50143","site_category":"conventional_fuel_site"},{"id":"10126823","name":"Scandicci","lat":43.760156,"lng":11.180311,"brand":"Shell","inactive":false,"type":0,"country_code":"IT","address":"V.Donizetti","city":"Scandicci","state":"Firenze","postcode":"50018","telephone":"","country":"Italy","amenities":["credit_card","credit_card_general","fleet_card_general","full_service","pay_at_pump","shell_card","manned"],"distance":110.08146116964,"driving_distance":null,"driving_duration":null,"website_url":"https://find.shell.com/it/fuel/10126823-scandicci/it_IT","mdm_site_category":"Conventional Fuel Site","formatted_address":"V.Donizetti\nScandicci, Firenze, 50018","site_category":"conventional_fuel_site"},{"id":"10126711","name":"Colle Val d'Elsa","lat":43.41879,"lng":11.140615,"brand":"Shell","inactive":false,"type":2,"country_code":"IT","address":"Loc. Cappuccini","city":"Colle Val d'Elsa","state":"Siena","postcode":"53034","telephone":"","country":"Italy","amenities":["credit_card","credit_card_general","fleet_card_general","full_service","hgv_lane","high_speed_diesel_pump","pay_at_pump","shell_card","standard_toilet","truck_parking","type_of_parking","manned"],"distance":110.08879728261999,"driving_distance":null,"driving_duration":null,"website_url":"https://find.shell.com/it/fuel/10126711-colle-val-d-elsa/it_IT","mdm_site_category":"Conventional Fuel Site","formatted_address":"Loc. Cappuccini\nColle Val d'Elsa, Siena, 53034","site_category":"conventional_fuel_site"},{"id":"10126828","name":"Ascoli Piceno","lat":42.8384,"lng":13.51154,"brand":"Shell","inactive":false,"type":0,"country_code":"IT","address":"S.S. 4 Salaria Km 173 + 899","city":"Ascoli Piceno","state":"Ascoli Piceno","postcode":"63100","telephone":"","country":"Italy","amenities":["credit_card","credit_card_general","fleet_card_general","full_service","pay_at_pump","shell_card","manned"],"distance":110.18784372493,"driving_distance":null,"driving_duration":null,"website_url":"https://find.shell.com/it/fuel/10126828-ascoli-piceno/it_IT","mdm_site_category":"Conventional Fuel Site","formatted_address":"S.S. 4 Salaria Km 173 + 899\nAscoli Piceno, Ascoli Piceno, 63100","site_category":"conventional_fuel_site"},{"id":"10126831","name":"Firenze","lat":43.800423,"lng":11.191417,"brand":"Shell","inactive":false,"type":2,"country_code":"IT","address":"Via Pratese 93","city":"Firenze","state":"Firenze","postcode":"50122","telephone":"","country":"Italy","amenities":["adblue_truck","credit_card","credit_card_general","fleet_card_general","full_service","hgv_lane","high_speed_diesel_pump","pay_at_pump","shell_card","truck_parking","type_of_parking","manned"],"distance":110.45586986807001,"driving_distance":null,"driving_duration":null,"website_url":"https://find.shell.com/it/fuel/10126831-firenze/it_IT","mdm_site_category":"Conventional Fuel Site","formatted_address":"Via Pratese 93\nFirenze, Firenze, 50122","site_category":"conventional_fuel_site"},{"id":"10126722","name":"Sesto Fiorentino","lat":43.841277,"lng":11.187502,"brand":"Shell","inactive":false,"type":0,"country_code":"IT","address":"Viale Pratese 68","city":"Sesto Fiorentino","state":"Firenze","postcode":"50019","telephone":"","country":"Italy","amenities":["credit_card","credit_card_general","fleet_card_general","full_service","pay_at_pump","shell_card","manned"],"distance":112.17599150506,"driving_distance":null,"driving_duration":null,"website_url":"https://find.shell.com/it/fuel/10126722-sesto-fiorentino/it_IT","mdm_site_category":"Conventional Fuel Site","formatted_address":"Viale Pratese 68\nSesto Fiorentino, Firenze, 50019","site_category":"conventional_fuel_site"},{"id":"10126691","name":"Lastra A Signa","lat":43.769575,"lng":11.11949,"brand":"Shell","inactive":false,"type":0,"country_code":"IT","address":"Via Livornese","city":"Lastra A Signa","state":"Firenze","postcode":"50055","telephone":"","country":"Italy","amenities":["credit_card","credit_card_general","fleet_card_general","full_service","pay_at_pump","shell_card","manned"],"distance":115.07149550565,"driving_distance":null,"driving_duration":null,"website_url":"https://find.shell.com/it/fuel/10126691-lastra-a-signa/it_IT","mdm_site_category":"Conventional Fuel Site","formatted_address":"Via Livornese\nLastra A Signa, Firenze, 50055","site_category":"conventional_fuel_site"},{"id":"10126730","name":"Prato","lat":43.880566,"lng":11.071803,"brand":"Shell","inactive":false,"type":2,"country_code":"IT","address":"Via Galcianese 93/G","city":"Prato","state":"Prato","postcode":"59100","telephone":"","country":"Italy","amenities":["credit_card","credit_card_general","fleet_card_general","full_service","hgv_lane","high_speed_diesel_pump","pay_at_pump","shell_card","truck_parking","type_of_parking","manned"],"distance":122.37890636762,"driving_distance":null,"driving_duration":null,"website_url":"https://find.shell.com/it/fuel/10126730-prato/it_IT","mdm_site_category":"Conventional Fuel Site","formatted_address":"Via Galcianese 93/G\nPrato, Prato, 59100","site_category":"conventional_fuel_site"},{"id":"10126807","name":"Rieti","lat":42.388948,"lng":12.833921,"brand":"Shell","inactive":false,"type":0,"country_code":"IT","address":"Via Piani 8","city":"Rieti","state":"Rieti","postcode":"02100","telephone":"","country":"Italy","amenities":["credit_card","credit_card_general","fleet_card_general","full_service","pay_at_pump","shell_card","standard_toilet","manned"],"distance":126.49769323132,"driving_distance":null,"driving_duration":null,"website_url":"https://find.shell.com/it/fuel/10126807-rieti/it_IT","mdm_site_category":"Conventional Fuel Site","formatted_address":"Via Piani 8\nRieti, Rieti, 02100","site_category":"conventional_fuel_site"},{"id":"10126738","name":"Volterra","lat":43.399573,"lng":10.868693,"brand":"Shell","inactive":false,"type":0,"country_code":"IT","address":"Borgo S Lazzaro  Ss68","city":"Volterra","state":"Pisa","postcode":"56048","telephone":"","country":"Italy","amenities":["credit_card","credit_card_general","fleet_card_general","full_service","pay_at_pump","shell_card","standard_toilet","manned"],"distance":132.15790712919,"driving_distance":null,"driving_duration":null,"website_url":"https://find.shell.com/it/fuel/10126738-volterra/it_IT","mdm_site_category":"Conventional Fuel Site","formatted_address":"Borgo S Lazzaro  Ss68\nVolterra, Pisa, 56048","site_category":"conventional_fuel_site"},{"id":"10126780","name":"Teramo","lat":42.652119,"lng":13.681626,"brand":"Shell","inactive":false,"type":0,"country_code":"IT","address":"Via Cona 134","city":"Teramo","state":"Teramo","postcode":"64100","telephone":"","country":"Italy","amenities":["credit_card","credit_card_general","fleet_card_general","full_service","pay_at_pump","shell_card","manned"],"distance":134.53271467462,"driving_distance":null,"driving_duration":null,"website_url":"https://find.shell.com/it/fuel/10126780-teramo/it_IT","mdm_site_category":"Conventional Fuel Site","formatted_address":"Via Cona 134\nTeramo, Teramo, 64100","site_category":"conventional_fuel_site"},{"id":"10126712","name":"Pistoia","lat":43.953006,"lng":10.900734,"brand":"Shell","inactive":false,"type":0,"country_code":"IT","address":"V.Le Adua 465","city":"Pistoia","state":"Pistoia","postcode":"51100","telephone":"","country":"Italy","amenities":["adblue_truck","credit_card","credit_card_general","fleet_card_general","full_service","pay_at_pump","shell_card","standard_toilet","manned"],"distance":138.02540455428,"driving_distance":null,"driving_duration":null,"website_url":"https://find.shell.com/it/fuel/10126712-pistoia/it_IT","mdm_site_category":"Conventional Fuel Site","formatted_address":"V.Le Adua 465\nPistoia, Pistoia, 51100","site_category":"conventional_fuel_site"},{"id":"10126746","name":"Grosseto","lat":42.771498,"lng":11.10632,"brand":"Shell","inactive":false,"type":0,"country_code":"IT","address":"Via Aurelia Nord, 56","city":"Grosseto","state":"Grosseto","postcode":"58100","telephone":"","country":"Italy","amenities":["adblue_truck","credit_card","credit_card_general","fleet_card_general","full_service","pay_at_pump","shell_card","standard_toilet","manned"],"distance":139.10352157903,"driving_distance":null,"driving_duration":null,"website_url":"https://find.shell.com/it/fuel/10126746-grosseto/it_IT","mdm_site_category":"Conventional Fuel Site","formatted_address":"Via Aurelia Nord, 56\nGrosseto, Grosseto, 58100","site_category":"conventional_fuel_site"},{"id":"10126755","name":"Grosseto","lat":42.746631,"lng":11.114828,"brand":"Shell","inactive":false,"type":0,"country_code":"IT","address":"SP Spadino","city":"Grosseto","state":"Grosseto","postcode":"58100","telephone":"","country":"Italy","amenities":["credit_card","credit_card_general","fleet_card_general","full_service","pay_at_pump","shell_card","manned"],"distance":140.19577218823002,"driving_distance":null,"driving_duration":null,"website_url":"https://find.shell.com/it/fuel/10126755-grosseto/it_IT","mdm_site_category":"Conventional Fuel Site","formatted_address":"SP Spadino\nGrosseto, Grosseto, 58100","site_category":"conventional_fuel_site"},{"id":"10126790","name":"Massa Marittima","lat":43.033122,"lng":10.884255,"brand":"Shell","inactive":false,"type":0,"country_code":"IT","address":"Loc. Schiantapetto","city":"Massa Marittima","state":"Grosseto","postcode":"58024","telephone":"","country":"Italy","amenities":["adblue_truck","credit_card","credit_card_general","fleet_card_general","full_service","pay_at_pump","shell_card","manned"],"distance":140.746546311,"driving_distance":null,"driving_duration":null,"website_url":"https://find.shell.com/it/fuel/10126790-massa-marittima/it_IT","mdm_site_category":"Conventional Fuel Site","formatted_address":"Loc. Schiantapetto\nMassa Marittima, Grosseto, 58024","site_category":"conventional_fuel_site"},{"id":"10126700","name":"S. Romano","lat":43.687745,"lng":10.765765,"brand":"Shell","inactive":false,"type":0,"country_code":"IT","address":"Via Matteotti 96 - Loc. San Romano","city":"S. Romano","state":"Pisa","postcode":"56020","telephone":"","country":"Italy","amenities":["credit_card","credit_card_general","fleet_card_general","full_service","pay_at_pump","shell_card","standard_toilet","manned"],"distance":141.21127290211,"driving_distance":null,"driving_duration":null,"website_url":"https://find.shell.com/it/fuel/10126700-s-romano/it_IT","mdm_site_category":"Conventional Fuel Site","formatted_address":"Via Matteotti 96 - Loc. San Romano\nS. Romano, Pisa, 56020","site_category":"conventional_fuel_site"},{"id":"10126774","name":"Gavorrano","lat":42.938427,"lng":10.887847,"brand":"Shell","inactive":false,"type":0,"country_code":"IT","address":"Bagno Via Curiel 10","city":"Gavorrano","state":"Grosseto","postcode":"58023","telephone":"","country":"Italy","amenities":["credit_card","credit_card_general","fleet_card_general","full_service","pay_at_pump","shell_card","standard_toilet","manned"],"distance":144.78980506922,"driving_distance":null,"driving_duration":null,"website_url":"https://find.shell.com/it/fuel/10126774-gavorrano/it_IT","mdm_site_category":"Conventional Fuel Site","formatted_address":"Bagno Via Curiel 10\nGavorrano, Grosseto, 58023","site_category":"conventional_fuel_site"},{"id":"10126827","name":"Santa Maria a Monte","lat":43.690774,"lng":10.708189,"brand":"Shell","inactive":false,"type":2,"country_code":"IT","address":"SP Nuova Francesca","city":"Santa Maria a Monte","state":"Pisa","postcode":"56020","telephone":"","country":"Italy","amenities":["credit_card","credit_card_general","fleet_card_general","full_service","hgv_lane","high_speed_diesel_pump","pay_at_pump","shell_card","truck_parking","type_of_parking","manned"],"distance":145.84341706598,"driving_distance":null,"driving_duration":null,"website_url":"https://find.shell.com/it/fuel/10126827-santa-maria-a-monte/it_IT","mdm_site_category":"Conventional Fuel Site","formatted_address":"SP Nuova Francesca\nSanta Maria a Monte, Pisa, 56020","site_category":"conventional_fuel_site"},{"id":"10126816","name":"Giulianova","lat":42.731944,"lng":13.959031,"brand":"Shell","inactive":false,"type":2,"country_code":"IT","address":"SS 80 Loc. Torre Savini","city":"Giulianova","state":"Teramo","postcode":"64021","telephone":"","country":"Italy","amenities":["adblue_truck","credit_card","credit_card_general","fleet_card_general","full_service","hgv_lane","high_speed_diesel_pump","pay_at_pump","shell_card","truck_parking","type_of_parking","manned"],"distance":146.00698643145,"driving_distance":null,"driving_duration":null,"website_url":"https://find.shell.com/it/fuel/10126816-giulianova/it_IT","mdm_site_category":"Conventional Fuel Site","formatted_address":"SS 80 Loc. Torre Savini\nGiulianova, Teramo, 64021","site_category":"conventional_fuel_site"},{"id":"10126771","name":"Pontedera","lat":43.641563,"lng":10.650638,"brand":"Shell","inactive":false,"type":0,"country_code":"IT","address":"Strada Prov.le  n. 11 delle Colline per Legoli KM 2+808","city":"Pontedera","state":"Pisa","postcode":"56038","telephone":"","country":"Italy","amenities":["adblue_truck","credit_card","credit_card_general","fleet_card_general","full_service","pay_at_pump","shell_card","standard_toilet","manned"],"distance":149.8170007047,"driving_distance":null,"driving_duration":null,"website_url":"https://find.shell.com/it/fuel/10126771-pontedera/it_IT","mdm_site_category":"Conventional Fuel Site","formatted_address":"Strada Prov.le  n. 11 delle Colline per Legoli KM 2+808\nPontedera, Pisa, 56038","site_category":"conventional_fuel_site"},{"id":"10126662","name":"Bologna","lat":44.515774,"lng":11.26572,"brand":"Shell","inactive":false,"type":2,"country_code":"IT","address":"Viale Alcide De Gasperi 277 - Borgo Panigale","city":"Bologna","state":"Bologna","postcode":"40132","telephone":"","country":"Italy","amenities":["adblue_truck","credit_card","credit_card_general","fleet_card_general","full_service","hgv_lane","high_speed_diesel_pump","pay_at_pump","shell_card","manned"],"distance":150.00218027537,"driving_distance":null,"driving_duration":null,"website_url":"https://find.shell.com/it/fuel/10126662-bologna/it_IT","mdm_site_category":"Conventional Fuel Site","formatted_address":"Viale Alcide De Gasperi 277 - Borgo Panigale\nBologna, Bologna, 40132","site_category":"conventional_fuel_site"},{"id":"10126757","name":"Follonica","lat":42.92591,"lng":10.756153,"brand":"Shell","inactive":false,"type":0,"country_code":"IT","address":"V.Bicocchi","city":"Follonica","state":"Grosseto","postcode":"58033","telephone":"","country":"Italy","amenities":["credit_card","credit_card_general","fleet_card_general","full_service","pay_at_pump","shell_card","manned"],"distance":155.06669412994998,"driving_distance":null,"driving_duration":null,"website_url":"https://find.shell.com/it/fuel/10126757-follonica/it_IT","mdm_site_category":"Conventional Fuel Site","formatted_address":"V.Bicocchi\nFollonica, Grosseto, 58033","site_category":"conventional_fuel_site"},{"id":"10126758","name":"Copparo","lat":44.889345,"lng":11.802105,"brand":"Shell","inactive":false,"type":0,"country_code":"IT","address":"Via Primicello n. 59 (SP Ferrara-Copparo Km 15+850)","city":"Copparo","state":"Ferrara","postcode":"44034","telephone":"","country":"Italy","amenities":["credit_card","credit_card_general","fleet_card_general","full_service","pay_at_pump","shell_card","standard_toilet","manned"],"distance":164.20033521214,"driving_distance":null,"driving_duration":null,"website_url":"https://find.shell.com/it/fuel/10126758-copparo/it_IT","mdm_site_category":"Conventional Fuel Site","formatted_address":"Via Primicello n. 59 (SP Ferrara-Copparo Km 15+850)\nCopparo, Ferrara, 44034","site_category":"conventional_fuel_site"},{"id":"10126808","name":"Città S. Angelo","lat":42.520755,"lng":14.118198,"brand":"Shell","inactive":false,"type":0,"country_code":"IT","address":"Viale Petruzzi, 108","city":"Città S. Angelo","state":"Pescara","postcode":"65013","telephone":"","country":"Italy","amenities":["adblue_car","adblue_truck","credit_card","credit_card_general","fleet_card_general","full_service","pay_at_pump","shell_card","standard_toilet","manned"],"distance":170.78111189376,"driving_distance":null,"driving_duration":null,"website_url":"https://find.shell.com/it/fuel/10126808-citta-s-angelo/it_IT","mdm_site_category":"Conventional Fuel Site","formatted_address":"Viale Petruzzi, 108\nCittà S. Angelo, Pescara, 65013","site_category":"conventional_fuel_site"},{"id":"10126748","name":"Finale Emilia","lat":44.825764,"lng":11.299698,"brand":"Shell","inactive":false,"type":0,"country_code":"IT","address":"Via per Cento n. 2/C","city":"Finale Emilia","state":"Modena","postcode":"41034","telephone":"","country":"Italy","amenities":["credit_card","credit_card_general","fleet_card_general","full_service","pay_at_pump","shell_card","standard_toilet","manned"],"distance":175.77685861357,"driving_distance":null,"driving_duration":null,"website_url":"https://find.shell.com/it/fuel/10126748-finale-emilia/it_IT","mdm_site_category":"Conventional Fuel Site","formatted_address":"Via per Cento n. 2/C\nFinale Emilia, Modena, 41034","site_category":"conventional_fuel_site"},{"id":"10126837","name":"Spoltore","lat":42.447733,"lng":14.180295,"brand":"Shell","inactive":false,"type":0,"country_code":"IT","address":"S.S. di Forca di Penne V.le Europa","city":"Spoltore","state":"Pescara","postcode":"65010","telephone":"","country":"Italy","amenities":["credit_card","credit_card_general","fleet_card_general","full_service","pay_at_pump","shell_card","standard_toilet","manned"],"distance":179.93403358704,"driving_distance":null,"driving_duration":null,"website_url":"https://find.shell.com/it/fuel/10126837-spoltore/it_IT","mdm_site_category":"Conventional Fuel Site","formatted_address":"S.S. di Forca di Penne V.le Europa\nSpoltore, Pescara, 65010","site_category":"conventional_fuel_site"},{"id":"10126773","name":"Manoppello","lat":42.299068,"lng":14.046574,"brand":"Shell","inactive":false,"type":2,"country_code":"IT","address":"SS 5 Tiburtina Valeria Km 208 + 685","city":"Manoppello","state":"Pescara","postcode":"65024","telephone":"","country":"Italy","amenities":["credit_card","credit_card_general","fleet_card_general","full_service","hgv_lane","high_speed_diesel_pump","pay_at_pump","shell_card","standard_toilet","truck_parking","type_of_parking","manned"],"distance":183.57585974855,"driving_distance":null,"driving_duration":null,"website_url":"https://find.shell.com/it/fuel/10126773-manoppello/it_IT","mdm_site_category":"Conventional Fuel Site","formatted_address":"SS 5 Tiburtina Valeria Km 208 + 685\nManoppello, Pescara, 65024","site_category":"conventional_fuel_site"},{"id":"10126745","name":"SHELL MEDULIN","lat":44.834197,"lng":13.922191,"brand":"Shell","inactive":false,"type":2,"country_code":"HR","address":"Biškupije 278","city":"Medulin","state":null,"postcode":"52203","telephone":"","country":"Croatia","amenities":["adblue_pack","adblue_truck","air_and_water","bottled_gas","cafe","credit_card","credit_card_general","disabled_facilities","fleet_card_general","food_offerings","full_service","hgv_lane","loyalty_cards","money_transfer_services","other_loyalty_cards","other_oil_change","pay_at_pump","shop","standard_toilet","wifi","manned"],"distance":186.74774869445002,"driving_distance":null,"driving_duration":null,"website_url":"https://find.shell.com/hr/fuel/10126745-shell-medulin/it_IT","mdm_site_category":"Conventional Fuel Site","formatted_address":"Biškupije 278\nMedulin, 52203","site_category":"conventional_fuel_site"},{"id":"10126736","name":"SHELL PULA TRŠĆANSKA","lat":44.88485,"lng":13.850525,"brand":"Shell","inactive":false,"type":2,"country_code":"HR","address":"Tršćanska ulica 44","city":"Pula","state":null,"postcode":"52100","telephone":"","country":"Croatia","amenities":["adblue_pack","adblue_truck","air_and_water","bottled_gas","cafe","credit_card","credit_card_general","disabled_facilities","fleet_card_general","food_offerings","full_service","hgv_lane","loyalty_cards","money_transfer_services","other_loyalty_cards","other_oil_change","pay_at_pump","shop","standard_toilet","wifi","manned"],"distance":187.89259636200998,"driving_distance":null,"driving_duration":null,"website_url":"https://find.shell.com/hr/fuel/10126736-shell-pula-trscanska/it_IT","mdm_site_category":"Conventional Fuel Site","formatted_address":"Tršćanska ulica 44\nPula, 52100","site_category":"conventional_fuel_site"},{"id":"10126707","name":"Dosolo","lat":44.938694,"lng":10.623169,"brand":"Shell","inactive":false,"type":0,"country_code":"IT","address":"Via Provinciale Sud n.18 (SP 57 Mantova S. Matteo Viadana Km","city":"Dosolo","state":"Mantova","postcode":"46030","telephone":"","country":"Italy","amenities":["credit_card","credit_card_general","fleet_card_general","full_service","pay_at_pump","shell_card","manned"],"distance":218.99028533805,"driving_distance":null,"driving_duration":null,"website_url":"https://find.shell.com/it/fuel/10126707-dosolo/it_IT","mdm_site_category":"Conventional Fuel Site","formatted_address":"Via Provinciale Sud n.18 (SP 57 Mantova S. Matteo Viadana Km\nDosolo, Mantova, 46030","site_category":"conventional_fuel_site"}],"clusters":[]}