{"locations":[{"id":"FR-279630057","name":"ESSO NICE ARENAS","lat":43.67001,"lng":7.22052,"site_brand":"bp","country_code":"FR","address":"ZAC ARENAS 123 BD RENE CASSIN","city":"NICE","state":null,"postcode":"06200","telephone":"+33 4 92 29 02 02","facilities":["car_wash","truck_suitable_site","toilet","shop","accepts_routex_cards","open_saturday","open_sunday"],"products":[],"website":null,"watchlist_id":null,"formatted_address":"ZAC ARENAS 123 BD RENE CASSIN\n06200\nNICE","channel_of_trade":null},{"id":"FR-432772455","name":"ESSO  MANDELIEU RELAIS LESTERE","lat":43.53705,"lng":6.93456,"site_brand":"bp","country_code":"FR","address":"ROUTE NATIONALE 7","city":"MANDELIEU","state":null,"postcode":"06210","telephone":"+33 4 93 49 50 47","facilities":["car_wash","toilet","shop","accepts_routex_cards","open_saturday","open_sunday"],"products":[],"website":null,"watchlist_id":null,"formatted_address":"ROUTE NATIONALE 7\n06210\nMANDELIEU","channel_of_trade":null},{"id":"FR-1946088280","name":"BP NICE FALICON","lat":43.7014,"lng":7.25789,"site_brand":"bp","country_code":"FR","address":"BD COMTE DE FALICON","city":"NICE","state":null,"postcode":"06100","telephone":"+33 4 93 51 15 70","facilities":["car_wash","truck_suitable_site","shop","accepts_routex_cards","open_saturday","open_sunday"],"products":[],"website":null,"watchlist_id":null,"formatted_address":"BD COMTE DE FALICON\n06100\nNICE","channel_of_trade":null},{"id":"FR-2011394877","name":"ESSO NICE GAMBETTA","lat":43.7075246,"lng":7.2560882,"site_brand":"bp","country_code":"FR","address":"123  BD GAMBETTA","city":"NICE","state":null,"postcode":"06000","telephone":"+33 4 93 96 66 02","facilities":["car_wash","toilet","shop","accepts_routex_cards","open_saturday","open_sunday"],"products":[],"website":null,"watchlist_id":null,"formatted_address":"123  BD GAMBETTA\n06000\nNICE","channel_of_trade":null},{"id":"FR-249205188","name":"STATION ESSO  NICE GORBELLA","lat":43.724378,"lng":7.2559968,"site_brand":"bp","country_code":"FR","address":"63 BD GORBELLA","city":"NICE","state":null,"postcode":"06100","telephone":"+33 4 93 51 80 08","facilities":["car_wash","toilet","shop","accepts_routex_cards","open_saturday","open_sunday"],"products":[],"website":null,"watchlist_id":null,"formatted_address":"63 BD GORBELLA\n06100\nNICE","channel_of_trade":null},{"id":"FR-856399524","name":"ESSO CAGNES MALVAN","lat":43.6600786,"lng":7.1379323,"site_brand":"bp","country_code":"FR","address":"36 AVENUE DES ALPES","city":"CAGNES SUR MER","state":null,"postcode":"06800","telephone":"+33 4 93 73 49 19","facilities":["car_wash","toilet","shop","accepts_routex_cards","open_saturday","open_sunday"],"products":[],"website":null,"watchlist_id":null,"formatted_address":"36 AVENUE DES ALPES\n06800\nCAGNES SUR MER","channel_of_trade":null},{"id":"FR-263901440","name":"ESSO SAINT MARTIN","lat":43.59972,"lng":6.99623,"site_brand":"bp","country_code":"FR","address":"1126 - 1064 AVENUE SAINT MARTIN","city":"MOUGINS","state":null,"postcode":"06250","telephone":"+33 4 93 75 51 01","facilities":["car_wash","high_speed_pump","truck_suitable_site","toilet","shop","accepts_routex_cards","open_saturday","open_sunday"],"products":[],"website":null,"watchlist_id":null,"formatted_address":"1126 - 1064 AVENUE SAINT MARTIN\n06250\nMOUGINS","channel_of_trade":null},{"id":"FR-1445780501","name":"ESSO  CAGNES PENETRANTE","lat":43.6700883,"lng":7.1251278,"site_brand":"bp","country_code":"FR","address":"5 AVENUE CHEIRON","city":"CAGNES SUR MER","state":null,"postcode":"06800","telephone":"+33 4 93 22 07 33","facilities":["car_wash","toilet","shop","accepts_routex_cards","open_saturday","open_sunday"],"products":[],"website":null,"watchlist_id":null,"formatted_address":"5 AVENUE CHEIRON\n06800\nCAGNES SUR MER","channel_of_trade":null},{"id":"FR-470716143","name":"ESSO FREJUS ST PONS","lat":43.43329929,"lng":6.728938446,"site_brand":"bp","country_code":"FR","address":"RD 37 QUARTIER ST PONS","city":"FREJUS","state":null,"postcode":"83600","telephone":"+33 4 94 53 14 75","facilities":["jet_wash","truck_suitable_site","wifi","supermarket","accepts_routex_cards","open_saturday","open_sunday"],"products":["ad_blue_pump","ad_blue"],"website":null,"watchlist_id":null,"formatted_address":"RD 37 QUARTIER ST PONS\n83600\nFREJUS","channel_of_trade":null},{"id":"FR-1388567739","name":"ESSO FREJUS TASSIGNY","lat":43.4301779,"lng":6.7576402,"site_brand":"bp","country_code":"FR","address":"1239 AV  DE LATTRE DE TASSIGNY","city":"FREJUS","state":null,"postcode":"83600","telephone":"+33 4 94 53 00 88","facilities":["car_wash","high_speed_pump","truck_suitable_site","toilet","shop","accepts_routex_cards","open_saturday","open_sunday"],"products":[],"website":null,"watchlist_id":null,"formatted_address":"1239 AV  DE LATTRE DE TASSIGNY\n83600\nFREJUS","channel_of_trade":null},{"id":"FR-576026768","name":"BP MENTON UNION","lat":43.7659602,"lng":7.487676,"site_brand":"bp","country_code":"FR","address":"1 AVENUE GENERAL DE GAULLE","city":"MENTON","state":null,"postcode":"06500","telephone":"+33 4 93 35 98 48","facilities":["car_wash","toilet","shop","accepts_routex_cards","open_saturday","open_sunday"],"products":[],"website":null,"watchlist_id":null,"formatted_address":"1 AVENUE GENERAL DE GAULLE\n06500\nMENTON","channel_of_trade":null},{"id":"FR-166798253","name":"ESSO CANNES VALLOMBROSA","lat":43.5529608,"lng":7.0067244,"site_brand":"bp","country_code":"FR","address":"19 21BD VALLOMBROSA","city":"CANNES","state":null,"postcode":"06400","telephone":"+33 4 93 39 52 53","facilities":["car_wash","toilet","shop","accepts_routex_cards","open_saturday","open_sunday"],"products":[],"website":null,"watchlist_id":null,"formatted_address":"19 21BD VALLOMBROSA\n06400\nCANNES","channel_of_trade":null},{"id":"FR-2098241335","name":"ESSO  DE LA PAOUTE","lat":43.63281,"lng":6.957609,"site_brand":"bp","country_code":"FR","address":"111 ROUTE DE LA PAOUTE","city":"LE PLAN DE GRASSE","state":null,"postcode":"06130","telephone":"+33 4 93 77 97 66","facilities":["truck_suitable_site","toilet","motorway_site","shop","accepts_routex_cards","open_saturday","open_sunday"],"products":[],"website":null,"watchlist_id":null,"formatted_address":"111 ROUTE DE LA PAOUTE\n06130\nLE PLAN DE GRASSE","channel_of_trade":null}],"clusters":[]}