{"locations":[{"id":"AT-347","name":"Afritz, Millstaetterstr. 85","lat":46.727661,"lng":13.785455,"site_brand":"bp","country_code":"AT","address":"Millstätterstraße 85","city":"Afritz am See","state":null,"postcode":"9542","telephone":"+43 4247 2747","facilities":["tobacco","toilet","shop","accepts_routex_cards","accepts_toll_payments","reminder_service","open_saturday","open_sunday"],"products":["ad_blue_cannister","diesel_on","red_diesel","ultimate","ultimate_diesel","ultimate_unleaded","unleaded_95"],"website":null,"watchlist_id":null,"formatted_address":"Millstätterstraße 85\n9542\nAfritz am See","channel_of_trade":null},{"id":"AT-350","name":"Altenmarkt im Pongau, Hauptstr. 21","lat":47.381305,"lng":13.4170064,"site_brand":"bp","country_code":"AT","address":"Obere Marktstraße 45","city":"Altenmarkt im Pongau","state":null,"postcode":"5541","telephone":"+43 6452 5660","facilities":["tobacco","car_wash","toilet","shop","accepts_routex_cards","accepts_toll_payments","reminder_service","open_saturday","open_sunday"],"products":["ad_blue_cannister","diesel_on","ultimate","ultimate_diesel","ultimate_unleaded","unleaded_95"],"website":null,"watchlist_id":null,"formatted_address":"Obere Marktstraße 45\n5541\nAltenmarkt im Pongau","channel_of_trade":null},{"id":"AT-373","name":"Bischofshofen, Salzburgerstr. 70","lat":47.4229426,"lng":13.2163699,"site_brand":"bp","country_code":"AT","address":"Salzburgerstraße 70","city":"Bischofshofen","state":null,"postcode":"5500","telephone":"+43 6462 2501","facilities":["tobacco","car_wash","high_speed_pump","truck_suitable_site","toilet","shop","accepts_routex_cards","accepts_toll_payments","reminder_service","open_saturday"],"products":["ad_blue_cannister","ad_blue_pump","diesel_on","red_diesel","ultimate","ultimate_diesel","ultimate_unleaded","unleaded_95","ad_blue"],"website":null,"watchlist_id":null,"formatted_address":"Salzburgerstraße 70\n5500\nBischofshofen","channel_of_trade":null},{"id":"AT-404","name":"Ferlach, Klagenfurterstr. 25","lat":46.528,"lng":14.2916,"site_brand":"bp","country_code":"AT","address":"Klagenfurter Straße 23","city":"Ferlach","state":null,"postcode":"9170","telephone":"+43 4227 30849","facilities":["tobacco","car_wash","high_speed_pump","truck_suitable_site","toilet","accepts_routex_cards","accepts_toll_payments","reminder_service","open_saturday","open_sunday"],"products":["ad_blue_cannister","diesel_on","red_diesel","ultimate","ultimate_diesel","ultimate_unleaded","unleaded_95"],"website":null,"watchlist_id":null,"formatted_address":"Klagenfurter Straße 23\n9170\nFerlach","channel_of_trade":null},{"id":"AT-441","name":"Gries am Brenner, Ost","lat":47.0392729,"lng":11.474931,"site_brand":"bp","country_code":"AT","address":"Ostufer","city":"Gries am Brenner","state":null,"postcode":"6156","telephone":"+43 5274 87310","facilities":["open_24_hours","tobacco","high_speed_pump","truck_parking","truck_suitable_site","toilet","wifi","motorway_site","shop","bakery_bistro","wild_bean_cafe","accepts_routex_cards","accepts_toll_payments","reminder_service","open_saturday","open_sunday"],"products":["ad_blue_cannister","ad_blue_pump","diesel_on","ultimate","ultimate_diesel","ultimate_unleaded","unleaded_95","ad_blue"],"website":null,"watchlist_id":null,"formatted_address":"Ostufer\n6156\nGries am Brenner","channel_of_trade":null},{"id":"AT-459","name":"Hall in Tirol, Pfannhausstr. 14","lat":47.2793,"lng":11.5014,"site_brand":"bp","country_code":"AT","address":"Pfannhausstraße 14","city":"Hall In Tirol","state":null,"postcode":"6060","telephone":"+43 5223 45005","facilities":["tobacco","car_wash","high_speed_pump","truck_suitable_site","toilet","accepts_routex_cards","accepts_toll_payments","reminder_service","open_saturday","open_sunday"],"products":["ad_blue_cannister","diesel_on","ultimate","ultimate_diesel","ultimate_unleaded","unleaded_95"],"website":null,"watchlist_id":null,"formatted_address":"Pfannhausstraße 14\n6060\nHall In Tirol","channel_of_trade":null},{"id":"AT-465","name":"Himmelberg, Schulstr. 8","lat":46.7514455,"lng":14.0353928,"site_brand":"bp","country_code":"AT","address":"Schulstraße 7","city":"Himmelberg","state":null,"postcode":"9562","telephone":"+43 4276 2254","facilities":["tobacco","car_wash","high_speed_pump","truck_suitable_site","toilet","accepts_routex_cards","accepts_toll_payments","reminder_service","open_saturday","open_sunday"],"products":["ad_blue_cannister","diesel_on","red_diesel","ultimate","ultimate_diesel","ultimate_unleaded","unleaded_95"],"website":null,"watchlist_id":null,"formatted_address":"Schulstraße 7\n9562\nHimmelberg","channel_of_trade":null},{"id":"AT-474","name":"Innsbruck/Ampass","lat":47.263278,"lng":11.453458,"site_brand":"bp","country_code":"AT","address":"A12","city":"Ampass","state":null,"postcode":"6070","telephone":"+43 512 346411","facilities":["open_24_hours","tobacco","high_speed_pump","truck_parking","truck_suitable_site","disabled_facilities","toilet","wifi","motorway_site","shop","bakery_bistro","restaurant","wild_bean_cafe","accepts_routex_cards","accepts_toll_payments","reminder_service","open_saturday","open_sunday"],"products":["ad_blue_cannister","ad_blue_pump","diesel_on","ultimate","ultimate_diesel","ultimate_unleaded","unleaded_95","ad_blue"],"website":null,"watchlist_id":null,"formatted_address":"A12\n6070\nAmpass","channel_of_trade":null},{"id":"AT-478","name":"Innsbruck, Kranebitterallee 30","lat":47.2645,"lng":11.3658,"site_brand":"bp","country_code":"AT","address":"Kranebitter Allee 30","city":"Innsbruck","state":null,"postcode":"6020","telephone":"+43 512 274514","facilities":["open_24_hours","tobacco","car_wash","high_speed_pump","truck_suitable_site","toilet","shop","bakery_bistro","wild_bean_cafe","accepts_routex_cards","accepts_toll_payments","reminder_service","open_saturday","open_sunday"],"products":["ad_blue_cannister","diesel_on","ultimate","ultimate_diesel","ultimate_unleaded","unleaded_95"],"website":null,"watchlist_id":null,"formatted_address":"Kranebitter Allee 30\n6020\nInnsbruck","channel_of_trade":null},{"id":"AT-489","name":"Kitzbuehel, St. Johannerstr. 30","lat":47.465024,"lng":12.386474,"site_brand":"bp","country_code":"AT","address":"St Johannerstraße 30","city":"Kitzbühel","state":null,"postcode":"6370","telephone":"+43 5356 64377","facilities":["tobacco","car_wash","high_speed_pump","truck_suitable_site","toilet","accepts_routex_cards","accepts_toll_payments","reminder_service","open_saturday","open_sunday"],"products":["ad_blue_cannister","diesel_on","ultimate","ultimate_diesel","ultimate_unleaded","unleaded_95"],"website":null,"watchlist_id":null,"formatted_address":"St Johannerstraße 30\n6370\nKitzbühel","channel_of_trade":null},{"id":"AT-562","name":"Nauders/Reschenpass, Bundesstr. 279","lat":46.8512474,"lng":10.5042976,"site_brand":"bp","country_code":"AT","address":"Bundesstraße 279","city":"Nauders/Reschenpass","state":null,"postcode":"6543","telephone":"+43 5473 87268","facilities":["tobacco","high_speed_pump","truck_suitable_site","toilet","shop","accepts_routex_cards","accepts_toll_payments","reminder_service","open_saturday","open_sunday"],"products":["ad_blue_cannister","diesel_on","ultimate","ultimate_diesel","ultimate_unleaded","unleaded_95"],"website":null,"watchlist_id":null,"formatted_address":"Bundesstraße 279\n6543\nNauders/Reschenpass","channel_of_trade":null},{"id":"AT-593","name":"Radstadt, Tauernstr. 27","lat":47.3791,"lng":13.4738,"site_brand":"bp","country_code":"AT","address":"Tauernstraße 27","city":"Radstadt","state":null,"postcode":"5550","telephone":"+43 6452 30921","facilities":["tobacco","car_wash","toilet","shop","accepts_routex_cards","accepts_toll_payments","reminder_service","open_saturday","open_sunday"],"products":["ad_blue_cannister","diesel_on","ultimate","ultimate_diesel","ultimate_unleaded","unleaded_95"],"website":null,"watchlist_id":null,"formatted_address":"Tauernstraße 27\n5550\nRadstadt","channel_of_trade":null},{"id":"AT-623","name":"Sillian, Arnbach 74","lat":46.7404073,"lng":12.3738622,"site_brand":"bp","country_code":"AT","address":"Arnbach 74","city":"Sillian","state":null,"postcode":"9920","telephone":"+43 4842 6311","facilities":["tobacco","high_speed_pump","truck_suitable_site","toilet","shop","accepts_routex_cards","accepts_toll_payments","reminder_service","open_saturday","open_sunday"],"products":["ad_blue_cannister","diesel_on","hvo","ultimate","ultimate_diesel","ultimate_unleaded","unleaded_95"],"website":null,"watchlist_id":null,"formatted_address":"Arnbach 74\n9920\nSillian","channel_of_trade":null},{"id":"AT-656","name":"St. Veit/Glan, Friesacherstr. 68","lat":46.7724658,"lng":14.3672964,"site_brand":"bp","country_code":"AT","address":"Friesacher Straße 68","city":"Sankt Veit an der Glan","state":null,"postcode":"9300","telephone":"+43 50 146 240","facilities":["tobacco","car_wash","high_speed_pump","truck_suitable_site","toilet","accepts_routex_cards","accepts_toll_payments","reminder_service","open_saturday","open_sunday"],"products":["ad_blue_cannister","ad_blue_pump","diesel_on","ultimate","ultimate_diesel","ultimate_unleaded","unleaded_95","ad_blue"],"website":null,"watchlist_id":null,"formatted_address":"Friesacher Straße 68\n9300\nSankt Veit an der Glan","channel_of_trade":null},{"id":"AT-668","name":"Trieben, Industriepark 2 an der A9/E57","lat":47.4938,"lng":14.4829,"site_brand":"bp","country_code":"AT","address":"Industriepark 2","city":"Trieben","state":null,"postcode":"8784","telephone":"+43 3615 5161","facilities":["open_24_hours","tobacco","high_speed_pump","truck_parking","truck_suitable_site","disabled_facilities","toilet","motorway_site","shop","bakery_bistro","wild_bean_cafe","accepts_routex_cards","accepts_toll_payments","reminder_service","open_saturday","open_sunday"],"products":["ad_blue_cannister","ad_blue_pump","diesel_on","electricity","hvo","ultimate","ultimate_diesel","ultimate_unleaded","unleaded_95","ad_blue"],"website":null,"watchlist_id":null,"formatted_address":"Industriepark 2\n8784\nTrieben","channel_of_trade":null},{"id":"AT-677","name":"Villach, Maria Gailer Str. 29","lat":46.604738,"lng":13.8648643,"site_brand":"bp","country_code":"AT","address":"Maria Gailer Straße 28B","city":"Villach","state":null,"postcode":"9500","telephone":"+43 4242 312706","facilities":["open_24_hours","tobacco","car_wash","high_speed_pump","truck_suitable_site","toilet","shop","bakery_bistro","wild_bean_cafe","accepts_routex_cards","accepts_toll_payments","reminder_service","open_saturday","open_sunday"],"products":["ad_blue_cannister","ad_blue_pump","diesel_on","ultimate","ultimate_diesel","ultimate_unleaded","unleaded_95","ad_blue"],"website":null,"watchlist_id":null,"formatted_address":"Maria Gailer Straße 28B\n9500\nVillach","channel_of_trade":null},{"id":"AT-679","name":"Villach, Ossiacherzeile 50A","lat":46.611777,"lng":13.8560069,"site_brand":"bp","country_code":"AT","address":"Ossiacherzeile 50 A","city":"Villach","state":null,"postcode":"9500","telephone":"+43 4242 24589","facilities":["open_24_hours","tobacco","car_wash","high_speed_pump","truck_suitable_site","toilet","shop","bakery_bistro","wild_bean_cafe","accepts_routex_cards","accepts_toll_payments","reminder_service","open_saturday","open_sunday"],"products":["ad_blue_cannister","diesel_on","ultimate","ultimate_diesel","ultimate_unleaded","unleaded_95"],"website":null,"watchlist_id":null,"formatted_address":"Ossiacherzeile 50 A\n9500\nVillach","channel_of_trade":null},{"id":"AT-690","name":"Weer, Inntalautobahn Nord","lat":47.3190793,"lng":11.6556023,"site_brand":"bp","country_code":"AT","address":"Inntalautobahn","city":"Weer","state":null,"postcode":"6114","telephone":"+43 5224 68388","facilities":["open_24_hours","tobacco","high_speed_pump","truck_parking","truck_suitable_site","disabled_facilities","toilet","wifi","motorway_site","shop","bakery_bistro","restaurant","wild_bean_cafe","accepts_routex_cards","accepts_toll_payments","reminder_service","open_saturday","open_sunday"],"products":["ad_blue_cannister","ad_blue_pump","diesel_on","hvo","ultimate","ultimate_diesel","ultimate_unleaded","unleaded_95","ad_blue"],"website":null,"watchlist_id":null,"formatted_address":"Inntalautobahn\n6114\nWeer","channel_of_trade":null},{"id":"AT-713","name":"Saalbach, Glemmtaler Landesstr. 386","lat":47.3890774,"lng":12.6423411,"site_brand":"bp","country_code":"AT","address":"Glemmtaler Landesstraße 386","city":"Saalbach","state":null,"postcode":"5753","telephone":"+43 50 8300 3350","facilities":["tobacco","high_speed_pump","truck_suitable_site","toilet","accepts_routex_cards","reminder_service","open_saturday","open_sunday"],"products":["ad_blue_cannister","ad_blue_pump","diesel_on","ultimate","ultimate_diesel","ultimate_unleaded","unleaded_95","ad_blue"],"website":null,"watchlist_id":null,"formatted_address":"Glemmtaler Landesstraße 386\n5753\nSaalbach","channel_of_trade":null},{"id":"AT-3674","name":"Jochberg, Nr. 440, Dorf 48","lat":47.3758,"lng":12.419,"site_brand":"bp","country_code":"AT","address":"Dorf 48","city":"Jochberg","state":null,"postcode":"6373","telephone":"+43 5355 5297","facilities":["tobacco","high_speed_pump","truck_suitable_site","toilet","accepts_routex_cards","reminder_service","open_saturday","open_sunday"],"products":["ad_blue_cannister","diesel_on","ultimate","ultimate_diesel","unleaded_95"],"website":null,"watchlist_id":null,"formatted_address":"Dorf 48\n6373\nJochberg","channel_of_trade":null},{"id":"AT-7060","name":"Aurach, Pass Thurn Str. 17","lat":47.4185,"lng":12.4216,"site_brand":"bp","country_code":"AT","address":"Pass Thurn Straße 17","city":"Aurach","state":null,"postcode":"6371","telephone":"+43 5356 6402016","facilities":["tobacco","high_speed_pump","truck_suitable_site","toilet","accepts_routex_cards","accepts_toll_payments","reminder_service"],"products":["ad_blue_cannister","diesel_on","ultimate","ultimate_diesel","ultimate_unleaded","unleaded_95"],"website":null,"watchlist_id":null,"formatted_address":"Pass Thurn Straße 17\n6371\nAurach","channel_of_trade":null},{"id":"AT-7062","name":"Lermoos, Gries 16","lat":47.4068591,"lng":10.8691182,"site_brand":"bp","country_code":"AT","address":"Gries 16","city":"Lermoos","state":null,"postcode":"6631","telephone":"+43 5673 2197","facilities":["tobacco","high_speed_pump","truck_suitable_site","toilet","shop","accepts_routex_cards","accepts_toll_payments","reminder_service","open_saturday","open_sunday"],"products":["ad_blue_cannister","diesel_on","ultimate","ultimate_diesel","ultimate_unleaded","unleaded_95"],"website":null,"watchlist_id":null,"formatted_address":"Gries 16\n6631\nLermoos","channel_of_trade":null},{"id":"AT-7064","name":"Telfs-Sagl, Nr. 8","lat":47.317125,"lng":11.093573,"site_brand":"bp","country_code":"AT","address":"Nr.8","city":"Telfs-Sagl","state":null,"postcode":"6410","telephone":"+43 5262 62277","facilities":["high_speed_pump","truck_suitable_site","toilet","accepts_routex_cards","accepts_toll_payments","reminder_service","open_saturday","open_sunday"],"products":["ad_blue_cannister","diesel_on","ultimate","ultimate_diesel","ultimate_unleaded","unleaded_95"],"website":null,"watchlist_id":null,"formatted_address":"Nr.8\n6410\nTelfs-Sagl","channel_of_trade":null},{"id":"AT-7069","name":"Neustift, Stubaitalstr. 81","lat":47.1115,"lng":11.3096,"site_brand":"bp","country_code":"AT","address":"Stubaitalstraße 81","city":"Neustift im Stubaital","state":null,"postcode":"6167","telephone":"+43 5226 3525","facilities":["tobacco","high_speed_pump","truck_suitable_site","toilet","accepts_routex_cards","reminder_service","open_saturday","open_sunday"],"products":["ad_blue_cannister","diesel_on","ultimate","ultimate_diesel","ultimate_unleaded","unleaded_95"],"website":null,"watchlist_id":null,"formatted_address":"Stubaitalstraße 81\n6167\nNeustift im Stubaital","channel_of_trade":null},{"id":"AT-8952","name":"Maishofen, Zellerstr. 29","lat":47.3507,"lng":12.8005,"site_brand":"bp","country_code":"AT","address":"Zellerstraße 29","city":"Maishofen","state":null,"postcode":"5751","telephone":"+43 6542 68056","facilities":["tobacco","car_wash","high_speed_pump","truck_suitable_site","toilet","merkur","shop","bakery_bistro","wild_bean_cafe","accepts_routex_cards","accepts_toll_payments","reminder_service","open_saturday","open_sunday"],"products":["ad_blue_cannister","diesel_on","natural_gas","ultimate","ultimate_diesel","ultimate_unleaded","unleaded_95"],"website":null,"watchlist_id":null,"formatted_address":"Zellerstraße 29\n5751\nMaishofen","channel_of_trade":null},{"id":"AT-9854","name":"Telfs, Bundesstr. 1","lat":47.307517,"lng":11.079287,"site_brand":"bp","country_code":"AT","address":"Untermarktstraße 61","city":"Telfs","state":null,"postcode":"6410","telephone":"+43 5262 62162","facilities":["tobacco","high_speed_pump","truck_suitable_site","toilet","shop","wild_bean_cafe","accepts_routex_cards","accepts_toll_payments","reminder_service","open_saturday","open_sunday"],"products":["ad_blue_cannister","diesel_on","ultimate","ultimate_diesel","ultimate_unleaded","unleaded_95"],"website":null,"watchlist_id":null,"formatted_address":"Untermarktstraße 61\n6410\nTelfs","channel_of_trade":null},{"id":"AT-9855","name":"Fuegen im Zillertal, Bundesstr. 271","lat":47.3454,"lng":11.8528,"site_brand":"bp","country_code":"AT","address":"Zillertalstraße 35","city":"Fügen","state":null,"postcode":"6263","telephone":"+43 5288 62413","facilities":["tobacco","high_speed_pump","truck_suitable_site","toilet","accepts_routex_cards","accepts_toll_payments","reminder_service","open_saturday","open_sunday"],"products":["ad_blue_cannister","diesel_on","ultimate","ultimate_diesel","ultimate_unleaded","unleaded_95"],"website":null,"watchlist_id":null,"formatted_address":"Zillertalstraße 35\n6263\nFügen","channel_of_trade":null},{"id":"AT-9866","name":"Friesach, Neumarkter Str. 32","lat":46.9600032,"lng":14.4010809,"site_brand":"bp","country_code":"AT","address":"Neumarkter Straße 32","city":"Friesach","state":null,"postcode":"9360","telephone":"+43 4268 2504","facilities":["tobacco","car_wash","high_speed_pump","truck_suitable_site","toilet","accepts_routex_cards","accepts_toll_payments","reminder_service","open_saturday","open_sunday"],"products":["ad_blue_cannister","ad_blue_pump","diesel_on","ultimate","ultimate_diesel","ultimate_unleaded","unleaded_95","ad_blue"],"website":null,"watchlist_id":null,"formatted_address":"Neumarkter Straße 32\n9360\nFriesach","channel_of_trade":null},{"id":"AT-9867","name":"Soelden, Dorfstr. 148","lat":46.9631,"lng":11.0077,"site_brand":"bp","country_code":"AT","address":"Dorfstraße 148","city":"Sölden","state":null,"postcode":"6450","telephone":"+43 5254 2466","facilities":["tobacco","car_wash","high_speed_pump","truck_suitable_site","toilet","shop","bakery_bistro","wild_bean_cafe","accepts_routex_cards","accepts_toll_payments","reminder_service","open_saturday","open_sunday"],"products":["ad_blue_cannister","diesel_on","ultimate","ultimate_diesel","ultimate_unleaded","unleaded_95"],"website":null,"watchlist_id":null,"formatted_address":"Dorfstraße 148\n6450\nSölden","channel_of_trade":null},{"id":"AT-9868","name":"Mutters, Innsbrucker Str. 24","lat":47.2302,"lng":11.3809,"site_brand":"bp","country_code":"AT","address":"Innsbrucker Straße 24","city":"Mutters","state":null,"postcode":"6162","telephone":"+43 5224 9090062","facilities":["tobacco","high_speed_pump","truck_suitable_site","toilet","accepts_routex_cards","accepts_toll_payments","reminder_service","open_saturday","open_sunday"],"products":["ad_blue_cannister","ad_blue_pump","diesel_on","lpg","ultimate","ultimate_diesel","ultimate_unleaded","unleaded_95","ad_blue"],"website":null,"watchlist_id":null,"formatted_address":"Innsbrucker Straße 24\n6162\nMutters","channel_of_trade":null},{"id":"AT-9869","name":"Moellbruecke, Moelltalstr. 33","lat":46.8367,"lng":13.3737,"site_brand":"bp","country_code":"AT","address":"Mölltalstraße 33","city":"Möllbrücke","state":null,"postcode":"9813","telephone":"+43 4769 2458","facilities":["tobacco","car_wash","high_speed_pump","truck_suitable_site","toilet","bakery_bistro","accepts_routex_cards","accepts_toll_payments","reminder_service","open_saturday","open_sunday"],"products":["ad_blue_cannister","diesel_on","ultimate","ultimate_diesel","ultimate_unleaded","unleaded_95"],"website":null,"watchlist_id":null,"formatted_address":"Mölltalstraße 33\n9813\nMöllbrücke","channel_of_trade":null},{"id":"AT-9877","name":"Innsbruck, Amraser Seestr. 10","lat":47.2609,"lng":11.4213,"site_brand":"bp","country_code":"AT","address":"Amraser Seestraße 10","city":"Innsbruck","state":null,"postcode":"6020","telephone":"+43 50 8300 4000","facilities":["alcohol","tobacco","high_speed_pump","truck_suitable_site","toilet","accepts_routex_cards","accepts_toll_payments","reminder_service","open_saturday","open_sunday"],"products":["ad_blue_cannister","ad_blue_pump","diesel_on","ultimate","ultimate_diesel","ultimate_unleaded","unleaded_95","ad_blue"],"website":null,"watchlist_id":null,"formatted_address":"Amraser Seestraße 10\n6020\nInnsbruck","channel_of_trade":null},{"id":"AT-9883","name":"Flachau/Tauernalm","lat":47.2488361,"lng":13.4247908,"site_brand":"bp","country_code":"AT","address":"Flachauwinklstraße 182","city":"Flachau/Tauernalm","state":null,"postcode":"5542","telephone":"+43 6457 33737","facilities":["open_24_hours","tobacco","high_speed_pump","truck_parking","truck_suitable_site","toilet","wifi","motorway_site","shop","bakery_bistro","restaurant","wild_bean_cafe","accepts_routex_cards","accepts_toll_payments","reminder_service","open_saturday","open_sunday"],"products":["ad_blue_cannister","ad_blue_pump","diesel_on","hvo","ultimate","ultimate_diesel","ultimate_unleaded","unleaded_95","ad_blue"],"website":null,"watchlist_id":null,"formatted_address":"Flachauwinklstraße 182\n5542\nFlachau/Tauernalm","channel_of_trade":null},{"id":"AT-9890","name":"Steinach am Brenner, Erlach 138","lat":47.0953,"lng":11.4655,"site_brand":"bp","country_code":"AT","address":"Erlach 138","city":"Steinach am Brenner","state":null,"postcode":"6150","telephone":"+43 5272 2260","facilities":["tobacco","car_wash","high_speed_pump","truck_suitable_site","toilet","shop","bakery_bistro","wild_bean_cafe","accepts_routex_cards","accepts_toll_payments","reminder_service","open_saturday","open_sunday"],"products":["ad_blue_cannister","diesel_on","ultimate","ultimate_diesel","ultimate_unleaded","unleaded_95"],"website":null,"watchlist_id":null,"formatted_address":"Erlach 138\n6150\nSteinach am Brenner","channel_of_trade":null},{"id":"AT-9899","name":"Brixen im Thale, Brixentalerstr. 13","lat":47.4449,"lng":12.2335,"site_brand":"bp","country_code":"AT","address":"Brixentalerstraße 13","city":"Brixen im Thale","state":null,"postcode":"6364","telephone":"+43 5334 2880","facilities":["tobacco","car_wash","high_speed_pump","truck_suitable_site","toilet","shop","wild_bean_cafe","accepts_routex_cards","accepts_toll_payments","reminder_service","open_saturday","open_sunday"],"products":["ad_blue_cannister","diesel_on","ultimate","ultimate_diesel","ultimate_unleaded","unleaded_95"],"website":null,"watchlist_id":null,"formatted_address":"Brixentalerstraße 13\n6364\nBrixen im Thale","channel_of_trade":null},{"id":"AT-9906","name":"Lienz, Iseltalerstr. 25","lat":46.8298,"lng":12.7547,"site_brand":"bp","country_code":"AT","address":"Iseltalerstraße 25","city":"Lienz","state":null,"postcode":"9900","telephone":"+43 4852 62659","facilities":["tobacco","car_wash","high_speed_pump","truck_suitable_site","toilet","merkur","shop","bakery_bistro","restaurant","wild_bean_cafe","accepts_routex_cards","accepts_toll_payments","reminder_service","open_saturday","open_sunday"],"products":["ad_blue_cannister","diesel_on","ultimate","ultimate_diesel","ultimate_unleaded","unleaded_95"],"website":null,"watchlist_id":null,"formatted_address":"Iseltalerstraße 25\n9900\nLienz","channel_of_trade":null},{"id":"AT-9911","name":"Imlau 65","lat":47.4603427,"lng":13.1987387,"site_brand":"bp","country_code":"AT","address":"Imlau  65","city":"Imlau","state":null,"postcode":"5452","telephone":"+43 6468 5327","facilities":["tobacco","car_wash","high_speed_pump","truck_suitable_site","toilet","shop","bakery_bistro","wild_bean_cafe","accepts_routex_cards","accepts_toll_payments","reminder_service","open_saturday","open_sunday"],"products":["ad_blue_cannister","diesel_on","ultimate","ultimate_diesel","ultimate_unleaded","unleaded_95"],"website":null,"watchlist_id":null,"formatted_address":"Imlau  65\n5452\nImlau","channel_of_trade":null},{"id":"AT-17881","name":"Virgen,Virgentalstr. 39","lat":47.0017508,"lng":12.4644121,"site_brand":"bp","country_code":"AT","address":"Virgentalstraße 39","city":"Virgen","state":null,"postcode":"9972","telephone":"+43 4874 5267","facilities":["toilet","accepts_routex_cards","reminder_service","open_saturday","open_sunday"],"products":["ad_blue_cannister","diesel_on","ultimate","ultimate_diesel","ultimate_unleaded","unleaded_95"],"website":null,"watchlist_id":null,"formatted_address":"Virgentalstraße 39\n9972\nVirgen","channel_of_trade":null},{"id":"AT-525656333","name":"Kundl, Schieferrollstrasse 17","lat":47.4671099,"lng":11.9900426,"site_brand":"bp","country_code":"AT","address":"Schieferrollstraße 17","city":"Kundl","state":null,"postcode":"6250","telephone":"+43 5338 861136","facilities":["alcohol","tobacco","high_speed_pump","truck_suitable_site","toilet","accepts_routex_cards","accepts_toll_payments","reminder_service","open_saturday","open_sunday"],"products":["ad_blue_cannister","diesel_on","ultimate","ultimate_diesel","ultimate_unleaded","unleaded_95"],"website":null,"watchlist_id":null,"formatted_address":"Schieferrollstraße 17\n6250\nKundl","channel_of_trade":null},{"id":"AT-825158955","name":"St. Johann, Bundesstrasse 2","lat":47.334402,"lng":13.1893444,"site_brand":"bp","country_code":"AT","address":"Bundesstraße 2","city":"St. Johann im Pongau","state":null,"postcode":"5600","telephone":"+43 50 8300 3250","facilities":["alcohol","tobacco","high_speed_pump","truck_suitable_site","disabled_facilities","toilet","bakery_bistro","accepts_routex_cards","accepts_toll_payments","reminder_service","open_saturday","open_sunday"],"products":["ad_blue_cannister","ad_blue_pump","diesel_on","natural_gas","ultimate","ultimate_diesel","ultimate_unleaded","unleaded_95","ad_blue"],"website":null,"watchlist_id":null,"formatted_address":"Bundesstraße 2\n5600\nSt. Johann im Pongau","channel_of_trade":null},{"id":"AT-1666260023","name":"St. Michael, Murtalerstrasse 579","lat":47.0954278,"lng":13.6385084,"site_brand":"bp","country_code":"AT","address":"Murtal Straße 579","city":"Sankt Michael im Lungau","state":null,"postcode":"5582","telephone":"+43 50 8300 3300","facilities":["alcohol","tobacco","high_speed_pump","truck_suitable_site","disabled_facilities","toilet","bakery_bistro","accepts_routex_cards","accepts_toll_payments","reminder_service","open_saturday","open_sunday"],"products":["ad_blue_cannister","ad_blue_pump","diesel_on","lpg","ultimate","ultimate_diesel","ultimate_unleaded","unleaded_95","ad_blue"],"website":null,"watchlist_id":null,"formatted_address":"Murtal Straße 579\n5582\nSankt Michael im Lungau","channel_of_trade":null},{"id":"AT-30818273","name":"Buch bei Jenbach, St. Margarethen 151b","lat":47.383316,"lng":11.771831,"site_brand":"bp","country_code":"AT","address":"St. Margarethen 151B","city":"Buch in Tirol","state":null,"postcode":"6220","telephone":"+43 1 522490900","facilities":["open_24_hours","accepts_routex_cards","reminder_service","open_saturday","open_sunday"],"products":["diesel_on","lpg","ultimate","ultimate_diesel","ultimate_unleaded","unleaded_95"],"website":null,"watchlist_id":"30818273","formatted_address":"St. Margarethen 151B\n6220\nBuch in Tirol","channel_of_trade":null},{"id":"AT-204660218","name":"Seefeld, Foehrenwald 498","lat":47.3279656,"lng":11.1986662,"site_brand":"bp","country_code":"AT","address":"Föhrenwand 498","city":"Seefeld in Tirol","state":null,"postcode":"6100","telephone":"+43 5212 20567","facilities":["tobacco","accepts_routex_cards","accepts_toll_payments","reminder_service","open_saturday","open_sunday"],"products":["ad_blue_cannister","ad_blue_pump","diesel_on","ultimate","ultimate_diesel","ultimate_unleaded","unleaded_95","ad_blue"],"website":null,"watchlist_id":null,"formatted_address":"Föhrenwand 498\n6100\nSeefeld in Tirol","channel_of_trade":null},{"id":"AT-58467099","name":"Innsbruck, Hallerstr. 164","lat":47.2754196,"lng":11.4340339,"site_brand":"bp","country_code":"AT","address":"Haller Straße 164","city":"Innsbruck","state":null,"postcode":"6020","telephone":"+43 512 260492","facilities":["tobacco","high_speed_pump","truck_suitable_site","accepts_routex_cards","accepts_toll_payments","reminder_service","open_saturday","open_sunday"],"products":["ad_blue_cannister","ad_blue_pump","diesel_on","ultimate","ultimate_diesel","ultimate_unleaded","unleaded_95","ad_blue"],"website":null,"watchlist_id":"58467099","formatted_address":"Haller Straße 164\n6020\nInnsbruck","channel_of_trade":null},{"id":"AT-1881041682","name":"T-HEITERWANG, FERNPASSSTRASSE","lat":47.4366856,"lng":10.7662369,"site_brand":"bp","country_code":"AT","address":"Gewerbegebiet 1","city":"Heiterwang","state":null,"postcode":"6611","telephone":"+43 676 4135228","facilities":["open_24_hours","accepts_routex_cards","accepts_toll_payments","open_saturday","open_sunday"],"products":["ad_blue_cannister","ad_blue_pump","diesel_on","lpg","ultimate","ultimate_diesel","ultimate_unleaded","unleaded_95","ad_blue"],"website":null,"watchlist_id":null,"formatted_address":"Gewerbegebiet 1\n6611\nHeiterwang","channel_of_trade":null},{"id":"AT-813823608","name":"K-TROEPOLACH, NR. 83","lat":46.615,"lng":13.2806,"site_brand":"bp","country_code":"AT","address":"Nr. 83","city":"Tröpolach","state":null,"postcode":"9631","telephone":"+43 4285 234","facilities":["open_24_hours","accepts_routex_cards","open_saturday","open_sunday"],"products":["ad_blue_cannister","ad_blue_pump","diesel_on","ultimate","ultimate_diesel","ultimate_unleaded","unleaded_95","ad_blue"],"website":null,"watchlist_id":null,"formatted_address":"Nr. 83\n9631\nTröpolach","channel_of_trade":null},{"id":"AT-48282150","name":"T-SOELL, WALD 1","lat":47.4994,"lng":12.1883,"site_brand":"bp","country_code":"AT","address":"Wald 1","city":"Söll","state":null,"postcode":"6306","telephone":"+43 50 8300","facilities":["accepts_routex_cards","accepts_toll_payments","reminder_service","open_saturday","open_sunday"],"products":["ad_blue_cannister","ad_blue_pump","diesel_on","ultimate","ultimate_diesel","ultimate_unleaded","unleaded_95","ad_blue"],"website":null,"watchlist_id":"48282150","formatted_address":"Wald 1\n6306\nSöll","channel_of_trade":null},{"id":"AT-745377994","name":"SEEBODEN,HAUPTSTRASSE 30","lat":46.8166,"lng":13.5101,"site_brand":"bp","country_code":"AT","address":"Hauptstraße 30","city":"Seeboden","state":null,"postcode":"9871","telephone":"+43 50 8300 7500","facilities":["open_24_hours","accepts_routex_cards","accepts_toll_payments","reminder_service","open_saturday","open_sunday"],"products":["ad_blue_pump","diesel_on","ultimate","ultimate_diesel","ultimate_unleaded","unleaded_95","ad_blue"],"website":null,"watchlist_id":null,"formatted_address":"Hauptstraße 30\n9871\nSeeboden","channel_of_trade":null},{"id":"AT-1172183815","name":"Maria Alm, Hochkönigstraße 9","lat":47.4079407,"lng":12.8942825,"site_brand":"bp","country_code":"AT","address":"Hochkönigstraße 9","city":"Maria Alm","state":null,"postcode":"5761","telephone":"+43 6584 7759","facilities":["toilet","shop","accepts_routex_cards","accepts_toll_payments","reminder_service","open_saturday","open_sunday"],"products":["ad_blue_cannister","diesel_on","ultimate","ultimate_diesel","unleaded_95"],"website":null,"watchlist_id":null,"formatted_address":"Hochkönigstraße 9\n5761\nMaria Alm","channel_of_trade":null},{"id":"AT-232628006","name":"GRIES/BRENNER,WESTUFER","lat":47.0378548,"lng":11.4732324,"site_brand":"bp","country_code":"AT","address":"Westufer","city":"Gries am Brenner","state":null,"postcode":"6156","telephone":"+43 5274 87288","facilities":["open_24_hours","wifi","motorway_site","shop","wild_bean_cafe","accepts_routex_cards","open_saturday","open_sunday"],"products":["ad_blue_cannister","ad_blue_pump","diesel_on","hvo","ultimate","ultimate_diesel","ultimate_unleaded","unleaded_95","ad_blue"],"website":null,"watchlist_id":null,"formatted_address":"Westufer\n6156\nGries am Brenner","channel_of_trade":null},{"id":"AT-819646853","name":"Wagrain, Markt 130","lat":47.3365068,"lng":13.3028488,"site_brand":"bp","country_code":"AT","address":"Markt 130","city":"Wagrain","state":null,"postcode":"5602","telephone":"+43 6413 8289","facilities":["toilet","shop","accepts_routex_cards","accepts_toll_payments","reminder_service","open_saturday","open_sunday"],"products":["ad_blue_cannister","ad_blue_pump","diesel_on","ultimate","ultimate_diesel","ultimate_unleaded","unleaded_95","ad_blue"],"website":null,"watchlist_id":null,"formatted_address":"Markt 130\n5602\nWagrain","channel_of_trade":null},{"id":"AT-1845146348","name":"Spittal an der Drau, Zgurner Str. 2","lat":46.782923,"lng":13.534306,"site_brand":"bp","country_code":"AT","address":"Zgurner Strasse 2","city":"Spittal an der Drau","state":null,"postcode":"9800","telephone":"+43 4762 37470","facilities":["toilet","shop","accepts_routex_cards","accepts_toll_payments","reminder_service","open_saturday","open_sunday"],"products":["ad_blue_cannister","ad_blue_pump","diesel_on","natural_gas","ultimate","ultimate_diesel","ultimate_unleaded","unleaded_95","ad_blue"],"website":null,"watchlist_id":null,"formatted_address":"Zgurner Strasse 2\n9800\nSpittal an der Drau","channel_of_trade":null},{"id":"AT-1677479754","name":"Thoerl-Maglern, Thoerl-Maglern 35","lat":46.544373,"lng":13.653962,"site_brand":"bp","country_code":"AT","address":"Thörl-Maglern 35","city":"Thörl-Maglern","state":null,"postcode":"9602","telephone":"+43 4255 82656","facilities":["open_24_hours","tobacco","high_speed_pump","truck_suitable_site","toilet","shop","accepts_routex_cards","accepts_toll_payments","reminder_service","open_saturday","open_sunday"],"products":["ad_blue_cannister","ad_blue_pump","diesel_on","lpg","ultimate","ultimate_diesel","ultimate_unleaded","unleaded_95","ad_blue"],"website":null,"watchlist_id":null,"formatted_address":"Thörl-Maglern 35\n9602\nThörl-Maglern","channel_of_trade":null},{"id":"AT-1268418690","name":"Radstadt, Salzburger Str. 43","lat":47.386639,"lng":13.450906,"site_brand":"bp","country_code":"AT","address":"Salzburger Straße 43","city":"Radstadt","state":null,"postcode":"5550","telephone":"+43 6452 4384","facilities":["toilet","accepts_routex_cards","accepts_toll_payments","reminder_service","open_saturday","open_sunday"],"products":["ad_blue_cannister","ad_blue_pump","diesel_on","ultimate","ultimate_diesel","ultimate_unleaded","unleaded_95","ad_blue"],"website":null,"watchlist_id":null,"formatted_address":"Salzburger Straße 43\n5550\nRadstadt","channel_of_trade":null},{"id":"AT-1289846694","name":"Taxenbach, Bundesstr. 6","lat":47.2932261,"lng":12.9690655,"site_brand":"bp","country_code":"AT","address":"Bundesstraße 6","city":"Taxenbach","state":null,"postcode":"5550","telephone":"+43 6543 6121","facilities":["toilet","shop","accepts_routex_cards","accepts_toll_payments","reminder_service","open_saturday","open_sunday"],"products":["ad_blue_cannister","diesel_on","ultimate","ultimate_diesel","ultimate_unleaded","unleaded_95"],"website":null,"watchlist_id":null,"formatted_address":"Bundesstraße 6\n5550\nTaxenbach","channel_of_trade":null},{"id":"AT-234664623","name":"Zell am See, Brucker Bundesstr. 57","lat":47.2968228,"lng":12.7960715,"site_brand":"bp","country_code":"AT","address":"Brucker Bundesstraße 57","city":"Zell am See","state":null,"postcode":"5700","telephone":"+43 6542 53858","facilities":["toilet","shop","accepts_routex_cards","accepts_toll_payments","reminder_service","open_saturday","open_sunday"],"products":["ad_blue_cannister","diesel_on","ultimate","ultimate_diesel","ultimate_unleaded","unleaded_95"],"website":null,"watchlist_id":null,"formatted_address":"Brucker Bundesstraße 57\n5700\nZell am See","channel_of_trade":null},{"id":"AT-2034212027","name":"T-INNSBRUCK, HALLERSTR. 100","lat":47.277588,"lng":11.424257,"site_brand":"bp","country_code":"AT","address":"Hallerstraße 100","city":"Innsbruck","state":null,"postcode":"6020","telephone":"+43 512 209094","facilities":["car_wash","shop","wild_bean_cafe","accepts_routex_cards","accepts_toll_payments","open_saturday","open_sunday"],"products":["ad_blue_cannister","diesel_on","ultimate","ultimate_diesel","ultimate_unleaded","unleaded_95"],"website":null,"watchlist_id":null,"formatted_address":"Hallerstraße 100\n6020\nInnsbruck","channel_of_trade":null}],"clusters":[]}