{"locations":[{"id":"AT-357","name":"Anger, Umfahrungsstr. 4","lat":47.2788429,"lng":15.6936064,"site_brand":"bp","country_code":"AT","address":"Umfahrungstraße 4","city":"Anger","state":null,"postcode":"8184","telephone":"+43 664 6384247","facilities":["toilet","shop","accepts_routex_cards","reminder_service","open_saturday","open_sunday"],"products":["ad_blue_cannister","diesel_on","ultimate","ultimate_diesel","ultimate_unleaded","unleaded_95"],"website":null,"watchlist_id":null,"formatted_address":"Umfahrungstraße 4\n8184\nAnger","channel_of_trade":null},{"id":"AT-360","name":"Arnwiesen","lat":47.105595,"lng":15.768947,"site_brand":"bp","country_code":"AT","address":"A-2 Südautobahn","city":"Arnwiesen-Gleisdorf","state":null,"postcode":"8200","telephone":"+43 3112 6744","facilities":["open_24_hours","tobacco","high_speed_pump","truck_parking","truck_suitable_site","disabled_facilities","toilet","wifi","motorway_site","shop","bakery_bistro","restaurant","wild_bean_cafe","accepts_routex_cards","accepts_toll_payments","reminder_service","open_saturday","open_sunday"],"products":["ad_blue_cannister","ad_blue_pump","diesel_on","ultimate","ultimate_diesel","ultimate_unleaded","unleaded_95","ad_blue"],"website":null,"watchlist_id":null,"formatted_address":"A-2 Südautobahn\n8200\nArnwiesen-Gleisdorf","channel_of_trade":null},{"id":"AT-383","name":"Brueckl, Klagenfurterstr. 10","lat":46.7462676,"lng":14.5309163,"site_brand":"bp","country_code":"AT","address":"Klagenfurter Straße 10","city":"Brückl","state":null,"postcode":"9371","telephone":"+43 4214 2508","facilities":["tobacco","toilet","shop","accepts_routex_cards","accepts_toll_payments","reminder_service","open_saturday"],"products":["ad_blue_cannister","diesel_on","ultimate","ultimate_diesel","ultimate_unleaded","unleaded_95"],"website":null,"watchlist_id":null,"formatted_address":"Klagenfurter Straße 10\n9371\nBrückl","channel_of_trade":null},{"id":"AT-429","name":"Gratkorn, Harterstr. 8","lat":47.1221,"lng":15.3604,"site_brand":"bp","country_code":"AT","address":"Harter Straße 8","city":"Gratkorn","state":null,"postcode":"8101","telephone":"+43 3124 290291","facilities":["tobacco","high_speed_pump","truck_suitable_site","toilet","shop","wild_bean_cafe","accepts_routex_cards","accepts_toll_payments","reminder_service","open_saturday","open_sunday"],"products":["ad_blue_cannister","ad_blue_pump","diesel_on","ultimate","ultimate_diesel","ultimate_unleaded","unleaded_95","ad_blue"],"website":null,"watchlist_id":null,"formatted_address":"Harter Straße 8\n8101\nGratkorn","channel_of_trade":null},{"id":"AT-433","name":"Graz, Froehlichgasse 45","lat":47.0559,"lng":15.4483,"site_brand":"bp","country_code":"AT","address":"Fröhlichgasse 45","city":"Graz","state":null,"postcode":"8010","telephone":"+43 316 472595","facilities":["open_24_hours","tobacco","high_speed_pump","truck_suitable_site","toilet","shop","bakery_bistro","wild_bean_cafe","accepts_routex_cards","accepts_toll_payments","reminder_service","open_saturday","open_sunday"],"products":["ad_blue_cannister","diesel_on","ultimate","ultimate_diesel","ultimate_unleaded","unleaded_95"],"website":null,"watchlist_id":null,"formatted_address":"Fröhlichgasse 45\n8010\nGraz","channel_of_trade":null},{"id":"AT-463","name":"Heiligenkreuz am Waasen, Liebensdorf 36","lat":46.9822,"lng":15.5648,"site_brand":"bp","country_code":"AT","address":"Liebensdorf 36","city":"Heiligenkreuz am Waasen","state":null,"postcode":"8081","telephone":"+43 3134 2313","facilities":["tobacco","high_speed_pump","truck_suitable_site","toilet","shop","accepts_routex_cards","accepts_toll_payments","reminder_service","open_saturday"],"products":["ad_blue_cannister","diesel_on","red_diesel","ultimate","ultimate_diesel","ultimate_unleaded","unleaded_95"],"website":null,"watchlist_id":null,"formatted_address":"Liebensdorf 36\n8081\nHeiligenkreuz am Waasen","channel_of_trade":null},{"id":"AT-538","name":"Graz, Muenzgrabenstr. 121","lat":47.0568059,"lng":15.4536062,"site_brand":"bp","country_code":"AT","address":"Münzgrabenstraße 121","city":"Graz","state":null,"postcode":"8010","telephone":"+43 316 465444","facilities":["tobacco","high_speed_pump","truck_suitable_site","toilet","shop","bakery_bistro","wild_bean_cafe","accepts_routex_cards","accepts_toll_payments","reminder_service","open_saturday","open_sunday"],"products":["ad_blue_cannister","diesel_on","ultimate","ultimate_diesel","ultimate_unleaded","unleaded_95"],"website":null,"watchlist_id":null,"formatted_address":"Münzgrabenstraße 121\n8010\nGraz","channel_of_trade":null},{"id":"AT-641","name":"St. Michael, Bundesstr. 59","lat":47.3503359,"lng":15.0085854,"site_brand":"bp","country_code":"AT","address":"Bundesstraße 59","city":"Sankt Michael in Obersteiermark","state":null,"postcode":"8770","telephone":"+43 3843 5116","facilities":["tobacco","car_wash","high_speed_pump","truck_suitable_site","toilet","shop","accepts_routex_cards","accepts_toll_payments","reminder_service","open_saturday","open_sunday"],"products":["ad_blue_cannister","diesel_on","red_diesel","ultimate","ultimate_diesel","ultimate_unleaded","unleaded_95"],"website":null,"watchlist_id":null,"formatted_address":"Bundesstraße 59\n8770\nSankt Michael in Obersteiermark","channel_of_trade":null},{"id":"AT-669","name":"Trofaiach, Hauptstr. 9A","lat":47.420513,"lng":15.0140597,"site_brand":"bp","country_code":"AT","address":"Hauptstraße 9A","city":"Trofaiach","state":null,"postcode":"8793","telephone":"+43 3847 2879","facilities":["tobacco","car_wash","high_speed_pump","truck_suitable_site","toilet","shop","accepts_routex_cards","accepts_toll_payments","reminder_service","open_saturday","open_sunday"],"products":["ad_blue_cannister","diesel_on","red_diesel","ultimate","ultimate_diesel","ultimate_unleaded","unleaded_95"],"website":null,"watchlist_id":null,"formatted_address":"Hauptstraße 9A\n8793\nTrofaiach","channel_of_trade":null},{"id":"AT-8945","name":"Leoben-Goess, Hirschgraben 7","lat":47.3640164,"lng":15.0961791,"site_brand":"bp","country_code":"AT","address":"Hirschgraben","city":"Leoben-Goess","state":null,"postcode":"8707","telephone":"+43 3842 22194","facilities":["open_24_hours","tobacco","car_wash","high_speed_pump","truck_suitable_site","toilet","merkur","shop","bakery_bistro","wild_bean_cafe","accepts_routex_cards","accepts_toll_payments","reminder_service","open_saturday","open_sunday"],"products":["ad_blue_cannister","diesel_on","ultimate","ultimate_diesel","ultimate_unleaded","unleaded_95"],"website":null,"watchlist_id":null,"formatted_address":"Hirschgraben\n8707\nLeoben-Goess","channel_of_trade":null},{"id":"AT-8946","name":"Knittelfeld, Wiener Str. 51","lat":47.2202,"lng":14.829,"site_brand":"bp","country_code":"AT","address":"Wiener Straße 51","city":"Knittelfeld","state":null,"postcode":"8720","telephone":"+43 3512 83710","facilities":["tobacco","car_wash","high_speed_pump","truck_suitable_site","toilet","accepts_routex_cards","accepts_toll_payments","reminder_service","open_saturday","open_sunday"],"products":["ad_blue_cannister","ad_blue_pump","diesel_on","ultimate","ultimate_diesel","ultimate_unleaded","unleaded_95","ad_blue"],"website":null,"watchlist_id":null,"formatted_address":"Wiener Straße 51\n8720\nKnittelfeld","channel_of_trade":null},{"id":"AT-9872","name":"Weiz, Gleisdorfer Str. 60","lat":47.2123,"lng":15.6293,"site_brand":"bp","country_code":"AT","address":"Gleisdorfer Straße 60","city":"Weiz","state":null,"postcode":"8160","telephone":"+43 3172 41724","facilities":["tobacco","car_wash","high_speed_pump","truck_suitable_site","toilet","merkur","shop","bakery_bistro","wild_bean_cafe","accepts_routex_cards","accepts_toll_payments","reminder_service","open_saturday","open_sunday"],"products":["ad_blue_cannister","diesel_on","ultimate","ultimate_diesel","ultimate_unleaded","unleaded_95"],"website":null,"watchlist_id":null,"formatted_address":"Gleisdorfer Straße 60\n8160\nWeiz","channel_of_trade":null},{"id":"AT-9876","name":"Fladnitz, Schrems 3","lat":47.2685733,"lng":15.4807577,"site_brand":"bp","country_code":"AT","address":"Schrems 3","city":"Fladnitz","state":null,"postcode":"8163","telephone":"+43 3179 6132","facilities":["tobacco","car_wash","high_speed_pump","truck_suitable_site","truck_wash","toilet","shop","restaurant","accepts_routex_cards","accepts_toll_payments","reminder_service","open_saturday","open_sunday"],"products":["ad_blue_cannister","diesel_on","ultimate","ultimate_diesel","ultimate_unleaded","unleaded_95"],"website":null,"watchlist_id":null,"formatted_address":"Schrems 3\n8163\nFladnitz","channel_of_trade":null},{"id":"AT-9898","name":"Graz, Puntigamer Str. 130","lat":47.0335,"lng":15.4427,"site_brand":"bp","country_code":"AT","address":"Puntigamer Straße 130","city":"Graz","state":null,"postcode":"8055","telephone":"+43 316 292492","facilities":["open_24_hours","tobacco","car_wash","high_speed_pump","truck_suitable_site","toilet","merkur","shop","bakery_bistro","wild_bean_cafe","accepts_routex_cards","accepts_toll_payments","reminder_service","open_saturday","open_sunday"],"products":["ad_blue_cannister","ad_blue_pump","diesel_on","ultimate","ultimate_diesel","ultimate_unleaded","unleaded_95","ad_blue"],"website":null,"watchlist_id":null,"formatted_address":"Puntigamer Straße 130\n8055\nGraz","channel_of_trade":null},{"id":"AT-1312950519","name":"ST-EIBISWALD, AIBL 72","lat":46.681945,"lng":15.230276,"site_brand":"bp","country_code":"AT","address":"Aibl 72","city":"Eibiswald","state":null,"postcode":"8552","telephone":"+43 3466 42318","facilities":["car_wash","accepts_routex_cards","accepts_toll_payments","reminder_service","open_saturday","open_sunday"],"products":["ad_blue_cannister","ad_blue_pump","diesel_on","ultimate","ultimate_diesel","ultimate_unleaded","unleaded_95","ad_blue"],"website":null,"watchlist_id":null,"formatted_address":"Aibl 72\n8552\nEibiswald","channel_of_trade":null},{"id":"AT-1563497945","name":"Schaeffern, Gewerbepark 10","lat":47.480713,"lng":16.091953,"site_brand":"bp","country_code":"AT","address":"Gewerbepark 10","city":"Schäffern","state":null,"postcode":"8244","telephone":"+43 3339 70365","facilities":["open_24_hours","high_speed_pump","truck_suitable_site","restaurant","accepts_routex_cards","accepts_toll_payments","reminder_service","open_saturday","open_sunday"],"products":["ad_blue_cannister","ad_blue_pump","diesel_on","ultimate","ultimate_diesel","ultimate_unleaded","unleaded_95","ad_blue"],"website":null,"watchlist_id":null,"formatted_address":"Gewerbepark 10\n8244\nSchäffern","channel_of_trade":null},{"id":"AT-1818254620","name":"Leoben, Ostererweg 2a","lat":47.3802672,"lng":15.1070368,"site_brand":"bp","country_code":"AT","address":"Ostererweg 2a","city":"Leoben","state":null,"postcode":"8700","telephone":"+43 3842 46179","facilities":["toilet","shop","accepts_routex_cards","accepts_toll_payments","reminder_service","open_saturday","open_sunday"],"products":["ad_blue_cannister","diesel_on","ultimate","ultimate_diesel","ultimate_unleaded","unleaded_95"],"website":null,"watchlist_id":null,"formatted_address":"Ostererweg 2a\n8700\nLeoben","channel_of_trade":null},{"id":"AT-2144425674","name":"Gratwein, Bahnhofstr. 27","lat":47.130132,"lng":15.323842,"site_brand":"bp","country_code":"AT","address":"Bahnhofstraße 27","city":"Gratwein","state":null,"postcode":"8112","telephone":"+43 3124 52168","facilities":["toilet","accepts_routex_cards","accepts_toll_payments","reminder_service","open_saturday","open_sunday"],"products":["ad_blue_cannister","ad_blue_pump","diesel_on","ultimate","ultimate_diesel","ultimate_unleaded","unleaded_95","ad_blue"],"website":null,"watchlist_id":null,"formatted_address":"Bahnhofstraße 27\n8112\nGratwein","channel_of_trade":null},{"id":"AT-1497227096","name":"Paldau, Saaz 92","lat":46.953953,"lng":15.849611,"site_brand":"bp","country_code":"AT","address":"Saaz 92","city":"Paldau","state":null,"postcode":"8341","telephone":"+43 3152 67735","facilities":["restaurant","accepts_routex_cards","accepts_toll_payments","reminder_service","open_saturday","open_sunday"],"products":["ad_blue_cannister","ad_blue_pump","diesel_on","ultimate","ultimate_diesel","ultimate_unleaded","unleaded_95","ad_blue"],"website":null,"watchlist_id":null,"formatted_address":"Saaz 92\n8341\nPaldau","channel_of_trade":null},{"id":"AT-428916883","name":"Lannach, Radlpassstr. 26","lat":46.948625,"lng":15.337613,"site_brand":"bp","country_code":"AT","address":"Radlpaßstraße 26","city":"Lannach","state":null,"postcode":"8502","telephone":"+43 3136 83140","facilities":["toilet","shop","accepts_routex_cards","accepts_toll_payments","reminder_service","open_saturday","open_sunday"],"products":["ad_blue_cannister","diesel_on","natural_gas","ultimate","ultimate_diesel","ultimate_unleaded","unleaded_95"],"website":null,"watchlist_id":null,"formatted_address":"Radlpaßstraße 26\n8502\nLannach","channel_of_trade":null},{"id":"AT-897575300","name":"Werndorf, Gewerbepark 1","lat":46.933411,"lng":15.467321,"site_brand":"bp","country_code":"AT","address":"Gewerbepark 1","city":"Werndorf","state":null,"postcode":"8402","telephone":"+43 3135 57199","facilities":["open_24_hours","high_speed_pump","truck_parking","truck_suitable_site","restaurant","accepts_routex_cards","accepts_toll_payments","reminder_service","open_saturday","open_sunday"],"products":["ad_blue_cannister","ad_blue_pump","diesel_on","ultimate","ultimate_diesel","ultimate_unleaded","unleaded_95","ad_blue"],"website":null,"watchlist_id":null,"formatted_address":"Gewerbepark 1\n8402\nWerndorf","channel_of_trade":null},{"id":"AT-1277019718","name":"Gleisdorf, Hofstaetten 113","lat":47.081403,"lng":15.739456,"site_brand":"bp","country_code":"AT","address":"Hofstetten 113","city":"Gleisdorf","state":null,"postcode":"8200","telephone":"+43 3112 5900310","facilities":["open_24_hours","high_speed_pump","truck_parking","truck_suitable_site","shop","restaurant","accepts_routex_cards","accepts_toll_payments","reminder_service","open_saturday","open_sunday"],"products":["ad_blue_cannister","ad_blue_pump","diesel_on","ultimate","ultimate_diesel","ultimate_unleaded","unleaded_95","ad_blue"],"website":null,"watchlist_id":null,"formatted_address":"Hofstetten 113\n8200\nGleisdorf","channel_of_trade":null},{"id":"AT-1876931075","name":"Gralla, Gewerbepark Sued 4","lat":46.804099,"lng":15.557495,"site_brand":"bp","country_code":"AT","address":"Gewerbepark Süd 4","city":"Gralla","state":null,"postcode":"8431","telephone":"+43 3452 71416","facilities":["toilet","restaurant","accepts_routex_cards","accepts_toll_payments","reminder_service","open_saturday","open_sunday"],"products":["ad_blue_cannister","diesel_on","ultimate","ultimate_diesel","ultimate_unleaded","unleaded_95"],"website":null,"watchlist_id":null,"formatted_address":"Gewerbepark Süd 4\n8431\nGralla","channel_of_trade":null},{"id":"AT-169653509","name":"Graz, Reininghausstr. 63","lat":47.062958,"lng":15.399311,"site_brand":"bp","country_code":"AT","address":"Reininghausstraße 63","city":"Graz","state":null,"postcode":"8020","telephone":"+43 316 583551","facilities":["accepts_routex_cards","reminder_service","open_saturday","open_sunday"],"products":["ad_blue_cannister","diesel_on","ultimate","ultimate_diesel","ultimate_unleaded","unleaded_95"],"website":null,"watchlist_id":null,"formatted_address":"Reininghausstraße 63\n8020\nGraz","channel_of_trade":null},{"id":"AT-2100411926","name":"Zeltweg, Hauptstr. 2","lat":47.1973514,"lng":14.7665027,"site_brand":"bp","country_code":"AT","address":"Hauptstraße 2","city":"Zeltweg","state":null,"postcode":"8740","telephone":"+43 3577 24800","facilities":["high_speed_pump","truck_suitable_site","shop","accepts_routex_cards","accepts_toll_payments","reminder_service","open_saturday","open_sunday"],"products":["ad_blue_cannister","diesel_on","ultimate","ultimate_diesel","ultimate_unleaded","unleaded_95"],"website":null,"watchlist_id":null,"formatted_address":"Hauptstraße 2\n8740\nZeltweg","channel_of_trade":null},{"id":"AT-1594825830","name":"Hartberg, Ressavarstr. 4","lat":47.275829,"lng":15.96666,"site_brand":"bp","country_code":"AT","address":"Ressavarstraße 4","city":"Hartberg","state":null,"postcode":"8230","telephone":"+43 3332 62571","facilities":["shop","accepts_routex_cards","accepts_toll_payments","reminder_service","open_saturday","open_sunday"],"products":["ad_blue_cannister","diesel_on","ultimate","ultimate_diesel","ultimate_unleaded","unleaded_95"],"website":null,"watchlist_id":null,"formatted_address":"Ressavarstraße 4\n8230\nHartberg","channel_of_trade":null},{"id":"AT-17890927","name":"Trofaiach, Hauptstr. 12","lat":47.4204189,"lng":15.0147581,"site_brand":"bp","country_code":"AT","address":"Hauptstraße 12","city":"Trofaiach","state":null,"postcode":"8793","telephone":"+43 3847 2933","facilities":["shop","accepts_routex_cards","accepts_toll_payments","reminder_service","open_saturday","open_sunday"],"products":["ad_blue_cannister","diesel_on","ultimate","ultimate_diesel","ultimate_unleaded","unleaded_95"],"website":null,"watchlist_id":"17890927","formatted_address":"Hauptstraße 12\n8793\nTrofaiach","channel_of_trade":null},{"id":"AT-1607221443","name":"Graz, Triester Str. 459","lat":47.020192,"lng":15.438608,"site_brand":"bp","country_code":"AT","address":"Triester Straße 459","city":"Graz","state":null,"postcode":"8055","telephone":"+43 316 293324","facilities":["accepts_routex_cards","accepts_toll_payments","open_saturday","open_sunday"],"products":["ad_blue_cannister","diesel_on","lpg","ultimate","ultimate_diesel","ultimate_unleaded","unleaded_95"],"website":null,"watchlist_id":null,"formatted_address":"Triester Straße 459\n8055\nGraz","channel_of_trade":null},{"id":"AT-100607468","name":"ST-GLEISDORF, WILFERSDORF 104","lat":47.10694,"lng":15.66365,"site_brand":"bp","country_code":"AT","address":"Wilfersdorf 104","city":"Gleisdorf-Wilfersdorf","state":null,"postcode":"8200","telephone":"+43 3112 29991","facilities":["car_wash","shop","accepts_routex_cards","open_saturday","open_sunday"],"products":["ad_blue_pump","diesel_on","ultimate","ultimate_diesel","ultimate_unleaded","unleaded_95","ad_blue"],"website":null,"watchlist_id":null,"formatted_address":"Wilfersdorf 104\n8200\nGleisdorf-Wilfersdorf","channel_of_trade":null}],"clusters":[]}