{"locations":[{"id":"10022835","name":"GRIES BRENNERSTRASSE","lat":47.007908,"lng":11.507226,"brand":"Shell","inactive":false,"type":2,"country_code":"AT","address":"BRENNERSTRASSE 245","city":"GRIES","state":"Tirol","postcode":"6156","telephone":"+43 5274 87224","country":"Austria","amenities":["adblue_pack","air_and_water","apple_pay","austrian_highway_sticker","b2b_shell_card_ota","bakery_shop","credit_card","credit_card_american_express","credit_card_diners_club","credit_card_general","credit_card_mastercard","credit_card_visa","deli2go","disabled_facilities","fleet_card_dkv","fleet_card_uta","go_plus","google_pay","hgv_lane","high_speed_diesel_pump","loyalty_cards","loyalty_program","mobile_payment","mobile_payment_amex","mobile_payment_maestro","mobile_payment_mastercard","mobile_payment_visa","paypal","selectshop","self_service","shell_card","standard_toilet","twenty_four_hour_ev_service","type_of_parking","wifi","manned"],"distance":4.71235840948,"driving_distance":null,"driving_duration":null,"website_url":"https://www.shell.at/tanken/shell-tankstellensuche/standorte.html/10022835-gries-brennerstrasse","mdm_site_category":"Conventional Fuel Site with EV","formatted_address":"BRENNERSTRASSE 245\nGRIES, Tirol, 6156","site_category":"conventional_fuel_site_with_ev"},{"id":"10022834","name":"FULPMES WALDRASTERSTRASSE.","lat":47.150294,"lng":11.352916,"brand":"Shell","inactive":false,"type":0,"country_code":"AT","address":"WALDRASTERSTRASSE 45","city":"FULPMES","state":"Tirol","postcode":"6166","telephone":"+43 5225 62338","country":"Austria","amenities":["adblue_pack","air_and_water","austrian_highway_sticker","carwash","credit_card","credit_card_general","fleet_card_general","self_service","shop","standard_toilet","vacuum","manned"],"distance":15.75813637323,"driving_distance":null,"driving_duration":null,"website_url":"https://www.shell.at/tanken/shell-tankstellensuche/standorte.html/10022834-fulpmes-waldrasterstrasse","mdm_site_category":"Conventional Fuel Site","formatted_address":"WALDRASTERSTRASSE 45\nFULPMES, Tirol, 6166","site_category":"conventional_fuel_site"},{"id":"10022854","name":"SCHOENBERG","lat":47.184664,"lng":11.400047,"brand":"Shell","inactive":false,"type":0,"country_code":"AT","address":"A13/BRENNERAUTOBAHN","city":"SCHOENBERG","state":"Tirol","postcode":"6141","telephone":"+43 5225 62791","country":"Austria","amenities":["adblue_pack","adblue_truck","air_and_water","apple_pay","b2b_shell_card_ota","bakery_shop","credit_card","credit_card_american_express","credit_card_mastercard","credit_card_visa","fleet_card_dkv","fleet_card_uta","go_plus","google_pay","loyalty_cards","loyalty_program","mobile_payment","mobile_payment_amex","mobile_payment_maestro","mobile_payment_mastercard","mobile_payment_visa","paypal","self_service","shell_card","shop","standard_toilet","twenty_four_hour","wifi","motorway_service","manned"],"distance":16.775657524499998,"driving_distance":null,"driving_duration":null,"website_url":"https://www.shell.at/tanken/shell-tankstellensuche/standorte.html/10022854-schoenberg","mdm_site_category":"Conventional Fuel Site","formatted_address":"A13/BRENNERAUTOBAHN\nSCHOENBERG, Tirol, 6141","site_category":"conventional_fuel_site"},{"id":"10022855","name":"SCHOENBERG A13-AUTOBAHN","lat":47.196083,"lng":11.3976,"brand":"Shell","inactive":false,"type":2,"country_code":"AT","address":"A13-AUTOBAHN-EUROPABRUECKE","city":"SCHOENBERG","state":"Tirol","postcode":"6141","telephone":"+43 5225 62579","country":"Austria","amenities":["adblue_pack","adblue_truck","air_and_water","apple_pay","b2b_shell_card_ota","bakery_shop","credit_card","credit_card_american_express","credit_card_mastercard","credit_card_visa","fleet_card_dkv","fleet_card_uta","go_plus","google_pay","hgv_lane","loyalty_cards","loyalty_program","maut_terminal","mobile_payment","mobile_payment_amex","mobile_payment_maestro","mobile_payment_mastercard","mobile_payment_visa","paypal","self_service","shell_card","shop","standard_toilet","twenty_four_hour","type_of_parking","wifi","motorway_service","manned"],"distance":17.99675307789,"driving_distance":null,"driving_duration":null,"website_url":"https://www.shell.at/tanken/shell-tankstellensuche/standorte.html/10022855-schoenberg-a13-autobahn","mdm_site_category":"Conventional Fuel Site","formatted_address":"A13-AUTOBAHN-EUROPABRUECKE\nSCHOENBERG, Tirol, 6141","site_category":"conventional_fuel_site"},{"id":"10022840","name":"INNSBRUCK BRENNER STRASSE.","lat":47.241369,"lng":11.389742,"brand":"Shell","inactive":false,"type":0,"country_code":"AT","address":"BRENNER STRASSE 4","city":"INNSBRUCK","state":"Tirol","postcode":"6020","telephone":"+43 512 572068","country":"Austria","amenities":["adblue_pack","adblue_truck","air_and_water","apple_pay","austrian_highway_sticker","b2b_shell_card_ota","bakery_shop","credit_card","credit_card_general","deli2go","disabled_facilities","fleet_card_dkv","fleet_card_uta","go_plus","google_pay","high_speed_diesel_pump","loyalty_cards","loyalty_program","mobile_payment","mobile_payment_amex","mobile_payment_maestro","mobile_payment_mastercard","mobile_payment_visa","parking_lanes","paypal","selectshop","self_service","shell_card","standard_toilet","twenty_four_hour","type_of_parking","wifi","manned"],"distance":22.85475343772,"driving_distance":null,"driving_duration":null,"website_url":"https://www.shell.at/tanken/shell-tankstellensuche/standorte.html/10022840-innsbruck-brenner-strasse","mdm_site_category":"Conventional Fuel Site","formatted_address":"BRENNER STRASSE 4\nINNSBRUCK, Tirol, 6020","site_category":"conventional_fuel_site"},{"id":"13111197","name":"6020 INNSBRUCK AMRASER-SEE STR.29","lat":47.26189,"lng":11.42312,"brand":"Shell","inactive":false,"type":0,"country_code":"AT","address":"AMRASER-SEE STRASSE 29","city":"INNSBRUCK","state":"Tirol","postcode":"6020","telephone":"+43 50 2277 1058","country":"Austria","amenities":["air_and_water","selectshop","standard_toilet","twenty_four_hour","manned"],"distance":24.26765588575,"driving_distance":null,"driving_duration":null,"website_url":"https://www.shell.at/tanken/shell-tankstellensuche/standorte.html/13111197-6020-innsbruck-amraser-see-str-29","mdm_site_category":"Conventional Fuel Site","formatted_address":"AMRASER-SEE STRASSE 29\nINNSBRUCK, Tirol, 6020","site_category":"conventional_fuel_site"},{"id":"10022837","name":"INNSBRUCK AMRASERSEE-STRASSE.","lat":47.263383,"lng":11.429705,"brand":"Shell","inactive":false,"type":2,"country_code":"AT","address":"AMRASERSEE-STRASSE 56","city":"INNSBRUCK","state":"Tirol","postcode":"6020","telephone":"+43 512 346137","country":"Austria","amenities":["adblue_car","adblue_pack","adblue_truck","air_and_water","apple_pay","austrian_highway_sticker","b2b_shell_card_ota","bakery_shop","carwash","credit_card","credit_card_general","credit_card_mastercard","credit_card_visa","disabled_facilities","fleet_card_dkv","fleet_card_esso","fleet_card_uta","go_plus","google_pay","hgv_lane","high_speed_diesel_pump","jet","loyalty_cards","loyalty_program","mobile_payment","mobile_payment_amex","mobile_payment_maestro","mobile_payment_mastercard","mobile_payment_visa","parking_lanes","paypal","self_service","shell_card","shop","standard_toilet","type_of_parking","vacuum","wifi","manned"],"distance":24.31517869767,"driving_distance":null,"driving_duration":null,"website_url":"https://www.shell.at/tanken/shell-tankstellensuche/standorte.html/10022837-innsbruck-amrasersee-strasse","mdm_site_category":"Conventional Fuel Site","formatted_address":"AMRASERSEE-STRASSE 56\nINNSBRUCK, Tirol, 6020","site_category":"conventional_fuel_site"},{"id":"10022836","name":"INNSBRUCK AMRASERSTRASSE.","lat":47.262759,"lng":11.408383,"brand":"Shell","inactive":false,"type":0,"country_code":"AT","address":"AMRASERSTRASSE 52","city":"INNSBRUCK","state":"Tirol","postcode":"6020","telephone":"+43 512 341445","country":"Austria","amenities":["adblue_pack","air_and_water","apple_pay","austrian_highway_sticker","b2b_shell_card_ota","bakery_shop","carwash","credit_card","credit_card_general","fleet_card_dkv","fleet_card_esso","fleet_card_general","go_plus","google_pay","loyalty_cards","loyalty_program","mobile_payment","mobile_payment_amex","mobile_payment_maestro","mobile_payment_mastercard","mobile_payment_visa","parking_lanes","paypal","rollover","selectshop","self_service","standard_toilet","type_of_parking","wifi","manned"],"distance":24.65112498167,"driving_distance":null,"driving_duration":null,"website_url":"https://www.shell.at/tanken/shell-tankstellensuche/standorte.html/10022836-innsbruck-amraserstrasse","mdm_site_category":"Conventional Fuel Site","formatted_address":"AMRASERSTRASSE 52\nINNSBRUCK, Tirol, 6020","site_category":"conventional_fuel_site"},{"id":"10022857","name":"HALL/TIROL PFANNHAUSSTRASSE.","lat":47.279331,"lng":11.502363,"brand":"Shell","inactive":false,"type":0,"country_code":"AT","address":"PFANNHAUSSTRASSE 10","city":"HALL/TIROL","state":"Tirol","postcode":"6060","telephone":"+43 5223 57626","country":"Austria","amenities":["adblue_pack","air_and_water","austrian_highway_sticker","bakery_shop","carwash","credit_card","credit_card_american_express","credit_card_mastercard","credit_card_visa","high_speed_diesel_pump","parking_lanes","partner_card","rollover","rollover_and_jet","self_service","shell_card","shop","standard_toilet","type_of_parking","vacuum","manned"],"distance":25.501104571200003,"driving_distance":null,"driving_duration":null,"website_url":"https://www.shell.at/tanken/shell-tankstellensuche/standorte.html/10022857-hall-tirol-pfannhausstrasse","mdm_site_category":"Conventional Fuel Site","formatted_address":"PFANNHAUSSTRASSE 10\nHALL/TIROL, Tirol, 6060","site_category":"conventional_fuel_site"},{"id":"10022838","name":"INNSBRUCK KRANEBITTER ALLEE.","lat":47.26487,"lng":11.369036,"brand":"Shell","inactive":false,"type":0,"country_code":"AT","address":"KRANEBITTER ALLEE 14","city":"INNSBRUCK","state":"Tirol","postcode":"6020","telephone":"+43 512 283735","country":"Austria","amenities":["adblue_pack","air_and_water","apple_pay","austrian_highway_sticker","b2b_shell_card_ota","bakery_shop","billa_unterwegs","carwash","credit_card","credit_card_american_express","credit_card_diners_club","credit_card_general","credit_card_mastercard","credit_card_visa","disabled_facilities","fleet_card_dkv","fleet_card_esso","fleet_card_uta","go_plus","google_pay","high_speed_diesel_pump","jet","loyalty_cards","loyalty_program","mobile_payment","mobile_payment_amex","mobile_payment_maestro","mobile_payment_mastercard","mobile_payment_visa","other_loyalty_cards","parking_lanes","paypal","rollover","self_service","shell_card","standard_toilet","touchless_pay","twenty_four_hour_ev_service","type_of_parking","vacuum","wifi","manned"],"distance":25.86322909696,"driving_distance":null,"driving_duration":null,"website_url":"https://www.shell.at/tanken/shell-tankstellensuche/standorte.html/10022838-innsbruck-kranebitter-allee","mdm_site_category":"Conventional Fuel Site with EV","formatted_address":"KRANEBITTER ALLEE 14\nINNSBRUCK, Tirol, 6020","site_category":"conventional_fuel_site_with_ev"},{"id":"10022862","name":"WATTENS BAHNHOFSTRASSE.","lat":47.29775,"lng":11.588265,"brand":"Shell","inactive":false,"type":0,"country_code":"AT","address":"BAHNHOFSTRASSE 55","city":"WATTENS","state":"Tirol","postcode":"6112","telephone":"+43 5224 52160","country":"Austria","amenities":["adblue_pack","air_and_water","apple_pay","austrian_highway_sticker","b2b_shell_card_ota","bakery_shop","billa_unterwegs","carwash","credit_card","credit_card_american_express","credit_card_mastercard","credit_card_visa","disabled_facilities","fleet_card_dkv","fleet_card_uta","go_plus","google_pay","loyalty_cards","loyalty_program","mobile_payment","mobile_payment_amex","mobile_payment_maestro","mobile_payment_mastercard","mobile_payment_visa","parking_lanes","paypal","rollover","rollover_and_jet","self_service","shell_card","standard_toilet","twenty_four_hour","type_of_parking","wifi","manned"],"distance":28.34495109045,"driving_distance":null,"driving_duration":null,"website_url":"https://www.shell.at/tanken/shell-tankstellensuche/standorte.html/10022862-wattens-bahnhofstrasse","mdm_site_category":"Conventional Fuel Site","formatted_address":"BAHNHOFSTRASSE 55\nWATTENS, Tirol, 6112","site_category":"conventional_fuel_site"},{"id":"10022851","name":"RAMSAU/ZILLERTAL TALSTRASSE.","lat":47.20536,"lng":11.871162,"brand":"Shell","inactive":false,"type":0,"country_code":"AT","address":"TALSTRASSE 61","city":"RAMSAU/ZILLERTAL","state":"Tirol","postcode":"6284","telephone":"+43 5282 4655","country":"Austria","amenities":["adblue_pack","air_and_water","apple_pay","b2b_shell_card_ota","bakery_shop","billa_unterwegs","carwash","credit_card","credit_card_american_express","credit_card_mastercard","credit_card_visa","fleet_card_dkv","fleet_card_uta","go_plus","google_pay","loyalty_cards","loyalty_program","mobile_payment","mobile_payment_amex","mobile_payment_maestro","mobile_payment_mastercard","mobile_payment_visa","paypal","rollover","rollover_and_jet","self_service","shell_card","standard_toilet","twenty_four_hour_ev_service","wifi","manned"],"distance":32.968166439499996,"driving_distance":null,"driving_duration":null,"website_url":"https://www.shell.at/tanken/shell-tankstellensuche/standorte.html/10022851-ramsau-zillertal-talstrasse","mdm_site_category":"Conventional Fuel Site with EV","formatted_address":"TALSTRASSE 61\nRAMSAU/ZILLERTAL, Tirol, 6284","site_category":"conventional_fuel_site_with_ev"},{"id":"10022849","name":"PETTNAU DR.OTTO-KEIMEL-WEG","lat":47.284613,"lng":11.163772,"brand":"Shell","inactive":false,"type":2,"country_code":"AT","address":"DR.OTTO-KEIMEL-WEG 11","city":"PETTNAU","state":"Tirol","postcode":"6408","telephone":"+43 5238 8734411","country":"Austria","amenities":["standard_toilet","mobile_payment","high_speed_diesel_pump","bakery_shop","loyalty_cards","credit_card","fuel_card","credit_card_general","parking_lanes","full_service","self_service","austrian_highway_sticker","fleet_card_dkv","fleet_card_uta","credit_card_visa","credit_card_mastercard","credit_card_american_express","deli2go","twenty_four_hour","starbucks","shop","truck_parking","adblue_truck","adblue_pack","loyalty_program","go_plus","paypal","b2b_shell_card_ota","disabled_facilities","hgv_lane","air_and_water","shower","wifi","apple_pay","google_pay","mobile_payment_amex","mobile_payment_visa","mobile_payment_mastercard","mobile_payment_maestro","manned"],"distance":36.42301556326,"driving_distance":null,"driving_duration":null,"website_url":"https://www.shell.at/tanken/shell-tankstellensuche/standorte.html/10022849-pettnau-dr-otto-keimel-weg","mdm_site_category":"Conventional Fuel Site with EV","formatted_address":"DR.OTTO-KEIMEL-WEG 11\nPETTNAU, Tirol, 6408","site_category":"conventional_fuel_site_with_ev"},{"id":"10022858","name":"SOELDEN DORFSTRASSE.","lat":46.975642,"lng":11.011009,"brand":"Shell","inactive":false,"type":0,"country_code":"AT","address":"DORFSTRASSE 2","city":"SOELDEN","state":"Tirol","postcode":"6450","telephone":"+43 5254 2168","country":"Austria","amenities":["adblue_pack","air_and_water","austrian_highway_sticker","carwash","credit_card","credit_card_american_express","credit_card_diners_club","credit_card_general","credit_card_mastercard","credit_card_visa","jet","rollover","self_service","shop","standard_toilet","type_of_parking","vacuum","manned"],"distance":37.984407550869996,"driving_distance":null,"driving_duration":null,"website_url":"https://www.shell.at/tanken/shell-tankstellensuche/standorte.html/10022858-soelden-dorfstrasse","mdm_site_category":"Conventional Fuel Site","formatted_address":"DORFSTRASSE 2\nSOELDEN, Tirol, 6450","site_category":"conventional_fuel_site"},{"id":"10022856","name":"SEEFELD INNSBRUCKER STRASSE.","lat":47.325349,"lng":11.189991,"brand":"Shell","inactive":false,"type":0,"country_code":"AT","address":"INNSBRUCKER STRASSE 272","city":"SEEFELD","state":"Tirol","postcode":"6100","telephone":"+43 5212 2914","country":"Austria","amenities":["adblue_pack","air_and_water","apple_pay","austrian_highway_sticker","b2b_shell_card_ota","carwash","credit_card","credit_card_american_express","credit_card_mastercard","credit_card_visa","disabled_facilities","fleet_card_dkv","fleet_card_esso","fleet_card_uta","go_plus","google_pay","high_speed_diesel_pump","loyalty_cards","loyalty_program","mobile_payment","mobile_payment_amex","mobile_payment_maestro","mobile_payment_mastercard","mobile_payment_visa","partner_card","paypal","rollover","self_service","shell_card","shop","standard_toilet","vacuum","wifi","manned"],"distance":38.55174785512,"driving_distance":null,"driving_duration":null,"website_url":"https://www.shell.at/tanken/shell-tankstellensuche/standorte.html/10022856-seefeld-innsbrucker-strasse","mdm_site_category":"Conventional Fuel Site","formatted_address":"INNSBRUCKER STRASSE 272\nSEEFELD, Tirol, 6100","site_category":"conventional_fuel_site"},{"id":"12527743","name":"MITTENWALD, AM BRUNNSTEIN","lat":47.39957,"lng":11.266046,"brand":"Shell","inactive":false,"type":0,"country_code":"DE","address":"AM BRUNNSTEIN 2","city":"MITTENWALD","state":"Bayern","postcode":"82481","telephone":"+49 8823 5250","country":"Germany","amenities":["air_and_water","apple_pay","b2b_shell_card_ota","bakery_shop","bottled_gas","cafe","food_offerings","google_pay","loyalty_cards","loyalty_program","mobile_payment","mobile_payment_amex","mobile_payment_maestro","mobile_payment_mastercard","mobile_payment_visa","paypal","self_service","shell_card","shop","smart_deal","twenty_four_hour","wifi","manned"],"distance":42.69700752179,"driving_distance":null,"driving_duration":null,"website_url":"https://find.shell.com/de/fuel/12527743-mittenwald-am-brunnstein/de_AT","mdm_site_category":"Conventional Fuel Site","formatted_address":"AM BRUNNSTEIN 2\nMITTENWALD, Bayern, 82481","site_category":"conventional_fuel_site"},{"id":"10022861","name":"TELFS ANTON AUER-STRASSE.","lat":47.30548,"lng":11.074925,"brand":"Shell","inactive":false,"type":2,"country_code":"AT","address":"ANTON AUER-STRASSE 15","city":"TELFS","state":"Tirol","postcode":"6410","telephone":"+43 5262 629734","country":"Austria","amenities":["adblue_pack","air_and_water","apple_pay","b2b_shell_card_ota","bakery_shop","billa_unterwegs","carwash","credit_card","credit_card_american_express","credit_card_mastercard","credit_card_visa","disabled_facilities","fleet_card_dkv","fleet_card_uta","go_plus","google_pay","hgv_lane","high_speed_diesel_pump","loyalty_cards","loyalty_program","mobile_payment","mobile_payment_amex","mobile_payment_maestro","mobile_payment_mastercard","mobile_payment_visa","parking_lanes","paypal","rollover","rollover_and_jet","self_service","shell_card","standard_toilet","twenty_four_hour_ev_service","type_of_parking","vacuum","wifi","manned"],"distance":42.88620560508,"driving_distance":null,"driving_duration":null,"website_url":"https://www.shell.at/tanken/shell-tankstellensuche/standorte.html/10022861-telfs-anton-auer-strasse","mdm_site_category":"Conventional Fuel Site with EV","formatted_address":"ANTON AUER-STRASSE 15\nTELFS, Tirol, 6410","site_category":"conventional_fuel_site_with_ev"},{"id":"10022841","name":"JENBACH ACHENSEE-STRASSE.","lat":47.388447,"lng":11.77449,"brand":"Shell","inactive":false,"type":2,"country_code":"AT","address":"ACHENSEE-STRASSE 2","city":"JENBACH","state":"Tirol","postcode":"6200","telephone":"+43 5244 62473","country":"Austria","amenities":["air_and_water","apple_pay","austrian_highway_sticker","b2b_shell_card_ota","bakery_shop","billa_unterwegs","carwash","credit_card","credit_card_general","disabled_facilities","fleet_card_dkv","fleet_card_uta","go_plus","google_pay","hgv_lane","high_speed_diesel_pump","loyalty_cards","loyalty_program","mobile_payment","mobile_payment_amex","mobile_payment_maestro","mobile_payment_mastercard","mobile_payment_visa","paypal","rollover_and_jet","self_service","standard_toilet","type_of_parking","vacuum","wifi","manned"],"distance":42.965477874570006,"driving_distance":null,"driving_duration":null,"website_url":"https://www.shell.at/tanken/shell-tankstellensuche/standorte.html/10022841-jenbach-achensee-strasse","mdm_site_category":"Conventional Fuel Site","formatted_address":"ACHENSEE-STRASSE 2\nJENBACH, Tirol, 6200","site_category":"conventional_fuel_site"},{"id":"10022848","name":"OETZ HAUPTSTRASSE","lat":47.205174,"lng":10.889658,"brand":"Shell","inactive":false,"type":0,"country_code":"AT","address":"HAUPTSTRASSE 26","city":"OETZ","state":"Tirol","postcode":"6433","telephone":"+43 5252 6349","country":"Austria","amenities":["adblue_pack","air_and_water","apple_pay","austrian_highway_sticker","b2b_shell_card_ota","bakery_shop","carwash","credit_card","credit_card_american_express","credit_card_mastercard","credit_card_visa","deli2go","disabled_facilities","fleet_card_dkv","fleet_card_esso","fleet_card_uta","go_plus","google_pay","high_speed_diesel_pump","loyalty_cards","loyalty_program","mobile_payment","mobile_payment_amex","mobile_payment_maestro","mobile_payment_mastercard","mobile_payment_visa","other_loyalty_cards","parking_lanes","paypal","rollover","selectshop","self_service","shell_card","standard_toilet","type_of_parking","vacuum","wifi","manned"],"distance":49.29294035083,"driving_distance":null,"driving_duration":null,"website_url":"https://www.shell.at/tanken/shell-tankstellensuche/standorte.html/10022848-oetz-hauptstrasse","mdm_site_category":"Conventional Fuel Site","formatted_address":"HAUPTSTRASSE 26\nOETZ, Tirol, 6433","site_category":"conventional_fuel_site"},{"id":"10022833","name":"ALPBACH NUMMER.","lat":47.396443,"lng":11.922389,"brand":"Shell","inactive":false,"type":0,"country_code":"AT","address":"NUMMER 142","city":"ALPBACH","state":"Tirol","postcode":"6236","telephone":"+43 5336 5258","country":"Austria","amenities":["air_and_water","carwash","credit_card","credit_card_american_express","credit_card_mastercard","credit_card_visa","full_service","rollover","shell_card","shop","standard_toilet","manned"],"distance":50.01452174279,"driving_distance":null,"driving_duration":null,"website_url":"https://www.shell.at/tanken/shell-tankstellensuche/standorte.html/10022833-alpbach-nummer","mdm_site_category":"Conventional Fuel Site","formatted_address":"NUMMER 142\nALPBACH, Tirol, 6236","site_category":"conventional_fuel_site"},{"id":"10024393","name":"GARMISCH PARTENK., HAUPTSTR.","lat":47.490085,"lng":11.112933,"brand":"Shell","inactive":false,"type":0,"country_code":"DE","address":"HAUPTSTR. 97","city":"GARMISCH PARTENKIRCHEN","state":"Bayern","postcode":"82467","telephone":"+49 8821 4466","country":"Germany","amenities":["adblue_car","adblue_pack","air_and_water","apple_pay","b2b_shell_card_ota","bakery_shop","bottled_gas","cafe","carwash","credit_card","credit_card_general","fleet_card_general","food_offerings","google_pay","loyalty_cards","loyalty_program","mobile_payment","mobile_payment_amex","mobile_payment_maestro","mobile_payment_mastercard","mobile_payment_visa","other_loyalty_cards","paypal","recup","rollover","self_service","shell_card","shop","smart_deal","standard_toilet","twenty_four_hour_ev_service","wifi","manned"],"distance":56.98722508516,"driving_distance":null,"driving_duration":null,"website_url":"https://find.shell.com/de/fuel/10024393-garmisch-partenk-hauptstr/de_AT","mdm_site_category":"Conventional Fuel Site with EV","formatted_address":"HAUPTSTR. 97\nGARMISCH PARTENKIRCHEN, Bayern, 82467","site_category":"conventional_fuel_site_with_ev"},{"id":"11910061","name":"EHRWALD GARMISCHER STRASSE.","lat":47.407381,"lng":10.91237,"brand":"Shell","inactive":false,"type":0,"country_code":"AT","address":"GARMISCHER STRASSE 19","city":"EHRWALD","state":"Tirol","postcode":"6632","telephone":"+43 5673 2345","country":"Austria","amenities":["adblue_pack","air_and_water","austrian_highway_sticker","carwash","credit_card","credit_card_american_express","credit_card_mastercard","credit_card_visa","disabled_facilities","fast_food","food_offerings","jet","parking_lanes","rollover","rollover_and_jet","self_service","shell_card","shop","standard_toilet","type_of_parking","vacuum","manned"],"distance":59.56511169164,"driving_distance":null,"driving_duration":null,"website_url":"https://www.shell.at/tanken/shell-tankstellensuche/standorte.html/11910061-ehrwald-garmischer-strasse","mdm_site_category":"Conventional Fuel Site","formatted_address":"GARMISCHER STRASSE 19\nEHRWALD, Tirol, 6632","site_category":"conventional_fuel_site"},{"id":"12823251","name":"IMST LANGGASSE.","lat":47.226665,"lng":10.747319,"brand":"Shell","inactive":false,"type":0,"country_code":"AT","address":"LANGGASSE 96","city":"IMST","state":"Tirol","postcode":"6460","telephone":"+43 5412 6515155","country":"Austria","amenities":["air_and_water","selectshop","standard_toilet","manned"],"distance":60.22506108977,"driving_distance":null,"driving_duration":null,"website_url":"https://www.shell.at/tanken/shell-tankstellensuche/standorte.html/12823251-imst-langgasse","mdm_site_category":"Conventional Fuel Site","formatted_address":"LANGGASSE 96\nIMST, Tirol, 6460","site_category":"conventional_fuel_site"},{"id":"12099129","name":"TARRENZ HAUPTSTRASSE.","lat":47.259934,"lng":10.755406,"brand":"Shell","inactive":false,"type":0,"country_code":"AT","address":"HAUPTSTRASSE 78","city":"TARRENZ","state":"Tirol","postcode":"6464","telephone":"+43 5412 62733","country":"Austria","amenities":["adblue_pack","air_and_water","austrian_highway_sticker","bakery_shop","credit_card","credit_card_american_express","credit_card_mastercard","credit_card_visa","parking_lanes","partner_card","self_service","shell_card","shop","standard_toilet","type_of_parking","vacuum","manned"],"distance":60.94934732688,"driving_distance":null,"driving_duration":null,"website_url":"https://www.shell.at/tanken/shell-tankstellensuche/standorte.html/12099129-tarrenz-hauptstrasse","mdm_site_category":"Conventional Fuel Site","formatted_address":"HAUPTSTRASSE 78\nTARRENZ, Tirol, 6464","site_category":"conventional_fuel_site"},{"id":"10022864","name":"WOERGL GEWERBEPARK","lat":47.483239,"lng":12.028969,"brand":"Shell","inactive":false,"type":2,"country_code":"AT","address":"GEWERBEPARK 3","city":"WOERGL","state":"Tirol","postcode":"6300","telephone":"+43 5332 23119","country":"Austria","amenities":["adblue_pack","adblue_truck","air_and_water","apple_pay","austrian_highway_sticker","b2b_shell_card_ota","bakery_shop","credit_card","credit_card_american_express","credit_card_mastercard","disabled_facilities","fleet_card_dkv","fleet_card_uta","full_service","go_plus","google_pay","guarded_car_park","hgv_lane","high_speed_diesel_pump","loyalty_cards","loyalty_program","maut_terminal","mobile_payment","mobile_payment_amex","mobile_payment_maestro","mobile_payment_mastercard","mobile_payment_visa","paypal","shell_card","shop","shower","standard_toilet","truck_parking","twenty_four_hour","type_of_parking","wifi","motorway_service","manned"],"distance":62.56037247907,"driving_distance":null,"driving_duration":null,"website_url":"https://www.shell.at/tanken/shell-tankstellensuche/standorte.html/10022864-woergl-gewerbepark","mdm_site_category":"Conventional Fuel Site","formatted_address":"GEWERBEPARK 3\nWOERGL, Tirol, 6300","site_category":"conventional_fuel_site"},{"id":"10022846","name":"WILDSCHOENAU NIEDERAU.","lat":47.448452,"lng":12.087033,"brand":"Shell","inactive":false,"type":0,"country_code":"AT","address":"NIEDERAU 278","city":"WILDSCHOENAU","state":"Tirol","postcode":"6314","telephone":"+43 5339 8592","country":"Austria","amenities":["air_and_water","austrian_highway_sticker","carwash","credit_card","credit_card_american_express","credit_card_mastercard","credit_card_visa","disabled_facilities","full_service","manual","parking_lanes","partner_card","rollover","rollover_and_jet","self_service","shell_card","shop","standard_toilet","type_of_parking","vacuum","manned"],"distance":62.66018533344,"driving_distance":null,"driving_duration":null,"website_url":"https://www.shell.at/tanken/shell-tankstellensuche/standorte.html/10022846-wildschoenau-niederau","mdm_site_category":"Conventional Fuel Site","formatted_address":"NIEDERAU 278\nWILDSCHOENAU, Tirol, 6314","site_category":"conventional_fuel_site"},{"id":"10126800","name":"Bolzano","lat":46.471651,"lng":11.316706,"brand":"Shell","inactive":false,"type":2,"country_code":"IT","address":"Via Keplero 1","city":"Bolzano","state":"Bolzano","postcode":"39100","telephone":"","country":"Italy","amenities":["adblue_truck","credit_card","credit_card_general","fleet_card_general","full_service","hgv_lane","high_speed_diesel_pump","pay_at_pump","shell_card","truck_parking","type_of_parking","manned"],"distance":65.80771193631,"driving_distance":null,"driving_duration":null,"website_url":"https://find.shell.com/it/fuel/10126800-bolzano/de_AT","mdm_site_category":"Conventional Fuel Site","formatted_address":"Via Keplero 1\nBolzano, Bolzano, 39100","site_category":"conventional_fuel_site"},{"id":"10022844","name":"KIRCHBICHL/TIROL LOFERER STRASSE.","lat":47.494773,"lng":12.088436,"brand":"Shell","inactive":false,"type":2,"country_code":"AT","address":"LOFERER STRASSE 5","city":"KIRCHBICHL/TIROL","state":"Tirol","postcode":"6322","telephone":"+43 5332 77692","country":"Austria","amenities":["adblue_pack","adblue_truck","air_and_water","apple_pay","austrian_highway_sticker","b2b_shell_card_ota","bakery_shop","billa_unterwegs","bottled_gas","carwash","credit_card","credit_card_general","credit_card_mastercard","credit_card_visa","disabled_facilities","fleet_card_dkv","fleet_card_uta","go_plus","google_pay","hgv_lane","high_speed_diesel_pump","loyalty_cards","loyalty_program","maut_terminal","mobile_payment","mobile_payment_amex","mobile_payment_maestro","mobile_payment_mastercard","mobile_payment_visa","paypal","rollover","self_service","standard_toilet","touchless_pay","twenty_four_hour_ev_service","wifi","manned"],"distance":66.45975993291,"driving_distance":null,"driving_duration":null,"website_url":"https://www.shell.at/tanken/shell-tankstellensuche/standorte.html/10022844-kirchbichl-tirol-loferer-strasse","mdm_site_category":"Conventional Fuel Site with EV","formatted_address":"LOFERER STRASSE 5\nKIRCHBICHL/TIROL, Tirol, 6322","site_category":"conventional_fuel_site_with_ev"},{"id":"10022852","name":"REUTTE INNSBRUCKERSTRASSE.","lat":47.479705,"lng":10.730316,"brand":"Shell","inactive":false,"type":2,"country_code":"AT","address":"INNSBRUCKERSTRASSE 53","city":"REUTTE","state":"Tirol","postcode":"6600","telephone":"+43 5672 71644","country":"Austria","amenities":["adblue_pack","air_and_water","apple_pay","austrian_highway_sticker","b2b_shell_card_ota","bakery_shop","billa_unterwegs","carwash","credit_card","credit_card_american_express","credit_card_general","credit_card_mastercard","credit_card_visa","fleet_card_dkv","fleet_card_esso","fleet_card_uta","go_plus","google_pay","hgv_lane","high_speed_diesel_pump","loyalty_cards","loyalty_program","manual","mobile_payment","mobile_payment_amex","mobile_payment_maestro","mobile_payment_mastercard","mobile_payment_visa","parking_lanes","paypal","rollover","self_service","shell_card","standard_toilet","type_of_parking","vacuum","wifi","manned"],"distance":75.20700625209,"driving_distance":null,"driving_duration":null,"website_url":"https://www.shell.at/tanken/shell-tankstellensuche/standorte.html/10022852-reutte-innsbruckerstrasse","mdm_site_category":"Conventional Fuel Site","formatted_address":"INNSBRUCKERSTRASSE 53\nREUTTE, Tirol, 6600","site_category":"conventional_fuel_site"},{"id":"10022843","name":"KIRCHBERG KITZBUEHELER STRASSE","lat":47.448769,"lng":12.324245,"brand":"Shell","inactive":false,"type":0,"country_code":"AT","address":"KITZBUEHELER STRASSE 73","city":"KIRCHBERG","state":"Tirol","postcode":"6365","telephone":"+43 5357 2827","country":"Austria","amenities":["adblue_pack","air_and_water","apple_pay","b2b_shell_card_ota","bakery_shop","billa_unterwegs","carwash","credit_card","credit_card_general","fleet_card_dkv","fleet_card_uta","go_plus","google_pay","loyalty_cards","loyalty_program","mobile_payment","mobile_payment_amex","mobile_payment_maestro","mobile_payment_mastercard","mobile_payment_visa","paypal","rollover","self_service","standard_toilet","twenty_four_hour_ev_service","wifi","manned"],"distance":76.39786006817,"driving_distance":null,"driving_duration":null,"website_url":"https://www.shell.at/tanken/shell-tankstellensuche/standorte.html/10022843-kirchberg-kitzbueheler-strasse","mdm_site_category":"Conventional Fuel Site with EV","formatted_address":"KITZBUEHELER STRASSE 73\nKIRCHBERG, Tirol, 6365","site_category":"conventional_fuel_site_with_ev"},{"id":"11796828","name":"SEE IM PAZNAUN,","lat":47.082913,"lng":10.464086,"brand":"Shell","inactive":false,"type":0,"country_code":"AT","address":"AU. 171","city":"SEE IM PAZNAUN,","state":"Tirol","postcode":"6553","telephone":"+43 5441 20015","country":"Austria","amenities":["adblue_pack","air_and_water","austrian_highway_sticker","bakery_shop","credit_card","credit_card_american_express","credit_card_diners_club","credit_card_mastercard","credit_card_visa","fleet_card_dkv","fleet_card_esso","fleet_card_uta","full_service","high_speed_diesel_pump","parking_lanes","partner_card","self_service","shell_card","type_of_parking","vacuum","manned"],"distance":78.54536027874,"driving_distance":null,"driving_duration":null,"website_url":"https://www.shell.at/tanken/shell-tankstellensuche/standorte.html/11796828-see-im-paznaun","mdm_site_category":"Conventional Fuel Site","formatted_address":"AU. 171\nSEE IM PAZNAUN,, Tirol, 6553","site_category":"conventional_fuel_site"},{"id":"10022865","name":"HEINFELS PANZENDORF.","lat":46.749736,"lng":12.442356,"brand":"Shell","inactive":false,"type":2,"country_code":"AT","address":"PANZENDORF 134","city":"HEINFELS","state":"Tirol","postcode":"9919","telephone":"+43 4842 6351","country":"Austria","amenities":["adblue_pack","air_and_water","apple_pay","austrian_highway_sticker","b2b_shell_card_ota","bakery_shop","carwash","credit_card","credit_card_american_express","credit_card_general","credit_card_mastercard","credit_card_visa","deli2go","disabled_facilities","fleet_card_dkv","fleet_card_esso","fleet_card_uta","go_plus","google_pay","hgv_lane","high_speed_diesel_pump","loyalty_cards","loyalty_program","mobile_payment","mobile_payment_amex","mobile_payment_maestro","mobile_payment_mastercard","mobile_payment_visa","paypal","rollover_and_jet","selectshop","self_service","service_bay","shell_card","standard_toilet","twenty_four_hour_ev_service","type_of_parking","vacuum","wifi","manned"],"distance":78.99876162193999,"driving_distance":null,"driving_duration":null,"website_url":"https://www.shell.at/tanken/shell-tankstellensuche/standorte.html/10022865-heinfels-panzendorf","mdm_site_category":"Conventional Fuel Site with EV","formatted_address":"PANZENDORF 134\nHEINFELS, Tirol, 9919","site_category":"conventional_fuel_site_with_ev"},{"id":"12685522","name":"STANZACH NR. 149","lat":47.38672,"lng":10.562798,"brand":"Shell","inactive":false,"type":0,"country_code":"AT","address":"NR. 149","city":"STANZACH","state":"Tirol","postcode":"6642","telephone":"+43 5632 228","country":"Austria","amenities":["air_and_water","self_service","shop","manned"],"distance":80.07361629438,"driving_distance":null,"driving_duration":null,"website_url":"https://www.shell.at/tanken/shell-tankstellensuche/standorte.html/12685522-stanzach-nr-149","mdm_site_category":"Conventional Fuel Site","formatted_address":"NR. 149\nSTANZACH, Tirol, 6642","site_category":"conventional_fuel_site"},{"id":"10022842","name":"KITZBUEHEL AM SPORTFELD.","lat":47.444604,"lng":12.398766,"brand":"Shell","inactive":false,"type":0,"country_code":"AT","address":"AM SPORTFELD 4","city":"KITZBUEHEL","state":"Tirol","postcode":"6370","telephone":"+43 5356 64510","country":"Austria","amenities":["adblue_pack","air_and_water","apple_pay","b2b_shell_card_ota","bakery_shop","carwash","credit_card","credit_card_general","deli2go","fleet_card_dkv","fleet_card_uta","go_plus","google_pay","loyalty_cards","loyalty_program","mobile_payment","mobile_payment_amex","mobile_payment_maestro","mobile_payment_mastercard","mobile_payment_visa","paypal","rollover","self_service","shop","standard_toilet","wifi","manned"],"distance":80.79382692361,"driving_distance":null,"driving_duration":null,"website_url":"https://www.shell.at/tanken/shell-tankstellensuche/standorte.html/10022842-kitzbuehel-am-sportfeld","mdm_site_category":"Conventional Fuel Site","formatted_address":"AM SPORTFELD 4\nKITZBUEHEL, Tirol, 6370","site_category":"conventional_fuel_site"},{"id":"10023597","name":"DENOTH HANDELS AG.","lat":46.959157,"lng":10.396953,"brand":"Shell","inactive":false,"type":0,"country_code":"CH","address":"SAMNAUN-LARET","city":"SAMNAUN-COMPATSCH","state":"Graubünden","postcode":"7562","telephone":"+41 81 860 21 35","country":"Switzerland","amenities":["air_and_water","credit_card","credit_card_general","fleet_card_general","self_service","shop","standard_toilet","twenty_four_hour","manned"],"distance":84.24927175214,"driving_distance":null,"driving_duration":null,"website_url":"https://find.shell.com/ch/fuel/10023597-denoth-handels-ag/de_AT","mdm_site_category":"Conventional Fuel Site","formatted_address":"SAMNAUN-LARET\nSAMNAUN-COMPATSCH, Graubünden, 7562","site_category":"conventional_fuel_site"},{"id":"10022853","name":"VILS STEGEN","lat":47.550138,"lng":10.657618,"brand":"Shell","inactive":false,"type":2,"country_code":"AT","address":"STEGEN 7","city":"VILS","state":"Tirol","postcode":"6682","telephone":"+43 5677 53091","country":"Austria","amenities":["adblue_car","air_and_water","austrian_highway_sticker","bakery_shop","carwash","credit_card","credit_card_american_express","credit_card_diners_club","credit_card_general","credit_card_mastercard","credit_card_visa","disabled_facilities","fast_food","fleet_card_dkv","fleet_card_esso","fleet_card_general","fleet_card_uta","food_offerings","hgv_lane","high_speed_diesel_pump","maut_terminal","partner_card","self_service","shell_card","shop","shower","standard_toilet","twenty_four_hour","type_of_parking","vacuum","wifi","manned"],"distance":84.42580870697999,"driving_distance":null,"driving_duration":null,"website_url":"https://www.shell.at/tanken/shell-tankstellensuche/standorte.html/10022853-vils-stegen","mdm_site_category":"Conventional Fuel Site","formatted_address":"STEGEN 7\nVILS, Tirol, 6682","site_category":"conventional_fuel_site"},{"id":"10023475","name":"INTERZEGG AG.","lat":46.948826,"lng":10.36821,"brand":"Shell","inactive":false,"type":0,"country_code":"CH","address":"CLIS CENTER","city":"SAMNAUN DORF","state":"Graubünden","postcode":"7563","telephone":"+41 81 861 81 00","country":"Switzerland","amenities":["adblue_pack","air_and_water","credit_card","credit_card_general","fleet_card_general","shop","standard_toilet","twenty_four_hour","unmanned","motorway_service"],"distance":86.56344428142,"driving_distance":null,"driving_duration":null,"website_url":"https://find.shell.com/ch/fuel/10023475-interzegg-ag/de_AT","mdm_site_category":"Conventional Fuel Site","formatted_address":"CLIS CENTER\nSAMNAUN DORF, Graubünden, 7563","site_category":"conventional_fuel_site"},{"id":"10022860","name":"ST.JOHANN /TIROL NIEDERHOFEN","lat":47.532881,"lng":12.43709,"brand":"Shell","inactive":false,"type":0,"country_code":"AT","address":"NIEDERHOFEN 4","city":"ST.JOHANN /TIROL","state":"Tirol","postcode":"6380","telephone":"+43 5352 62488","country":"Austria","amenities":["adblue_pack","air_and_water","austrian_highway_sticker","bakery_shop","carwash","credit_card","credit_card_american_express","credit_card_mastercard","credit_card_visa","parking_lanes","partner_card","rollover","rollover_and_jet","self_service","shell_card","shop","standard_toilet","type_of_parking","vacuum","manned"],"distance":88.75743790173,"driving_distance":null,"driving_duration":null,"website_url":"https://www.shell.at/tanken/shell-tankstellensuche/standorte.html/10022860-st-johann-tirol-niederhofen","mdm_site_category":"Conventional Fuel Site","formatted_address":"NIEDERHOFEN 4\nST.JOHANN /TIROL, Tirol, 6380","site_category":"conventional_fuel_site"},{"id":"10022859","name":"ST.ANTON DORFSTRASSE.","lat":47.134438,"lng":10.274279,"brand":"Shell","inactive":false,"type":2,"country_code":"AT","address":"DORFSTRASSE 136","city":"ST.ANTON","state":"Tirol","postcode":"6580","telephone":"+43 5446 3466","country":"Austria","amenities":["adblue_pack","air_and_water","apple_pay","austrian_highway_sticker","b2b_shell_card_ota","bakery_shop","carwash","credit_card","credit_card_american_express","credit_card_mastercard","credit_card_visa","deli2go","disabled_facilities","fleet_card_dkv","fleet_card_esso","fleet_card_uta","go_plus","google_pay","hgv_lane","high_speed_diesel_pump","loyalty_cards","loyalty_program","mobile_payment","mobile_payment_amex","mobile_payment_maestro","mobile_payment_mastercard","mobile_payment_visa","partner_card","paypal","rollover","selectshop","self_service","shell_card","standard_toilet","vacuum","wifi","manned"],"distance":93.26464984718,"driving_distance":null,"driving_duration":null,"website_url":"https://www.shell.at/tanken/shell-tankstellensuche/standorte.html/10022859-st-anton-dorfstrasse","mdm_site_category":"Conventional Fuel Site","formatted_address":"DORFSTRASSE 136\nST.ANTON, Tirol, 6580","site_category":"conventional_fuel_site"},{"id":"10022808","name":"KAPRUN LANDESSTRASSE","lat":47.27696,"lng":12.757461,"brand":"Shell","inactive":false,"type":0,"country_code":"AT","address":"LANDESSTRASSE 30","city":"KAPRUN","state":"Salzburg","postcode":"5710","telephone":"+43 6547 8534","country":"Austria","amenities":["adblue_pack","air_and_water","carwash","conveyor_and_jet","credit_card","credit_card_american_express","credit_card_diners_club","credit_card_mastercard","credit_card_visa","fleet_card_dkv","fleet_card_esso","fleet_card_uta","jet","parking_lanes","rollover","self_service","shell_card","shop","standard_toilet","type_of_parking","manned"],"distance":98.35865801209,"driving_distance":null,"driving_duration":null,"website_url":"https://www.shell.at/tanken/shell-tankstellensuche/standorte.html/10022808-kaprun-landesstrasse","mdm_site_category":"Conventional Fuel Site","formatted_address":"LANDESSTRASSE 30\nKAPRUN, Salzburg, 5710","site_category":"conventional_fuel_site"},{"id":"10024795","name":"SONTHOFEN, OBERSTDORFER STR","lat":47.507964,"lng":10.275724,"brand":"Shell","inactive":false,"type":0,"country_code":"DE","address":"OBERSTDORFER STR. 5 A","city":"SONTHOFEN","state":"Bayern","postcode":"87527","telephone":"+49 8321 2489","country":"Germany","amenities":["adblue_car","adblue_pack","air_and_water","apple_pay","b2b_shell_card_ota","bakery_shop","cafe","carwash","credit_card","credit_card_general","deli2go","fleet_card_general","food_offerings","google_pay","loyalty_cards","loyalty_program","mobile_payment","mobile_payment_amex","mobile_payment_maestro","mobile_payment_mastercard","mobile_payment_visa","other_loyalty_cards","paypal","recup","rollover","selectshop","self_service","shell_card","smart_deal","standard_toilet","wifi","manned"],"distance":105.46377350335001,"driving_distance":null,"driving_duration":null,"website_url":"https://find.shell.com/de/fuel/10024795-sonthofen-oberstdorfer-str/de_AT","mdm_site_category":"Conventional Fuel Site","formatted_address":"OBERSTDORFER STR. 5 A\nSONTHOFEN, Bayern, 87527","site_category":"conventional_fuel_site"},{"id":"10022812","name":"LOFER NR. 210.","lat":47.585248,"lng":12.697269,"brand":"Shell","inactive":false,"type":0,"country_code":"AT","address":"NUMMER 210","city":"LOFER","state":"Salzburg","postcode":"5090","telephone":"+43 6588 8317","country":"Austria","amenities":["adblue_pack","air_and_water","apple_pay","b2b_shell_card_ota","credit_card","credit_card_general","fleet_card_dkv","fleet_card_uta","go_plus","google_pay","loyalty_cards","loyalty_program","mobile_payment","mobile_payment_amex","mobile_payment_maestro","mobile_payment_mastercard","mobile_payment_visa","paypal","self_service","shop","standard_toilet","wifi","manned"],"distance":108.10896165327,"driving_distance":null,"driving_duration":null,"website_url":"https://www.shell.at/tanken/shell-tankstellensuche/standorte.html/10022812-lofer-nr-210","mdm_site_category":"Conventional Fuel Site","formatted_address":"NUMMER 210\nLOFER, Salzburg, 5090","site_category":"conventional_fuel_site"},{"id":"10022817","name":"SAALFELDEN LOFERER STRASSE.","lat":47.431023,"lng":12.844908,"brand":"Shell","inactive":false,"type":2,"country_code":"AT","address":"LOFERER STRASSE 76","city":"SAALFELDEN","state":"Salzburg","postcode":"5760","telephone":"+43 6582 72079","country":"Austria","amenities":["adblue_pack","air_and_water","apple_pay","b2b_shell_card_ota","bakery_shop","billa_unterwegs","carwash","credit_card","credit_card_general","fleet_card_dkv","fleet_card_uta","go_plus","google_pay","hgv_lane","loyalty_cards","loyalty_program","mobile_payment","mobile_payment_amex","mobile_payment_maestro","mobile_payment_mastercard","mobile_payment_visa","paypal","rollover","standard_toilet","unmanned","wifi"],"distance":110.01425075473,"driving_distance":null,"driving_duration":null,"website_url":"https://www.shell.at/tanken/shell-tankstellensuche/standorte.html/10022817-saalfelden-loferer-strasse","mdm_site_category":"Conventional Fuel Site","formatted_address":"LOFERER STRASSE 76\nSAALFELDEN, Salzburg, 5760","site_category":"conventional_fuel_site"},{"id":"13134544","name":"EVPASS HOTEL BAER POST ZERNEZ","lat":46.702165,"lng":10.09486,"brand":"Shell","inactive":false,"type":0,"country_code":"CH","address":"Curtins 108","city":"Zernez","state":"Graubünden","postcode":"7530","telephone":"","country":"Switzerland","amenities":["apple_pay","credit_card","credit_card_mastercard","credit_card_visa","google_pay","mobile_payment","mobile_payment_maestro","mobile_payment_mastercard","mobile_payment_visa","shop","touchless_pay","twenty_four_hour_ev_service","manned"],"distance":113.59095496329,"driving_distance":null,"driving_duration":null,"website_url":"https://find.shell.com/ch/fuel/13134544-evpass-hotel-baer-post-zernez/de_AT","mdm_site_category":"Destination Charging (EV)","formatted_address":"Curtins 108\nZernez, Graubünden, 7530","site_category":"destination_charging_ev"},{"id":"13134545","name":"EVPASS SCHULHAUS ALOSSAI","lat":46.699361,"lng":10.094504,"brand":"Shell","inactive":false,"type":0,"country_code":"CH","address":"Via Suot 4","city":"Zernez","state":"Graubünden","postcode":"7530","telephone":"","country":"Switzerland","amenities":["apple_pay","credit_card","credit_card_mastercard","credit_card_visa","google_pay","mobile_payment","mobile_payment_maestro","mobile_payment_mastercard","mobile_payment_visa","shop","touchless_pay","twenty_four_hour_ev_service","manned"],"distance":113.72552644094,"driving_distance":null,"driving_duration":null,"website_url":"https://find.shell.com/ch/fuel/13134545-evpass-schulhaus-alossai/de_AT","mdm_site_category":"Destination Charging (EV)","formatted_address":"Via Suot 4\nZernez, Graubünden, 7530","site_category":"destination_charging_ev"},{"id":"13134546","name":"EVPASS HOTEL CRUSCH ZERNEZ","lat":46.699519,"lng":10.091297,"brand":"Shell","inactive":false,"type":0,"country_code":"CH","address":"Röven 53","city":"Zernez","state":"Graubünden","postcode":"7530","telephone":"","country":"Switzerland","amenities":["apple_pay","credit_card","credit_card_mastercard","credit_card_visa","google_pay","mobile_payment","mobile_payment_maestro","mobile_payment_mastercard","mobile_payment_visa","shop","touchless_pay","twenty_four_hour_ev_service","manned"],"distance":113.94838726584001,"driving_distance":null,"driving_duration":null,"website_url":"https://find.shell.com/ch/fuel/13134546-evpass-hotel-crusch-zernez/de_AT","mdm_site_category":"Destination Charging (EV)","formatted_address":"Röven 53\nZernez, Graubünden, 7530","site_category":"destination_charging_ev"},{"id":"10022866","name":"AU BREGENZERWALD AM STEIN.","lat":47.328355,"lng":9.975301,"brand":"Shell","inactive":false,"type":0,"country_code":"AT","address":"AM STEIN 388","city":"AU/BREGENZERWALD","state":"Vorarlberg","postcode":"6883","telephone":"+43 5515 2311","country":"Austria","amenities":["air_and_water","austrian_highway_sticker","bakery_shop","carwash","credit_card","credit_card_american_express","credit_card_mastercard","credit_card_visa","disabled_facilities","fast_food","fleet_card_general","food_offerings","high_speed_diesel_pump","jet","parking_lanes","rollover_and_jet","self_service","shop","standard_toilet","type_of_parking","vacuum","manned"],"distance":119.29810295364,"driving_distance":null,"driving_duration":null,"website_url":"https://www.shell.at/tanken/shell-tankstellensuche/standorte.html/10022866-au-bregenzerwald-am-stein","mdm_site_category":"Conventional Fuel Site","formatted_address":"AM STEIN 388\nAU/BREGENZERWALD, Vorarlberg, 6883","site_category":"conventional_fuel_site"},{"id":"10022879","name":"SCHRUNS RHAETIKONSTRASSE.","lat":47.080521,"lng":9.903367,"brand":"Shell","inactive":false,"type":0,"country_code":"AT","address":"RHAETIKONSTRASSE 42","city":"SCHRUNS","state":"Vorarlberg","postcode":"6780","telephone":"+43 5556 72573","country":"Austria","amenities":["adblue_pack","air_and_water","apple_pay","austrian_highway_sticker","b2b_shell_card_ota","bakery_shop","carwash","credit_card","credit_card_american_express","credit_card_mastercard","credit_card_visa","deli2go","disabled_facilities","fast_food","food_offerings","go_plus","google_pay","high_speed_diesel_pump","loyalty_cards","loyalty_program","mobile_payment","mobile_payment_amex","mobile_payment_maestro","mobile_payment_mastercard","mobile_payment_visa","parking_lanes","paypal","rollover_and_jet","selectshop","self_service","shell_card","standard_toilet","type_of_parking","vacuum","wifi","manned"],"distance":120.9779806774,"driving_distance":null,"driving_duration":null,"website_url":"https://www.shell.at/tanken/shell-tankstellensuche/standorte.html/10022879-schruns-rhaetikonstrasse","mdm_site_category":"Conventional Fuel Site","formatted_address":"RHAETIKONSTRASSE 42\nSCHRUNS, Vorarlberg, 6780","site_category":"conventional_fuel_site"},{"id":"10022800","name":"BADGASTEIN KAISER-FRANZ-JOSEFSTRAS.","lat":47.112793,"lng":13.1326,"brand":"Shell","inactive":false,"type":0,"country_code":"AT","address":"KAISER-FRANZ-JOSEFSTRASSE 45","city":"BADGASTEIN","state":"Salzburg","postcode":"5640","telephone":"+43 6434 2160","country":"Austria","amenities":["adblue_pack","air_and_water","apple_pay","b2b_shell_card_ota","bakery_shop","carwash","credit_card","credit_card_american_express","credit_card_mastercard","credit_card_visa","deli2go","fleet_card_dkv","fleet_card_uta","go_plus","google_pay","high_speed_diesel_pump","loyalty_cards","loyalty_program","mobile_payment","mobile_payment_amex","mobile_payment_maestro","mobile_payment_mastercard","mobile_payment_visa","paypal","rollover","self_service","shell_card","shop","standard_toilet","vacuum","wifi","manned"],"distance":123.81401870087001,"driving_distance":null,"driving_duration":null,"website_url":"https://www.shell.at/tanken/shell-tankstellensuche/standorte.html/10022800-badgastein-kaiser-franz-josefstras","mdm_site_category":"Conventional Fuel Site","formatted_address":"KAISER-FRANZ-JOSEFSTRASSE 45\nBADGASTEIN, Salzburg, 5640","site_category":"conventional_fuel_site"},{"id":"13146545","name":"EVPASS SILVRETTA HOTEL","lat":46.866164,"lng":9.881836,"brand":"Shell","inactive":false,"type":0,"country_code":"CH","address":"Landstrasse 190","city":"Klosters","state":"Graubünden","postcode":"7250","telephone":"","country":"Switzerland","amenities":["apple_pay","credit_card","credit_card_mastercard","credit_card_visa","google_pay","mobile_payment","mobile_payment_maestro","mobile_payment_mastercard","mobile_payment_visa","shop","touchless_pay","twenty_four_hour_ev_service","manned"],"distance":124.49674002463,"driving_distance":null,"driving_duration":null,"website_url":"https://find.shell.com/ch/fuel/13146545-evpass-silvretta-hotel/de_AT","mdm_site_category":"Destination Charging (EV)","formatted_address":"Landstrasse 190\nKlosters, Graubünden, 7250","site_category":"destination_charging_ev"},{"id":"13161751","name":"EVPASS PP GOTSCHNABAHN","lat":46.869325,"lng":9.880267,"brand":"Shell","inactive":false,"type":0,"country_code":"CH","address":"Gotschnastrasse 23","city":"Klosters","state":"Graubünden","postcode":"7250","telephone":"","country":"Switzerland","amenities":["apple_pay","credit_card","credit_card_mastercard","credit_card_visa","google_pay","mobile_payment","mobile_payment_maestro","mobile_payment_mastercard","mobile_payment_visa","shop","touchless_pay","twenty_four_hour_ev_service","manned"],"distance":124.55344613681,"driving_distance":null,"driving_duration":null,"website_url":"https://find.shell.com/ch/fuel/13161751-evpass-pp-gotschnabahn/de_AT","mdm_site_category":"Destination Charging (EV)","formatted_address":"Gotschnastrasse 23\nKlosters, Graubünden, 7250","site_category":"destination_charging_ev"},{"id":"13161748","name":"EVPASS PISCHA BERGBAHNEN","lat":46.80232,"lng":9.896091,"brand":"Shell","inactive":false,"type":0,"country_code":"CH","address":"Flüelapassstrasse","city":"Davos","state":"Graubünden","postcode":"7260","telephone":"","country":"Switzerland","amenities":["apple_pay","credit_card","credit_card_mastercard","credit_card_visa","google_pay","mobile_payment","mobile_payment_maestro","mobile_payment_mastercard","mobile_payment_visa","shop","touchless_pay","twenty_four_hour_ev_service","manned"],"distance":124.87260868754001,"driving_distance":null,"driving_duration":null,"website_url":"https://find.shell.com/ch/fuel/13161748-evpass-pischa-bergbahnen/de_AT","mdm_site_category":"Destination Charging (EV)","formatted_address":"Flüelapassstrasse\nDavos, Graubünden, 7260","site_category":"destination_charging_ev"},{"id":"10023692","name":"KESSLER BETRIEBE AG","lat":46.832715,"lng":9.853609,"brand":"Shell","inactive":false,"type":2,"country_code":"CH","address":"PRÄTTIGAUERSTRASSE 32","city":"DAVOS WOLFGANG","state":"Graubünden","postcode":"7265","telephone":"+41 81 417 07 07","country":"Switzerland","amenities":["air_and_water","credit_card","credit_card_general","fleet_card_general","hgv_lane","self_service","shop","standard_toilet","twenty_four_hour","type_of_parking","manned"],"distance":127.30200110783,"driving_distance":null,"driving_duration":null,"website_url":"https://find.shell.com/ch/fuel/10023692-kessler-betriebe-ag/de_AT","mdm_site_category":"Conventional Fuel Site","formatted_address":"PRÄTTIGAUERSTRASSE 32\nDAVOS WOLFGANG, Graubünden, 7265","site_category":"conventional_fuel_site"},{"id":"13161750","name":"EVPASS PP PARSENN","lat":46.807898,"lng":9.841526,"brand":"Shell","inactive":false,"type":0,"country_code":"CH","address":"Mühlestrasse 2","city":"Davos","state":"Graubünden","postcode":"7260","telephone":"","country":"Switzerland","amenities":["apple_pay","credit_card","credit_card_mastercard","credit_card_visa","google_pay","mobile_payment","mobile_payment_maestro","mobile_payment_mastercard","mobile_payment_visa","shop","touchless_pay","twenty_four_hour_ev_service","manned"],"distance":128.77975151315,"driving_distance":null,"driving_duration":null,"website_url":"https://find.shell.com/ch/fuel/13161750-evpass-pp-parsenn/de_AT","mdm_site_category":"Destination Charging (EV)","formatted_address":"Mühlestrasse 2\nDavos, Graubünden, 7260","site_category":"destination_charging_ev"},{"id":"13134543","name":"EVPASS SYMONDPARK DAVOS","lat":46.801278,"lng":9.832533,"brand":"Shell","inactive":false,"type":0,"country_code":"CH","address":"Promenade 105","city":"Davos","state":"Graubünden","postcode":"7270","telephone":"","country":"Switzerland","amenities":["apple_pay","credit_card","credit_card_mastercard","credit_card_visa","google_pay","mobile_payment","mobile_payment_maestro","mobile_payment_mastercard","mobile_payment_visa","shop","touchless_pay","twenty_four_hour_ev_service","manned"],"distance":129.61029957468,"driving_distance":null,"driving_duration":null,"website_url":"https://find.shell.com/ch/fuel/13134543-evpass-symondpark-davos/de_AT","mdm_site_category":"Destination Charging (EV)","formatted_address":"Promenade 105\nDavos, Graubünden, 7270","site_category":"destination_charging_ev"},{"id":"10022874","name":"NUEZIDERS BUNDESSTRASSE.","lat":47.165318,"lng":9.795328,"brand":"Shell","inactive":false,"type":0,"country_code":"AT","address":"BUNDESSTRASSE 3","city":"NUEZIDERS","state":"Vorarlberg","postcode":"6714","telephone":"+43 5552 63211","country":"Austria","amenities":["adblue_pack","adblue_truck","air_and_water","apple_pay","b2b_shell_card_ota","bakery_shop","billa_unterwegs","carwash","credit_card","credit_card_general","fast_food","fleet_card_dkv","fleet_card_uta","food_offerings","go_plus","google_pay","high_speed_diesel_pump","loyalty_cards","loyalty_program","maut_terminal","mobile_payment","mobile_payment_amex","mobile_payment_maestro","mobile_payment_mastercard","mobile_payment_visa","paypal","rollover","self_service","standard_toilet","twenty_four_hour","vacuum","wifi","manned"],"distance":129.64588791170002,"driving_distance":null,"driving_duration":null,"website_url":"https://www.shell.at/tanken/shell-tankstellensuche/standorte.html/10022874-nueziders-bundesstrasse","mdm_site_category":"Conventional Fuel Site","formatted_address":"BUNDESSTRASSE 3\nNUEZIDERS, Vorarlberg, 6714","site_category":"conventional_fuel_site"},{"id":"10022880","name":"THUERINGERBERG FASCHINASTRASSE.","lat":47.215215,"lng":9.792234,"brand":"Shell","inactive":false,"type":0,"country_code":"AT","address":"FASCHINASTRASSE 22","city":"THUERINGERBERG","state":"Vorarlberg","postcode":"6721","telephone":"+43 5550 2102","country":"Austria","amenities":["air_and_water","credit_card","credit_card_general","fleet_card_general","self_service","shop","standard_toilet","type_of_parking","manned"],"distance":130.48338289231,"driving_distance":null,"driving_duration":null,"website_url":"https://www.shell.at/tanken/shell-tankstellensuche/standorte.html/10022880-thueringerberg-faschinastrasse","mdm_site_category":"Conventional Fuel Site","formatted_address":"FASCHINASTRASSE 22\nTHUERINGERBERG, Vorarlberg, 6721","site_category":"conventional_fuel_site"},{"id":"13154567","name":"EVPASS DAVOS KLOSTERS JAKOB","lat":46.790829,"lng":9.821912,"brand":"Shell","inactive":false,"type":0,"country_code":"CH","address":"Brämabüehlstrasse a 11","city":"Davos","state":"Graubünden","postcode":"7270","telephone":"","country":"Switzerland","amenities":["apple_pay","credit_card","credit_card_mastercard","credit_card_visa","google_pay","mobile_payment","mobile_payment_maestro","mobile_payment_mastercard","mobile_payment_visa","shop","touchless_pay","twenty_four_hour_ev_service","manned"],"distance":130.66179771401,"driving_distance":null,"driving_duration":null,"website_url":"https://find.shell.com/ch/fuel/13154567-evpass-davos-klosters-jakob/de_AT","mdm_site_category":"Destination Charging (EV)","formatted_address":"Brämabüehlstrasse a 11\nDavos, Graubünden, 7270","site_category":"destination_charging_ev"},{"id":"13161749","name":"EVPASS GUEST HOUSE BOLGENHOF","lat":46.790278,"lng":9.821286,"brand":"Shell","inactive":false,"type":0,"country_code":"CH","address":"Brämabüehlstrasse a 4","city":"Davos Platz","state":"Graubünden","postcode":"7270","telephone":"","country":"Switzerland","amenities":["apple_pay","credit_card","credit_card_mastercard","credit_card_visa","google_pay","mobile_payment","mobile_payment_maestro","mobile_payment_mastercard","mobile_payment_visa","shop","touchless_pay","twenty_four_hour_ev_service","manned"],"distance":130.72232731741,"driving_distance":null,"driving_duration":null,"website_url":"https://find.shell.com/ch/fuel/13161749-evpass-guest-house-bolgenhof/de_AT","mdm_site_category":"Destination Charging (EV)","formatted_address":"Brämabüehlstrasse a 4\nDavos Platz, Graubünden, 7270","site_category":"destination_charging_ev"},{"id":"12773499","name":"ST.JOHANN BUNDESSTRASSE","lat":47.358895,"lng":13.199737,"brand":"Shell","inactive":false,"type":0,"country_code":"AT","address":"BUNDESSTRASSE 31","city":"ST.JOHANN IM PONGAU","state":"Salzburg","postcode":"5600","telephone":"+43 6412 200573","country":"Austria","amenities":["adblue_pack","air_and_water","bakery_shop","credit_card","credit_card_american_express","credit_card_diners_club","credit_card_mastercard","credit_card_visa","self_service","shell_card","shop","standard_toilet","type_of_parking","manned"],"distance":132.91666380613,"driving_distance":null,"driving_duration":null,"website_url":"https://www.shell.at/tanken/shell-tankstellensuche/standorte.html/12773499-st-johann-bundesstrasse","mdm_site_category":"Conventional Fuel Site","formatted_address":"BUNDESSTRASSE 31\nST.JOHANN IM PONGAU, Salzburg, 5600","site_category":"conventional_fuel_site"},{"id":"13154566","name":"EVPASS DAVOS BERGBAHNEN","lat":46.745886,"lng":9.780579,"brand":"Shell","inactive":false,"type":0,"country_code":"CH","address":"Landwasserstrasse 49","city":"Davos","state":"Graubünden","postcode":"7277","telephone":"","country":"Switzerland","amenities":["apple_pay","credit_card","credit_card_mastercard","credit_card_visa","google_pay","mobile_payment","mobile_payment_maestro","mobile_payment_mastercard","mobile_payment_visa","shop","touchless_pay","twenty_four_hour_ev_service","manned"],"distance":134.94335389341,"driving_distance":null,"driving_duration":null,"website_url":"https://find.shell.com/ch/fuel/13154566-evpass-davos-bergbahnen/de_AT","mdm_site_category":"Destination Charging (EV)","formatted_address":"Landwasserstrasse 49\nDavos, Graubünden, 7277","site_category":"destination_charging_ev"},{"id":"10022876","name":"LANGEN FISCHANGER.","lat":47.515548,"lng":9.8437,"brand":"Shell","inactive":false,"type":0,"country_code":"AT","address":"FISCHANGER 161","city":"LANGEN","state":"Vorarlberg","postcode":"6932","telephone":"+43 5575 4424","country":"Austria","amenities":["air_and_water","carwash","credit_card","credit_card_general","fleet_card_general","jet","self_service","standard_toilet","manned"],"distance":135.23520911289998,"driving_distance":null,"driving_duration":null,"website_url":"https://www.shell.at/tanken/shell-tankstellensuche/standorte.html/10022876-langen-fischanger","mdm_site_category":"Conventional Fuel Site","formatted_address":"FISCHANGER 161\nLANGEN, Vorarlberg, 6932","site_category":"conventional_fuel_site"},{"id":"13134547","name":"EVPASS MIGROS SAMEDAN","lat":46.531032,"lng":9.874319,"brand":"Shell","inactive":false,"type":0,"country_code":"CH","address":"Porta Cho d'Punt 2","city":"Samedan","state":"Graubünden","postcode":"7503","telephone":"","country":"Switzerland","amenities":["apple_pay","credit_card","credit_card_mastercard","credit_card_visa","google_pay","mobile_payment","mobile_payment_maestro","mobile_payment_mastercard","mobile_payment_visa","shop","touchless_pay","twenty_four_hour_ev_service","manned"],"distance":136.55415507775,"driving_distance":null,"driving_duration":null,"website_url":"https://find.shell.com/ch/fuel/13134547-evpass-migros-samedan/de_AT","mdm_site_category":"Destination Charging (EV)","formatted_address":"Porta Cho d'Punt 2\nSamedan, Graubünden, 7503","site_category":"destination_charging_ev"},{"id":"13146455","name":"EVPASS EXP SOCAR SAMEDAN","lat":46.531342,"lng":9.874015,"brand":"Shell","inactive":false,"type":0,"country_code":"CH","address":"Porta Cho d'Punt","city":"Samedan","state":"Graubünden","postcode":"7503","telephone":"","country":"Switzerland","amenities":["apple_pay","credit_card","credit_card_mastercard","credit_card_visa","google_pay","mobile_payment","mobile_payment_maestro","mobile_payment_mastercard","mobile_payment_visa","shop","touchless_pay","twenty_four_hour_ev_service","manned"],"distance":136.56024761561,"driving_distance":null,"driving_duration":null,"website_url":"https://find.shell.com/ch/fuel/13146455-evpass-exp-socar-samedan/de_AT","mdm_site_category":"Destination Charging (EV)","formatted_address":"Porta Cho d'Punt\nSamedan, Graubünden, 7503","site_category":"destination_charging_ev"},{"id":"13146546","name":"EVPASS ALDI SAMEDAN","lat":46.529364,"lng":9.874284,"brand":"Shell","inactive":false,"type":0,"country_code":"CH","address":"Cho d'Punt 43","city":"Samedan","state":"Graubünden","postcode":"7503","telephone":"","country":"Switzerland","amenities":["apple_pay","credit_card","credit_card_mastercard","credit_card_visa","google_pay","mobile_payment","mobile_payment_maestro","mobile_payment_mastercard","mobile_payment_visa","shop","touchless_pay","twenty_four_hour_ev_service","manned"],"distance":136.63677789185002,"driving_distance":null,"driving_duration":null,"website_url":"https://find.shell.com/ch/fuel/13146546-evpass-aldi-samedan/de_AT","mdm_site_category":"Destination Charging (EV)","formatted_address":"Cho d'Punt 43\nSamedan, Graubünden, 7503","site_category":"destination_charging_ev"},{"id":"10023348","name":"SHELL PUNT MURAGL.","lat":46.508657,"lng":9.882503,"brand":"Shell","inactive":false,"type":0,"country_code":"CH","address":"PUNT MURAGL 1","city":"SAMEDAN","state":"Graubünden","postcode":"7503","telephone":"+41 81 837 37 77","country":"Switzerland","amenities":["air_and_water","credit_card","credit_card_general","fleet_card_general","self_service","standard_toilet","twenty_four_hour","manned"],"distance":137.08688824433,"driving_distance":null,"driving_duration":null,"website_url":"https://find.shell.com/ch/fuel/10023348-shell-punt-muragl/de_AT","mdm_site_category":"Conventional Fuel Site","formatted_address":"PUNT MURAGL 1\nSAMEDAN, Graubünden, 7503","site_category":"conventional_fuel_site"},{"id":"13134549","name":"EVPASS AUTONPFISTER SAMEDAN","lat":46.529594,"lng":9.86673,"brand":"Shell","inactive":false,"type":0,"country_code":"CH","address":"San Bastiaun 55","city":"Samedan","state":"Graubünden","postcode":"7503","telephone":"","country":"Switzerland","amenities":["apple_pay","credit_card","credit_card_mastercard","credit_card_visa","google_pay","mobile_payment","mobile_payment_maestro","mobile_payment_mastercard","mobile_payment_visa","shop","touchless_pay","twenty_four_hour_ev_service","manned"],"distance":137.14686195141002,"driving_distance":null,"driving_duration":null,"website_url":"https://find.shell.com/ch/fuel/13134549-evpass-autonpfister-samedan/de_AT","mdm_site_category":"Destination Charging (EV)","formatted_address":"San Bastiaun 55\nSamedan, Graubünden, 7503","site_category":"destination_charging_ev"},{"id":"10022869","name":"DORNBIRN-SCHWEFEL SCHWEFEL","lat":47.42561,"lng":9.741364,"brand":"Shell","inactive":false,"type":2,"country_code":"AT","address":"SCHWEFEL 40","city":"DORNBIRN-SCHWEFEL","state":"Vorarlberg","postcode":"6850","telephone":"+43 5572 55042","country":"Austria","amenities":["adblue_pack","air_and_water","apple_pay","austrian_highway_sticker","b2b_shell_card_ota","bakery_shop","carwash","conveyor","credit_card","credit_card_american_express","credit_card_general","credit_card_mastercard","credit_card_visa","fleet_card_dkv","fleet_card_uta","go_plus","google_pay","hgv_lane","high_speed_diesel_pump","loyalty_cards","loyalty_program","mobile_payment","mobile_payment_amex","mobile_payment_maestro","mobile_payment_mastercard","mobile_payment_visa","parking_lanes","paypal","self_service","shell_card","shop","standard_toilet","type_of_parking","vacuum","wifi","manned"],"distance":139.18172703502,"driving_distance":null,"driving_duration":null,"website_url":"https://www.shell.at/tanken/shell-tankstellensuche/standorte.html/10022869-dornbirn-schwefel-schwefel","mdm_site_category":"Conventional Fuel Site","formatted_address":"SCHWEFEL 40\nDORNBIRN-SCHWEFEL, Vorarlberg, 6850","site_category":"conventional_fuel_site"},{"id":"10022810","name":"KUCHL MOOS.","lat":47.63465,"lng":13.138765,"brand":"Shell","inactive":false,"type":0,"country_code":"AT","address":"MOOS 66","city":"KUCHL","state":"Salzburg","postcode":"5431","telephone":"+43 6244 4471","country":"Austria","amenities":["adblue_pack","air_and_water","apple_pay","austrian_highway_sticker","b2b_shell_card_ota","bakery_shop","carwash","credit_card","credit_card_general","disabled_facilities","fleet_card_dkv","fleet_card_uta","go_plus","google_pay","high_speed_diesel_pump","loyalty_cards","loyalty_program","manual","mobile_payment","mobile_payment_amex","mobile_payment_maestro","mobile_payment_mastercard","mobile_payment_visa","paypal","rollover","self_service","shell_machine_rollover","shop","standard_toilet","wifi","manned"],"distance":139.54120987853997,"driving_distance":null,"driving_duration":null,"website_url":"https://www.shell.at/tanken/shell-tankstellensuche/standorte.html/10022810-kuchl-moos","mdm_site_category":"Conventional Fuel Site","formatted_address":"MOOS 66\nKUCHL, Salzburg, 5431","site_category":"conventional_fuel_site"},{"id":"10022814","name":"OBERALM HALLEINER LANDESSTRASSE.","lat":47.691849,"lng":13.100495,"brand":"Shell","inactive":false,"type":2,"country_code":"AT","address":"HALLEINER LANDESSTRASSE 12","city":"OBERALM","state":"Salzburg","postcode":"5411","telephone":"+43 6245 82899","country":"Austria","amenities":["adblue_pack","air_and_water","apple_pay","b2b_shell_card_ota","bakery_shop","carwash","credit_card","credit_card_general","fleet_card_dkv","fleet_card_uta","go_plus","google_pay","hgv_lane","loyalty_cards","loyalty_program","maut_terminal","mobile_payment","mobile_payment_amex","mobile_payment_maestro","mobile_payment_mastercard","mobile_payment_visa","paypal","rollover","self_service","shop","standard_toilet","twenty_four_hour","wifi","manned"],"distance":140.06990434269,"driving_distance":null,"driving_duration":null,"website_url":"https://www.shell.at/tanken/shell-tankstellensuche/standorte.html/10022814-oberalm-halleiner-landesstrasse","mdm_site_category":"Conventional Fuel Site","formatted_address":"HALLEINER LANDESSTRASSE 12\nOBERALM, Salzburg, 5411","site_category":"conventional_fuel_site"},{"id":"10022868","name":"DORNBIRN LUSTENAUERSTRASSE","lat":47.411733,"lng":9.715752,"brand":"Shell","inactive":false,"type":2,"country_code":"AT","address":"LUSTENAUERSTRASSE 86","city":"DORNBIRN","state":"Vorarlberg","postcode":"6850","telephone":"+43 5572 21157","country":"Austria","amenities":["adblue_pack","air_and_water","apple_pay","austrian_highway_sticker","b2b_shell_card_ota","bakery_shop","bottled_gas","carwash","credit_card","credit_card_american_express","credit_card_general","credit_card_mastercard","credit_card_visa","deli2go","fleet_card_dkv","fleet_card_esso","fleet_card_uta","go_plus","google_pay","hgv_lane","high_speed_diesel_pump","loyalty_cards","loyalty_program","manual","mobile_payment","mobile_payment_amex","mobile_payment_maestro","mobile_payment_mastercard","mobile_payment_visa","parking_lanes","paypal","rollover","self_service","shell_card","shop","standard_toilet","twenty_four_hour","type_of_parking","vacuum","wifi","manned"],"distance":140.59501322286,"driving_distance":null,"driving_duration":null,"website_url":"https://www.shell.at/tanken/shell-tankstellensuche/standorte.html/10022868-dornbirn-lustenauerstrasse","mdm_site_category":"Conventional Fuel Site","formatted_address":"LUSTENAUERSTRASSE 86\nDORNBIRN, Vorarlberg, 6850","site_category":"conventional_fuel_site"},{"id":"13134542","name":"EVPASS OCHSENBÜHL AROSA","lat":46.782613,"lng":9.682671,"brand":"Shell","inactive":false,"type":0,"country_code":"CH","address":"Jöry-Jenny-Strasse","city":"Arosa","state":"Graubünden","postcode":"7050","telephone":"","country":"Switzerland","amenities":["apple_pay","credit_card","credit_card_mastercard","credit_card_visa","google_pay","mobile_payment","mobile_payment_maestro","mobile_payment_mastercard","mobile_payment_visa","shop","touchless_pay","twenty_four_hour_ev_service","manned"],"distance":141.19490127517,"driving_distance":null,"driving_duration":null,"website_url":"https://find.shell.com/ch/fuel/13134542-evpass-ochsenbuhl-arosa/de_AT","mdm_site_category":"Destination Charging (EV)","formatted_address":"Jöry-Jenny-Strasse\nArosa, Graubünden, 7050","site_category":"destination_charging_ev"},{"id":"12833499","name":"SHELL ST. MORITZ","lat":46.491617,"lng":9.832867,"brand":"Shell","inactive":false,"type":0,"country_code":"CH","address":"VIA SOMPLAZ 32","city":"ST. MORITZ","state":"Graubünden","postcode":"7500","telephone":"+41 81 837 37 77","country":"Switzerland","amenities":["shop","twenty_four_hour","manned"],"distance":141.33235943253,"driving_distance":null,"driving_duration":null,"website_url":"https://find.shell.com/ch/fuel/12833499-shell-st-moritz/de_AT","mdm_site_category":"Conventional Fuel Site","formatted_address":"VIA SOMPLAZ 32\nST. MORITZ, Graubünden, 7500","site_category":"conventional_fuel_site"},{"id":"10022878","name":"RANKWEIL WALGAUSTRASSE.","lat":47.268631,"lng":9.643675,"brand":"Shell","inactive":false,"type":0,"country_code":"AT","address":"WALGAUSTRASSE 5A","city":"RANKWEIL","state":"Vorarlberg","postcode":"6830","telephone":"+43 5522 441380","country":"Austria","amenities":["adblue_pack","air_and_water","austrian_highway_sticker","carwash","credit_card","credit_card_general","fleet_card_general","high_speed_diesel_pump","jet","self_service","shop","standard_toilet","vacuum","manned"],"distance":142.4400849755,"driving_distance":null,"driving_duration":null,"website_url":"https://www.shell.at/tanken/shell-tankstellensuche/standorte.html/10022878-rankweil-walgaustrasse","mdm_site_category":"Conventional Fuel Site","formatted_address":"WALGAUSTRASSE 5A\nRANKWEIL, Vorarlberg, 6830","site_category":"conventional_fuel_site"},{"id":"10022877","name":"HOHENEMS A14/RHEINTALAUTOBAHN-HOHE","lat":47.365805,"lng":9.65772,"brand":"Shell","inactive":false,"type":2,"country_code":"AT","address":"A14/RHEINTALAUTOBAHN-HOHENEMS","city":"HOHENEMS","state":"Vorarlberg","postcode":"6845","telephone":"+43 5576 4220942","country":"Austria","amenities":["adblue_pack","adblue_truck","air_and_water","apple_pay","austrian_highway_sticker","b2b_shell_card_ota","bakery_shop","credit_card","credit_card_general","fleet_card_dkv","fleet_card_uta","go_plus","google_pay","hgv_lane","loyalty_cards","loyalty_program","maut_terminal","mobile_payment","mobile_payment_amex","mobile_payment_maestro","mobile_payment_mastercard","mobile_payment_visa","paypal","self_service","shop","standard_toilet","twenty_four_hour","twenty_four_hour_ev_service","type_of_parking","wifi","motorway_service","manned"],"distance":143.52271297138998,"driving_distance":null,"driving_duration":null,"website_url":"https://www.shell.at/tanken/shell-tankstellensuche/standorte.html/10022877-hohenems-a14-rheintalautobahn-hohe","mdm_site_category":"Conventional Fuel Site with EV","formatted_address":"A14/RHEINTALAUTOBAHN-HOHENEMS\nHOHENEMS, Vorarlberg, 6845","site_category":"conventional_fuel_site_with_ev"},{"id":"10022867","name":"BREGENZ RHEINSTRASSE.","lat":47.49363,"lng":9.71096,"brand":"Shell","inactive":false,"type":2,"country_code":"AT","address":"RHEINSTRASSE 88","city":"BREGENZ","state":"Vorarlberg","postcode":"6900","telephone":"+43 5574 71770","country":"Austria","amenities":["adblue_pack","air_and_water","apple_pay","austrian_highway_sticker","b2b_shell_card_ota","bakery_shop","credit_card","credit_card_american_express","credit_card_general","credit_card_mastercard","credit_card_visa","disabled_facilities","fleet_card_dkv","fleet_card_esso","fleet_card_uta","go_plus","google_pay","hgv_lane","high_speed_diesel_pump","loyalty_cards","loyalty_program","mobile_payment","mobile_payment_amex","mobile_payment_maestro","mobile_payment_mastercard","mobile_payment_visa","parking_lanes","paypal","self_service","shell_card","shop","standard_toilet","type_of_parking","wifi","manned"],"distance":143.70716936762,"driving_distance":null,"driving_duration":null,"website_url":"https://www.shell.at/tanken/shell-tankstellensuche/standorte.html/10022867-bregenz-rheinstrasse","mdm_site_category":"Conventional Fuel Site","formatted_address":"RHEINSTRASSE 88\nBREGENZ, Vorarlberg, 6900","site_category":"conventional_fuel_site"},{"id":"10022873","name":"GOETZIS DR.A.HEINZLESTRASSE.","lat":47.331679,"lng":9.637005,"brand":"Shell","inactive":false,"type":0,"country_code":"AT","address":"DR.A.HEINZLESTRASSE 44","city":"GOETZIS","state":"Vorarlberg","postcode":"6840","telephone":"+43 5523 62544","country":"Austria","amenities":["adblue_pack","air_and_water","austrian_highway_sticker","carwash","credit_card","credit_card_american_express","credit_card_mastercard","credit_card_visa","high_speed_diesel_pump","parking_lanes","partner_card","rollover","self_service","shell_card","shop","standard_toilet","type_of_parking","vacuum","manned"],"distance":144.21297559964,"driving_distance":null,"driving_duration":null,"website_url":"https://www.shell.at/tanken/shell-tankstellensuche/standorte.html/10022873-goetzis-dr-a-heinzlestrasse","mdm_site_category":"Conventional Fuel Site","formatted_address":"DR.A.HEINZLESTRASSE 44\nGOETZIS, Vorarlberg, 6840","site_category":"conventional_fuel_site"},{"id":"13134559","name":"EVPASS GEMEINDE DIEPOLDSAU","lat":47.386344,"lng":9.655337,"brand":"Shell","inactive":false,"type":0,"country_code":"CH","address":"Gemeindeplatz 1","city":"Diepoldsau","state":"St. Gallen","postcode":"9444","telephone":"","country":"Switzerland","amenities":["apple_pay","credit_card","credit_card_mastercard","credit_card_visa","google_pay","mobile_payment","mobile_payment_maestro","mobile_payment_mastercard","mobile_payment_visa","shop","touchless_pay","twenty_four_hour_ev_service","manned"],"distance":144.24619287855998,"driving_distance":null,"driving_duration":null,"website_url":"https://find.shell.com/ch/fuel/13134559-evpass-gemeinde-diepoldsau/de_AT","mdm_site_category":"Destination Charging (EV)","formatted_address":"Gemeindeplatz 1\nDiepoldsau, St. Gallen, 9444","site_category":"destination_charging_ev"},{"id":"10022871","name":"FELDKIRCH-LEVIS REICHSSTRASSE.","lat":47.246782,"lng":9.609828,"brand":"Shell","inactive":false,"type":2,"country_code":"AT","address":"REICHSSTRASSE 137","city":"FELDKIRCH-LEVIS","state":"Vorarlberg","postcode":"6800","telephone":"+43 5522 73128","country":"Austria","amenities":["adblue_pack","air_and_water","apple_pay","austrian_highway_sticker","b2b_shell_card_ota","bakery_shop","billa_unterwegs","carwash","credit_card","credit_card_american_express","credit_card_mastercard","credit_card_visa","disabled_facilities","fast_food","fleet_card_dkv","fleet_card_uta","food_offerings","go_plus","google_pay","hgv_lane","high_speed_diesel_pump","loyalty_cards","loyalty_program","mobile_payment","mobile_payment_amex","mobile_payment_maestro","mobile_payment_mastercard","mobile_payment_visa","parking_lanes","paypal","rollover","self_service","shell_card","standard_toilet","twenty_four_hour","type_of_parking","vacuum","wifi","manned"],"distance":144.60364681120998,"driving_distance":null,"driving_duration":null,"website_url":"https://www.shell.at/tanken/shell-tankstellensuche/standorte.html/10022871-feldkirch-levis-reichsstrasse","mdm_site_category":"Conventional Fuel Site","formatted_address":"REICHSSTRASSE 137\nFELDKIRCH-LEVIS, Vorarlberg, 6800","site_category":"conventional_fuel_site"},{"id":"10023360","name":"SHELL GANDA.","lat":46.970124,"lng":9.595097,"brand":"Shell","inactive":false,"type":2,"country_code":"CH","address":"GANDA 24","city":"LANDQUART","state":"Graubünden","postcode":"7302","telephone":"+41 81 322 59 66","country":"Switzerland","amenities":["adblue_car","adblue_pack","air_and_water","apple_pay","austrian_highway_sticker","b2b_shell_card_ota","bakery_shop","bottled_gas","carwash","credit_card","credit_card_american_express","credit_card_mastercard","credit_card_visa","cumulus","disabled_facilities","fast_food","food_offerings","google_pay","hgv_lane","high_speed_diesel_pump","loyalty_program","migrolino","mobile_payment","mobile_payment_amex","mobile_payment_maestro","mobile_payment_mastercard","mobile_payment_visa","partner_loyalty_accepted","paypal","rollover","self_service","shell_cafe","shell_card","standard_toilet","twenty_four_hour","twenty_four_hour_ev_service","vacuum","wifi","manned"],"distance":144.70008177878,"driving_distance":null,"driving_duration":null,"website_url":"https://find.shell.com/ch/fuel/10023360-shell-ganda/de_AT","mdm_site_category":"Conventional Fuel Site with EV","formatted_address":"GANDA 24\nLANDQUART, Graubünden, 7302","site_category":"conventional_fuel_site_with_ev"},{"id":"10026904","name":"WANGEN, RAVENSBURGER STR.72.","lat":47.694688,"lng":9.828225,"brand":"Shell","inactive":false,"type":2,"country_code":"DE","address":"RAVENSBURGER STR. 72","city":"WANGEN","state":"Baden-Württemberg","postcode":"88239","telephone":"+49 7522 91037","country":"Germany","amenities":["adblue_car","adblue_pack","adblue_truck","air_and_water","apple_pay","austrian_highway_sticker","b2b_shell_card_ota","bakery_shop","cafe","carwash","credit_card","credit_card_general","fleet_card_general","food_offerings","google_pay","hgv_lane","jet","loyalty_cards","loyalty_program","mobile_payment","mobile_payment_amex","mobile_payment_maestro","mobile_payment_mastercard","mobile_payment_visa","other_loyalty_cards","paypal","recup","rollover","self_service","service_bay","shell_card","shop","smart_deal","standard_toilet","twenty_four_hour_ev_service","vacuum","wifi","manned"],"distance":144.86715064966,"driving_distance":null,"driving_duration":null,"website_url":"https://find.shell.com/de/fuel/10026904-wangen-ravensburger-str-72/de_AT","mdm_site_category":"Conventional Fuel Site with EV","formatted_address":"RAVENSBURGER STR. 72\nWANGEN, Baden-Württemberg, 88239","site_category":"conventional_fuel_site_with_ev"},{"id":"13016420","name":"EV REWE WANGEN, AM WALT.","lat":47.69754,"lng":9.8256,"brand":"Shell","inactive":false,"type":0,"country_code":"DE","address":"Am Waltersbühl 6-8","city":"Wangen","state":"Baden-Württemberg","postcode":"88239","telephone":"","country":"Germany","amenities":["apple_pay","credit_card","credit_card_mastercard","credit_card_visa","google_pay","mobile_payment","mobile_payment_maestro","mobile_payment_mastercard","mobile_payment_visa","shop","touchless_pay","twenty_four_hour_ev_service","manned"],"distance":145.19296567523,"driving_distance":null,"driving_duration":null,"website_url":"https://find.shell.com/de/fuel/13016420-ev-rewe-wangen-am-walt/de_AT","mdm_site_category":"Destination Charging (EV)","formatted_address":"Am Waltersbühl 6-8\nWangen, Baden-Württemberg, 88239","site_category":"destination_charging_ev"},{"id":"13134550","name":"EVPASS PARKHAUS MUNTEROTS","lat":46.459704,"lng":9.796908,"brand":"Shell","inactive":false,"type":0,"country_code":"CH","address":"VIA DAL FARRER 16","city":"Silvaplana","state":"Graubünden","postcode":"7513","telephone":"","country":"Switzerland","amenities":["apple_pay","credit_card","credit_card_mastercard","credit_card_visa","google_pay","mobile_payment","mobile_payment_maestro","mobile_payment_mastercard","mobile_payment_visa","shop","touchless_pay","twenty_four_hour_ev_service","manned"],"distance":145.39890819816,"driving_distance":null,"driving_duration":null,"website_url":"https://find.shell.com/ch/fuel/13134550-evpass-parkhaus-munterots/de_AT","mdm_site_category":"Destination Charging (EV)","formatted_address":"VIA DAL FARRER 16\nSilvaplana, Graubünden, 7513","site_category":"destination_charging_ev"},{"id":"10023689","name":"ZUEND MOBILCENTER WIDNAU AG","lat":47.397588,"lng":9.640199,"brand":"Shell","inactive":false,"type":0,"country_code":"CH","address":"DIEPOLDSAUERSTRASSE 38","city":"WIDNAU","state":"St. Gallen","postcode":"9443","telephone":"+41 71 727 04 23","country":"Switzerland","amenities":["air_and_water","carwash","credit_card","credit_card_mastercard","credit_card_visa","fleet_card_general","rollover","self_service","standard_toilet","twenty_four_hour","manned"],"distance":145.66290107751,"driving_distance":null,"driving_duration":null,"website_url":"https://find.shell.com/ch/fuel/10023689-zuend-mobilcenter-widnau-ag/de_AT","mdm_site_category":"Conventional Fuel Site","formatted_address":"DIEPOLDSAUERSTRASSE 38\nWIDNAU, St. Gallen, 9443","site_category":"conventional_fuel_site"},{"id":"10022872","name":"TISIS LIECHTENSTEINERSTR","lat":47.230826,"lng":9.586456,"brand":"Shell","inactive":false,"type":0,"country_code":"AT","address":"LIECHTENSTEINERSTR. 66","city":"TISIS","state":"Vorarlberg","postcode":"6807","telephone":"+43 5522 73697","country":"Austria","amenities":["adblue_pack","air_and_water","apple_pay","b2b_shell_card_ota","bakery_shop","carwash","credit_card","credit_card_general","fleet_card_dkv","fleet_card_uta","go_plus","google_pay","loyalty_cards","loyalty_program","mobile_payment","mobile_payment_amex","mobile_payment_maestro","mobile_payment_mastercard","mobile_payment_visa","paypal","rollover","self_service","shop","standard_toilet","wifi","manned"],"distance":146.11771613872,"driving_distance":null,"driving_duration":null,"website_url":"https://www.shell.at/tanken/shell-tankstellensuche/standorte.html/10022872-tisis-liechtensteinerstr","mdm_site_category":"Conventional Fuel Site","formatted_address":"LIECHTENSTEINERSTR. 66\nTISIS, Vorarlberg, 6807","site_category":"conventional_fuel_site"},{"id":"10023383","name":"SHELL AU.","lat":47.430767,"lng":9.635825,"brand":"Shell","inactive":false,"type":0,"country_code":"CH","address":"ZOLLSTRASSE 6","city":"AU SG","state":"St. Gallen","postcode":"9434","telephone":"+41 71 744 36 62","country":"Switzerland","amenities":["adblue_car","adblue_pack","air_and_water","apple_pay","austrian_highway_sticker","b2b_shell_card_ota","bakery_shop","bottled_gas","credit_card","credit_card_american_express","credit_card_general","credit_card_mastercard","credit_card_visa","cumulus","deli_by_shell","google_pay","high_speed_diesel_pump","loyalty_program","mio_shop","mobile_payment","mobile_payment_amex","mobile_payment_maestro","mobile_payment_mastercard","mobile_payment_visa","partner_loyalty_accepted","paypal","self_service","shell_cafe","shell_card","standard_toilet","twenty_four_hour","wifi","manned"],"distance":146.95884107496,"driving_distance":null,"driving_duration":null,"website_url":"https://find.shell.com/ch/fuel/10023383-shell-au/de_AT","mdm_site_category":"Conventional Fuel Site","formatted_address":"ZOLLSTRASSE 6\nAU SG, St. Gallen, 9434","site_category":"conventional_fuel_site"},{"id":"10022875","name":"HOECHST HAUPTSTR.","lat":47.45928,"lng":9.644077,"brand":"Shell","inactive":false,"type":0,"country_code":"AT","address":"HAUPTSTR 32","city":"HOECHST","state":"Vorarlberg","postcode":"6973","telephone":"+43 5578 75609","country":"Austria","amenities":["adblue_pack","air_and_water","apple_pay","austrian_highway_sticker","b2b_shell_card_ota","bakery_shop","billa_unterwegs","carwash","credit_card","credit_card_american_express","credit_card_general","credit_card_mastercard","credit_card_visa","disabled_facilities","fleet_card_dkv","fleet_card_esso","fleet_card_uta","go_plus","google_pay","loyalty_cards","loyalty_program","mobile_payment","mobile_payment_amex","mobile_payment_maestro","mobile_payment_mastercard","mobile_payment_visa","parking_lanes","paypal","rollover","self_service","shell_card","standard_toilet","type_of_parking","vacuum","wifi","manned"],"distance":147.27483480658,"driving_distance":null,"driving_duration":null,"website_url":"https://www.shell.at/tanken/shell-tankstellensuche/standorte.html/10022875-hoechst-hauptstr","mdm_site_category":"Conventional Fuel Site","formatted_address":"HAUPTSTR 32\nHOECHST, Vorarlberg, 6973","site_category":"conventional_fuel_site"},{"id":"11618626","name":"MIGROL SERVICE ST MARGRETHEN.","lat":47.455032,"lng":9.638322,"brand":"Shell","inactive":false,"type":2,"country_code":"CH","address":"GRENZSTRASSE 31","city":"ST MARGRETHEN","state":"St. Gallen","postcode":"9430","telephone":"+41 71 744 07 88","country":"Switzerland","amenities":["adblue_pack","air_and_water","carwash","conveyor","hgv_lane","high_speed_diesel_pump","migrolino","shell_card","standard_toilet","twenty_four_hour","unmanned"],"distance":147.54847119316,"driving_distance":null,"driving_duration":null,"website_url":"https://find.shell.com/ch/fuel/11618626-migrol-service-st-margrethen/de_AT","mdm_site_category":"Conventional Fuel Site","formatted_address":"GRENZSTRASSE 31\nST MARGRETHEN, St. Gallen, 9430","site_category":"conventional_fuel_site"},{"id":"10022803","name":"EBEN (SUED) A10/TAUERNAUTOBAHN-EBE.","lat":47.421189,"lng":13.38054,"brand":"Shell","inactive":false,"type":2,"country_code":"AT","address":"A10/TAUERNAUTOBAHN-EBEN SUED","city":"EBEN (SUED)","state":"Salzburg","postcode":"5531","telephone":"+43 6458 8403","country":"Austria","amenities":["standard_toilet","mobile_payment","high_speed_diesel_pump","bakery_shop","loyalty_cards","credit_card","fuel_card","credit_card_general","self_service","austrian_highway_sticker","childs_toilet","fleet_card_dkv","fleet_card_uta","deli2go","twenty_four_hour","shop","adblue_truck","adblue_pack","loyalty_program","go_plus","paypal","b2b_shell_card_ota","disabled_facilities","hgv_lane","air_and_water","shower","wifi","apple_pay","google_pay","mobile_payment_amex","mobile_payment_visa","mobile_payment_mastercard","mobile_payment_maestro","manned"],"distance":147.85374687438002,"driving_distance":null,"driving_duration":null,"website_url":"https://www.shell.at/tanken/shell-tankstellensuche/standorte.html/10022803-eben-sued-a10-tauernautobahn-ebe","mdm_site_category":"Conventional Fuel Site with EV","formatted_address":"A10/TAUERNAUTOBAHN-EBEN SUED\nEBEN (SUED), Salzburg, 5531","site_category":"conventional_fuel_site_with_ev"},{"id":"10022802","name":"EBEN (NORD) A10/TAUERNAUTOBAHN-EBE.","lat":47.420831,"lng":13.384117,"brand":"Shell","inactive":false,"type":2,"country_code":"AT","address":"A10/TAUERNAUTOBAHN-EBEN NORD","city":"EBEN (NORD)","state":"Salzburg","postcode":"5531","telephone":"+43 6458 8401","country":"Austria","amenities":["adblue_pack","adblue_truck","air_and_water","apple_pay","austrian_highway_sticker","b2b_shell_card_ota","bakery_shop","childs_toilet","credit_card","credit_card_general","deli2go","disabled_facilities","fleet_card_dkv","fleet_card_uta","go_plus","google_pay","hgv_lane","high_speed_diesel_pump","loyalty_cards","loyalty_program","mobile_payment","mobile_payment_amex","mobile_payment_maestro","mobile_payment_mastercard","mobile_payment_visa","paypal","self_service","shop","shower","standard_toilet","twenty_four_hour","twenty_four_hour_ev_service","type_of_parking","wifi","manned"],"distance":148.10244720281,"driving_distance":null,"driving_duration":null,"website_url":"https://www.shell.at/tanken/shell-tankstellensuche/standorte.html/10022802-eben-nord-a10-tauernautobahn-ebe","mdm_site_category":"Conventional Fuel Site with EV","formatted_address":"A10/TAUERNAUTOBAHN-EBEN NORD\nEBEN (NORD), Salzburg, 5531","site_category":"conventional_fuel_site_with_ev"},{"id":"13134552","name":"EVPASS VALBELLA PARKP. KIRCHE","lat":46.747433,"lng":9.552957,"brand":"Shell","inactive":false,"type":0,"country_code":"CH","address":"Voa Acletta 1","city":"Valbella","state":"Graubünden","postcode":"7077","telephone":"","country":"Switzerland","amenities":["apple_pay","credit_card","credit_card_mastercard","credit_card_visa","google_pay","mobile_payment","mobile_payment_maestro","mobile_payment_mastercard","mobile_payment_visa","shop","touchless_pay","twenty_four_hour_ev_service","manned"],"distance":151.70649750547997,"driving_distance":null,"driving_duration":null,"website_url":"https://find.shell.com/ch/fuel/13134552-evpass-valbella-parkp-kirche/de_AT","mdm_site_category":"Destination Charging (EV)","formatted_address":"Voa Acletta 1\nValbella, Graubünden, 7077","site_category":"destination_charging_ev"},{"id":"13134548","name":"EVPASS FERIENZENTRUM SOLEVAL","lat":46.734399,"lng":9.556256,"brand":"Shell","inactive":false,"type":0,"country_code":"CH","address":"Dieschen sot 8","city":"Lenzerheide","state":"Graubünden","postcode":"7078","telephone":"","country":"Switzerland","amenities":["apple_pay","credit_card","credit_card_mastercard","credit_card_visa","google_pay","mobile_payment","mobile_payment_maestro","mobile_payment_mastercard","mobile_payment_visa","shop","touchless_pay","twenty_four_hour_ev_service","manned"],"distance":151.80802585629002,"driving_distance":null,"driving_duration":null,"website_url":"https://find.shell.com/ch/fuel/13134548-evpass-ferienzentrum-soleval/de_AT","mdm_site_category":"Destination Charging (EV)","formatted_address":"Dieschen sot 8\nLenzerheide, Graubünden, 7078","site_category":"destination_charging_ev"},{"id":"13134551","name":"EVPASS KORNQUADER CENTER","lat":46.846554,"lng":9.519825,"brand":"Shell","inactive":false,"type":0,"country_code":"CH","address":"Kasernenstrasse 95","city":"Chur","state":"Graubünden","postcode":"7007","telephone":"","country":"Switzerland","amenities":["apple_pay","credit_card","credit_card_mastercard","credit_card_visa","google_pay","mobile_payment","mobile_payment_maestro","mobile_payment_mastercard","mobile_payment_visa","shop","touchless_pay","twenty_four_hour_ev_service","manned"],"distance":152.00012119052,"driving_distance":null,"driving_duration":null,"website_url":"https://find.shell.com/ch/fuel/13134551-evpass-kornquader-center/de_AT","mdm_site_category":"Destination Charging (EV)","formatted_address":"Kasernenstrasse 95\nChur, Graubünden, 7007","site_category":"destination_charging_ev"},{"id":"11789485","name":"MIGROL SERVICE CHUR.","lat":46.851246,"lng":9.512835,"brand":"Shell","inactive":false,"type":2,"country_code":"CH","address":"RHEINFELSSTRASSE 2","city":"CHUR","state":"Graubünden","postcode":"7000","telephone":"+41 81 250 65 35","country":"Switzerland","amenities":["adblue_pack","air_and_water","hgv_lane","high_speed_diesel_pump","migrolino","self_service","shell_card","standard_toilet","twenty_four_hour","manned"],"distance":152.44175328457,"driving_distance":null,"driving_duration":null,"website_url":"https://find.shell.com/ch/fuel/11789485-migrol-service-chur/de_AT","mdm_site_category":"Conventional Fuel Site","formatted_address":"RHEINFELSSTRASSE 2\nCHUR, Graubünden, 7000","site_category":"conventional_fuel_site"},{"id":"13146506","name":"EVPASS GEMEINDE OBEREGG","lat":47.422655,"lng":9.55263,"brand":"Shell","inactive":false,"type":0,"country_code":"CH","address":"Dorfstrasse 17","city":"Oberegg","state":"Inner-Rhoden","postcode":"9413","telephone":"","country":"Switzerland","amenities":["apple_pay","credit_card","credit_card_mastercard","credit_card_visa","google_pay","mobile_payment","mobile_payment_maestro","mobile_payment_mastercard","mobile_payment_visa","shop","touchless_pay","twenty_four_hour_ev_service","manned"],"distance":152.7470802164,"driving_distance":null,"driving_duration":null,"website_url":"https://find.shell.com/ch/fuel/13146506-evpass-gemeinde-oberegg/de_AT","mdm_site_category":"Destination Charging (EV)","formatted_address":"Dorfstrasse 17\nOberegg, Inner-Rhoden, 9413","site_category":"destination_charging_ev"},{"id":"13135741","name":"EVPASS UFFER SAVOGNIN","lat":46.593609,"lng":9.605188,"brand":"Shell","inactive":false,"type":0,"country_code":"CH","address":"Veia Padnal 1","city":"Savognin","state":"Graubünden","postcode":"7460","telephone":"","country":"Switzerland","amenities":["apple_pay","credit_card","credit_card_mastercard","credit_card_visa","google_pay","mobile_payment","mobile_payment_maestro","mobile_payment_mastercard","mobile_payment_visa","shop","touchless_pay","twenty_four_hour_ev_service","manned"],"distance":152.83746343492,"driving_distance":null,"driving_duration":null,"website_url":"https://find.shell.com/ch/fuel/13135741-evpass-uffer-savognin/de_AT","mdm_site_category":"Destination Charging (EV)","formatted_address":"Veia Padnal 1\nSavognin, Graubünden, 7460","site_category":"destination_charging_ev"},{"id":"13154550","name":"EVPASS TALSTATION SAVOGNIN","lat":46.597349,"lng":9.591612,"brand":"Shell","inactive":false,"type":0,"country_code":"CH","address":"Talstation Parkplatz","city":"Savognin","state":"Graubünden","postcode":"7460","telephone":"","country":"Switzerland","amenities":["apple_pay","credit_card","credit_card_mastercard","credit_card_visa","google_pay","mobile_payment","mobile_payment_maestro","mobile_payment_mastercard","mobile_payment_visa","shop","touchless_pay","twenty_four_hour_ev_service","manned"],"distance":153.67066460585,"driving_distance":null,"driving_duration":null,"website_url":"https://find.shell.com/ch/fuel/13154550-evpass-talstation-savognin/de_AT","mdm_site_category":"Destination Charging (EV)","formatted_address":"Talstation Parkplatz\nSavognin, Graubünden, 7460","site_category":"destination_charging_ev"},{"id":"10023336","name":"SHELL STAAD","lat":47.480102,"lng":9.531622,"brand":"Shell","inactive":false,"type":0,"country_code":"CH","address":"HAUPTSTRASSE 30","city":"STAAD","state":"St. Gallen","postcode":"9422","telephone":"+41 71 855 33 44","country":"Switzerland","amenities":["adblue_pack","air_and_water","apple_pay","austrian_highway_sticker","b2b_shell_card_ota","bakery_shop","bottled_gas","carwash","credit_card","credit_card_american_express","credit_card_general","credit_card_mastercard","credit_card_visa","cumulus","google_pay","high_speed_diesel_pump","loyalty_program","mio_shop","mobile_payment","mobile_payment_amex","mobile_payment_maestro","mobile_payment_mastercard","mobile_payment_visa","partner_loyalty_accepted","paypal","rollover","self_service","shell_cafe","shell_card","standard_toilet","twenty_four_hour_ev_service","vacuum","wifi","manned"],"distance":156.03412535489002,"driving_distance":null,"driving_duration":null,"website_url":"https://find.shell.com/ch/fuel/10023336-shell-staad/de_AT","mdm_site_category":"Conventional Fuel Site with EV","formatted_address":"HAUPTSTRASSE 30\nSTAAD, St. Gallen, 9422","site_category":"conventional_fuel_site_with_ev"}],"clusters":[]}