{"locations":[{"id":"10022684","name":"KREMS STEIN STEINERDONAULAENDE.","lat":48.40335,"lng":15.587548,"brand":"Shell","inactive":false,"type":2,"country_code":"AT","address":"STEINER DONAULAENDE 17","city":"KREMS-STEIN","state":"Niederösterreich","postcode":"3504","telephone":"+43 2732 84424","country":"Austria","amenities":["adblue_pack","air_and_water","apple_pay","austrian_highway_sticker","b2b_shell_card_ota","bakery_shop","billa_unterwegs","carwash","credit_card","credit_card_american_express","credit_card_mastercard","credit_card_visa","disabled_facilities","fleet_card_dkv","fleet_card_uta","go_plus","google_pay","hgv_lane","high_speed_diesel_pump","loyalty_cards","loyalty_program","mobile_payment","mobile_payment_amex","mobile_payment_maestro","mobile_payment_mastercard","mobile_payment_visa","paypal","rollover","self_service","shell_card","standard_toilet","twenty_four_hour","twenty_four_hour_ev_service","vacuum","wifi","manned"],"distance":8.77517510743,"driving_distance":null,"driving_duration":null,"website_url":"https://www.shell.at/tanken/shell-tankstellensuche/standorte.html/10022684-krems-stein-steinerdonaulaende","mdm_site_category":"Conventional Fuel Site with EV","formatted_address":"STEINER DONAULAENDE 17\nKREMS-STEIN, Niederösterreich, 3504","site_category":"conventional_fuel_site_with_ev"},{"id":"13059452","name":"EV BILLA KREMS, AN DER SCHÜTT","lat":48.410897,"lng":15.62851,"brand":"Shell","inactive":false,"type":0,"country_code":"AT","address":"AN DER SCHÜTT 1","city":"KREMS","state":"Niederösterreich","postcode":"3500","telephone":"","country":"Austria","amenities":["apple_pay","credit_card","credit_card_mastercard","credit_card_visa","google_pay","mobile_payment","mobile_payment_maestro","mobile_payment_mastercard","mobile_payment_visa","shop","touchless_pay","manned"],"distance":11.65891711362,"driving_distance":null,"driving_duration":null,"website_url":"https://www.shell.at/tanken/shell-tankstellensuche/standorte.html/13059452-ev-billa-krems-an-der-schutt","mdm_site_category":"Destination Charging (EV)","formatted_address":"AN DER SCHÜTT 1\nKREMS, Niederösterreich, 3500","site_category":"destination_charging_ev"},{"id":"13048177","name":"EV BILLA PRINZERSDORF, LINZERSTR.","lat":48.199507,"lng":15.50346,"brand":"Shell","inactive":false,"type":0,"country_code":"AT","address":"Linzerstrasse","city":"Prinzersdorf","state":"Niederösterreich","postcode":"3385","telephone":"","country":"Austria","amenities":["apple_pay","credit_card","credit_card_mastercard","credit_card_visa","google_pay","mobile_payment","mobile_payment_maestro","mobile_payment_mastercard","mobile_payment_visa","shop","touchless_pay","manned"],"distance":16.736040152180003,"driving_distance":null,"driving_duration":null,"website_url":"https://www.shell.at/tanken/shell-tankstellensuche/standorte.html/13048177-ev-billa-prinzersdorf-linzerstr","mdm_site_category":"Destination Charging (EV)","formatted_address":"Linzerstrasse\nPrinzersdorf, Niederösterreich, 3385","site_category":"destination_charging_ev"},{"id":"10045624","name":"GFOEHL ZWETTLERSTRASSE","lat":48.518105,"lng":15.48464,"brand":"Shell","inactive":false,"type":0,"country_code":"AT","address":"ZWETTLERSTRASSE 16","city":"GFOEHL","state":"Niederösterreich","postcode":"3542","telephone":"+43 2716 632114","country":"Austria","amenities":["air_and_water","carwash","credit_card","credit_card_mastercard","credit_card_visa","parking_lanes","partner_card","rollover","shell_card","standard_toilet","twenty_four_hour","type_of_parking","unmanned","vacuum"],"distance":18.72676634687,"driving_distance":null,"driving_duration":null,"website_url":"https://www.shell.at/tanken/shell-tankstellensuche/standorte.html/10045624-gfoehl-zwettlerstrasse","mdm_site_category":"Conventional Fuel Site","formatted_address":"ZWETTLERSTRASSE 16\nGFOEHL, Niederösterreich, 3542","site_category":"conventional_fuel_site"},{"id":"10022702","name":"ST POELTEN MARIAZELLERSTRASSE.","lat":48.187743,"lng":15.616977,"brand":"Shell","inactive":false,"type":2,"country_code":"AT","address":"MARIAZELLERSTRASSE 134A","city":"ST.POELTEN","state":"Niederösterreich","postcode":"3100","telephone":"+43 2742 77350","country":"Austria","amenities":["adblue_pack","adblue_truck","air_and_water","apple_pay","b2b_shell_card_ota","bakery_shop","carwash","credit_card","credit_card_american_express","credit_card_mastercard","credit_card_visa","fleet_card_dkv","fleet_card_uta","full_service","go_plus","google_pay","hgv_lane","loyalty_cards","loyalty_program","mobile_payment","mobile_payment_amex","mobile_payment_maestro","mobile_payment_mastercard","mobile_payment_visa","no_of_shop_seats","paypal","rollover","shell_card","shop","standard_toilet","twenty_four_hour","twenty_four_hour_ev_service","wifi","manned"],"distance":20.01206557774,"driving_distance":null,"driving_duration":null,"website_url":"https://www.shell.at/tanken/shell-tankstellensuche/standorte.html/10022702-st-poelten-mariazellerstrasse","mdm_site_category":"Conventional Fuel Site with EV","formatted_address":"MARIAZELLERSTRASSE 134A\nST.POELTEN, Niederösterreich, 3100","site_category":"conventional_fuel_site_with_ev"},{"id":"10022720","name":"POEGSTALL BADGASSE","lat":48.314759,"lng":15.201046,"brand":"Shell","inactive":false,"type":0,"country_code":"AT","address":"BADGASSE 19","city":"POEGGSTALL","state":"Niederösterreich","postcode":"3650","telephone":"+43 2758 2295","country":"Austria","amenities":["air_and_water","carwash","credit_card","credit_card_mastercard","credit_card_visa","parking_lanes","rollover","self_service","shell_card","shop","standard_toilet","twenty_four_hour","type_of_parking","manned"],"distance":22.44441277756,"driving_distance":null,"driving_duration":null,"website_url":"https://www.shell.at/tanken/shell-tankstellensuche/standorte.html/10022720-poegstall-badgasse","mdm_site_category":"Conventional Fuel Site","formatted_address":"BADGASSE 19\nPOEGGSTALL, Niederösterreich, 3650","site_category":"conventional_fuel_site"},{"id":"13048178","name":"EV BILLA POEGGSTALL, WUERNSDORF","lat":48.314626,"lng":15.174431,"brand":"Shell","inactive":false,"type":0,"country_code":"AT","address":"Wuernsdorf 105","city":"Poeggstall","state":"Niederösterreich","postcode":"3650","telephone":"","country":"Austria","amenities":["apple_pay","credit_card","credit_card_mastercard","credit_card_visa","google_pay","mobile_payment","mobile_payment_maestro","mobile_payment_mastercard","mobile_payment_visa","shop","touchless_pay","manned"],"distance":24.386493018960003,"driving_distance":null,"driving_duration":null,"website_url":"https://www.shell.at/tanken/shell-tankstellensuche/standorte.html/13048178-ev-billa-poeggstall-wuernsdorf","mdm_site_category":"Destination Charging (EV)","formatted_address":"Wuernsdorf 105\nPoeggstall, Niederösterreich, 3650","site_category":"destination_charging_ev"},{"id":"10022718","name":"WALDHAUSEN","lat":48.523859,"lng":15.244497,"brand":"Shell","inactive":false,"type":0,"country_code":"AT","address":"WALDHAUSEN 79","city":"WALDHAUSEN","state":"Niederösterreich","postcode":"3914","telephone":"+43 2877 7351","country":"Austria","amenities":["air_and_water","carwash","credit_card","credit_card_mastercard","credit_card_visa","jet","partner_card","self_service","shell_card","standard_toilet","twenty_four_hour","unmanned"],"distance":27.00029068399,"driving_distance":null,"driving_duration":null,"website_url":"https://www.shell.at/tanken/shell-tankstellensuche/standorte.html/10022718-waldhausen","mdm_site_category":"Conventional Fuel Site","formatted_address":"WALDHAUSEN 79\nWALDHAUSEN, Niederösterreich, 3914","site_category":"conventional_fuel_site"},{"id":"10022719","name":"WOLFSHOFERAMT","lat":48.594374,"lng":15.55193,"brand":"Shell","inactive":false,"type":0,"country_code":"AT","address":"WOLFSHOFERAMT 148","city":"WOLFSHOFERAMT","state":"Niederösterreich","postcode":"3572","telephone":"+43 2987 2242","country":"Austria","amenities":["air_and_water","credit_card","credit_card_mastercard","credit_card_visa","fleet_card_general","parking_lanes","self_service","twenty_four_hour","type_of_parking","unmanned","vacuum"],"distance":27.441535643210003,"driving_distance":null,"driving_duration":null,"website_url":"https://www.shell.at/tanken/shell-tankstellensuche/standorte.html/10022719-wolfshoferamt","mdm_site_category":"Conventional Fuel Site","formatted_address":"WOLFSHOFERAMT 148\nWOLFSHOFERAMT, Niederösterreich, 3572","site_category":"conventional_fuel_site"},{"id":"10022716","name":"GRAFENSCHLAG","lat":48.491532,"lng":15.180447,"brand":"Shell","inactive":false,"type":0,"country_code":"AT","address":"GRAFENSCHLAG 89","city":"GRAFENSCHLAG","state":"Niederösterreich","postcode":"3912","telephone":"+43 2875 8323","country":"Austria","amenities":["air_and_water","carwash","credit_card","credit_card_mastercard","credit_card_visa","jet","partner_card","self_service","twenty_four_hour","unmanned"],"distance":28.35062108058,"driving_distance":null,"driving_duration":null,"website_url":"https://www.shell.at/tanken/shell-tankstellensuche/standorte.html/10022716-grafenschlag","mdm_site_category":"Conventional Fuel Site","formatted_address":"GRAFENSCHLAG 89\nGRAFENSCHLAG, Niederösterreich, 3912","site_category":"conventional_fuel_site"},{"id":"10022665","name":"GARS AM KAMP KREMSER STR.","lat":48.595659,"lng":15.662185,"brand":"Shell","inactive":false,"type":2,"country_code":"AT","address":"KREMSER STR","city":"GARS AM KAMP","state":"Niederösterreich","postcode":"3571","telephone":"+43 2985 2255","country":"Austria","amenities":["adblue_pack","air_and_water","apple_pay","b2b_shell_card_ota","bakery_shop","carwash","credit_card","credit_card_general","fleet_card_general","go_plus","google_pay","hgv_lane","loyalty_cards","loyalty_program","mobile_payment","mobile_payment_amex","mobile_payment_maestro","mobile_payment_mastercard","mobile_payment_visa","paypal","rollover","self_service","shop","standard_toilet","wifi","manned"],"distance":29.81807536832,"driving_distance":null,"driving_duration":null,"website_url":"https://www.shell.at/tanken/shell-tankstellensuche/standorte.html/10022665-gars-am-kamp-kremser-str","mdm_site_category":"Conventional Fuel Site","formatted_address":"KREMSER STR\nGARS AM KAMP, Niederösterreich, 3571","site_category":"conventional_fuel_site"},{"id":"12888163","name":"YSPERTAL KAMMERBACH","lat":48.312285,"lng":15.078499,"brand":"Shell","inactive":false,"type":0,"country_code":"AT","address":"KAMMERBACH 36","city":"YSPERTAL","state":"Niederösterreich","postcode":"3683","telephone":"+43 7415 7344","country":"Austria","amenities":["air_and_water","selectshop","twenty_four_hour","unmanned"],"distance":31.44045370165,"driving_distance":null,"driving_duration":null,"website_url":"https://www.shell.at/tanken/shell-tankstellensuche/standorte.html/12888163-yspertal-kammerbach","mdm_site_category":"Conventional Fuel Site","formatted_address":"KAMMERBACH 36\nYSPERTAL, Niederösterreich, 3683","site_category":"conventional_fuel_site"},{"id":"10022689","name":"MAISSAU WIENERSTRASSE.","lat":48.572072,"lng":15.830049,"brand":"Shell","inactive":false,"type":2,"country_code":"AT","address":"WIENERSTRASSE 6","city":"MAISSAU","state":"Niederösterreich","postcode":"3712","telephone":"+43 2958 82253","country":"Austria","amenities":["adblue_car","adblue_pack","adblue_truck","air_and_water","apple_pay","austrian_highway_sticker","b2b_shell_card_ota","bakery_shop","carwash","credit_card","credit_card_american_express","credit_card_mastercard","credit_card_visa","disabled_facilities","fleet_card_dkv","go_plus","google_pay","hgv_lane","high_speed_diesel_pump","loyalty_cards","loyalty_program","mobile_payment","mobile_payment_amex","mobile_payment_maestro","mobile_payment_mastercard","mobile_payment_visa","paypal","rollover","self_service","shell_card","shop","standard_toilet","vacuum","wifi","manned"],"distance":34.67032591587,"driving_distance":null,"driving_duration":null,"website_url":"https://www.shell.at/tanken/shell-tankstellensuche/standorte.html/10022689-maissau-wienerstrasse","mdm_site_category":"Conventional Fuel Site","formatted_address":"WIENERSTRASSE 6\nMAISSAU, Niederösterreich, 3712","site_category":"conventional_fuel_site"},{"id":"10022715","name":"ZWETTL SYRNAUERPLATZ.","lat":48.602053,"lng":15.169037,"brand":"Shell","inactive":false,"type":0,"country_code":"AT","address":"SYRNAUERPLATZ 3","city":"ZWETTL","state":"Niederösterreich","postcode":"3910","telephone":"+43 2822 50661","country":"Austria","amenities":["air_and_water","austrian_highway_sticker","carwash","credit_card","credit_card_american_express","credit_card_mastercard","credit_card_visa","disabled_facilities","full_service","jet","parking_lanes","partner_card","rollover","rollover_and_jet","self_service","shell_card","shop","standard_toilet","twenty_four_hour","type_of_parking","vacuum","manned"],"distance":37.15803506437,"driving_distance":null,"driving_duration":null,"website_url":"https://www.shell.at/tanken/shell-tankstellensuche/standorte.html/10022715-zwettl-syrnauerplatz","mdm_site_category":"Conventional Fuel Site","formatted_address":"SYRNAUERPLATZ 3\nZWETTL, Niederösterreich, 3910","site_category":"conventional_fuel_site"},{"id":"13048170","name":"EV BILLA EICHGRABEN, GAERTNERSTR.","lat":48.177584,"lng":16.005182,"brand":"Shell","inactive":false,"type":0,"country_code":"AT","address":"Gaertnerstrasse","city":"Eichgraben","state":"Niederösterreich","postcode":"3032","telephone":"","country":"Austria","amenities":["apple_pay","credit_card","credit_card_mastercard","credit_card_visa","google_pay","mobile_payment","mobile_payment_maestro","mobile_payment_mastercard","mobile_payment_visa","shop","touchless_pay","manned"],"distance":42.02300558639,"driving_distance":null,"driving_duration":null,"website_url":"https://www.shell.at/tanken/shell-tankstellensuche/standorte.html/13048170-ev-billa-eichgraben-gaertnerstr","mdm_site_category":"Destination Charging (EV)","formatted_address":"Gaertnerstrasse\nEichgraben, Niederösterreich, 3032","site_category":"destination_charging_ev"},{"id":"10022661","name":"ST.GEORGEN/BLINDENMARKT HERMANNSDO","lat":48.118462,"lng":14.962324,"brand":"Shell","inactive":false,"type":2,"country_code":"AT","address":"HERMANNSDORF 2A","city":"ST.GEORGEN/BLINDENMARKT","state":"Niederösterreich","postcode":"3304","telephone":"+43 7473 2616","country":"Austria","amenities":["adblue_car","adblue_pack","adblue_truck","air_and_water","austrian_highway_sticker","bakery_shop","carwash","credit_card","credit_card_american_express","credit_card_diners_club","credit_card_general","credit_card_mastercard","credit_card_visa","fast_food","fleet_card_dkv","fleet_card_esso","fleet_card_general","food_offerings","guarded_car_park","hgv_lane","high_speed_diesel_pump","jet","parking_lanes","partner_card","rollover","rollover_and_jet","self_service","shell_card","shop","shower","standard_toilet","truck_parking","twenty_four_hour","type_of_parking","vacuum","wifi","manned"],"distance":47.420760435080005,"driving_distance":null,"driving_duration":null,"website_url":"https://www.shell.at/tanken/shell-tankstellensuche/standorte.html/10022661-st-georgen-blindenmarkt-hermannsdo","mdm_site_category":"Conventional Fuel Site","formatted_address":"HERMANNSDORF 2A\nST.GEORGEN/BLINDENMARKT, Niederösterreich, 3304","site_category":"conventional_fuel_site"},{"id":"10022717","name":"SCHWEIGGERS","lat":48.667268,"lng":15.068426,"brand":"Shell","inactive":false,"type":0,"country_code":"AT","address":"SPORTPLATZSTRASSE 2","city":"SCHWEIGGERS","state":"Niederösterreich","postcode":"3931","telephone":"+43 2829 8214","country":"Austria","amenities":["air_and_water","carwash","credit_card","credit_card_mastercard","credit_card_visa","fleet_card_general","rollover","self_service","type_of_parking","unmanned"],"distance":47.490649581170004,"driving_distance":null,"driving_duration":null,"website_url":"https://www.shell.at/tanken/shell-tankstellensuche/standorte.html/10022717-schweiggers","mdm_site_category":"Conventional Fuel Site","formatted_address":"SPORTPLATZSTRASSE 2\nSCHWEIGGERS, Niederösterreich, 3931","site_category":"conventional_fuel_site"},{"id":"12821980","name":"ST.ANTON GNADENBERG","lat":47.978503,"lng":15.182118,"brand":"Shell","inactive":false,"type":0,"country_code":"AT","address":"GNADENBERG 29","city":"ST.ANTON","state":"Niederösterreich","postcode":"3283","telephone":"+43 7482 43349","country":"Austria","amenities":["adblue_car","air_and_water","austrian_highway_sticker","carwash","credit_card","credit_card_american_express","credit_card_diners_club","credit_card_general","credit_card_mastercard","credit_card_visa","high_speed_diesel_pump","jet","rollover_and_jet","self_service","shell_card","shell_machine_rollover","shop","manned"],"distance":47.56296476248,"driving_distance":null,"driving_duration":null,"website_url":"https://www.shell.at/tanken/shell-tankstellensuche/standorte.html/12821980-st-anton-gnadenberg","mdm_site_category":"Conventional Fuel Site","formatted_address":"GNADENBERG 29\nST.ANTON, Niederösterreich, 3283","site_category":"conventional_fuel_site"},{"id":"10022669","name":"GOELLERSDORF TULLNERSTRASSE.","lat":48.492418,"lng":16.109422,"brand":"Shell","inactive":false,"type":2,"country_code":"AT","address":"TULLNERSTRASSE 486","city":"GOELLERSDORF","state":"Niederösterreich","postcode":"2013","telephone":"+43 2954 30301","country":"Austria","amenities":["adblue_pack","air_and_water","apple_pay","austrian_highway_sticker","b2b_shell_card_ota","bakery_shop","carwash","credit_card","credit_card_american_express","credit_card_mastercard","credit_card_visa","czech_highway_sticker","deli2go","fleet_card_dkv","fleet_card_uta","go_plus","google_pay","hgv_lane","high_speed_diesel_pump","jet","loyalty_cards","loyalty_program","mobile_payment","mobile_payment_amex","mobile_payment_maestro","mobile_payment_mastercard","mobile_payment_visa","paypal","selectshop","self_service","shell_card","standard_toilet","type_of_parking","vacuum","wifi","manned"],"distance":47.67862577366,"driving_distance":null,"driving_duration":null,"website_url":"https://www.shell.at/tanken/shell-tankstellensuche/standorte.html/10022669-goellersdorf-tullnerstrasse","mdm_site_category":"Conventional Fuel Site","formatted_address":"TULLNERSTRASSE 486\nGOELLERSDORF, Niederösterreich, 2013","site_category":"conventional_fuel_site"},{"id":"10022676","name":"HOLLABRUNN ASPERSDORFERSTRASSE.","lat":48.569149,"lng":16.082401,"brand":"Shell","inactive":true,"type":2,"country_code":"AT","address":"ASPERSDORFER STRASSE 13","city":"HOLLABRUNN","state":"Niederösterreich","postcode":"2020","telephone":"+43 2952 500218","country":"Austria","amenities":["adblue_truck","air_and_water","austrian_highway_sticker","bakery_shop","carwash","credit_card","credit_card_american_express","credit_card_mastercard","credit_card_visa","disabled_facilities","fast_food","food_offerings","hgv_lane","high_speed_diesel_pump","jet","parking_lanes","partner_card","rollover","rollover_and_jet","self_service","shell_card","shop","standard_toilet","type_of_parking","vacuum","manned"],"distance":49.37727890726,"driving_distance":null,"driving_duration":null,"website_url":"https://www.shell.at/tanken/shell-tankstellensuche/standorte.html/10022676-hollabrunn-aspersdorferstrasse","mdm_site_category":"Conventional Fuel Site","formatted_address":"ASPERSDORFER STRASSE 13\nHOLLABRUNN, Niederösterreich, 2020","site_category":"conventional_fuel_site"},{"id":"13048180","name":"EV BILLA AMSTETTEN, OTTO-SCHOTT-STR","lat":48.117078,"lng":14.911548,"brand":"Shell","inactive":false,"type":0,"country_code":"AT","address":"Otto-Schott-Str. 2","city":"Amstetten","state":"Niederösterreich","postcode":"3300","telephone":"","country":"Austria","amenities":["apple_pay","credit_card","credit_card_mastercard","credit_card_visa","google_pay","mobile_payment","mobile_payment_maestro","mobile_payment_mastercard","mobile_payment_visa","shop","touchless_pay","manned"],"distance":50.69908676007,"driving_distance":null,"driving_duration":null,"website_url":"https://www.shell.at/tanken/shell-tankstellensuche/standorte.html/13048180-ev-billa-amstetten-otto-schott-str","mdm_site_category":"Destination Charging (EV)","formatted_address":"Otto-Schott-Str. 2\nAmstetten, Niederösterreich, 3300","site_category":"destination_charging_ev"},{"id":"10022698","name":"RETZ KREMSERSTRASSE.","lat":48.753549,"lng":15.952002,"brand":"Shell","inactive":false,"type":0,"country_code":"AT","address":"KREMSERSTRASSE 24 A","city":"RETZ","state":"Niederösterreich","postcode":"2070","telephone":"+43 2942 20253","country":"Austria","amenities":["adblue_pack","air_and_water","apple_pay","austrian_highway_sticker","b2b_shell_card_ota","bakery_shop","carwash","credit_card","credit_card_american_express","credit_card_mastercard","credit_card_visa","deli2go","fleet_card_dkv","google_pay","mobile_payment","mobile_payment_amex","mobile_payment_maestro","mobile_payment_mastercard","mobile_payment_visa","paypal","rollover","self_service","shell_card","shop","standard_toilet","vacuum","wifi","manned"],"distance":55.8604634326,"driving_distance":null,"driving_duration":null,"website_url":"https://www.shell.at/tanken/shell-tankstellensuche/standorte.html/10022698-retz-kremserstrasse","mdm_site_category":"Conventional Fuel Site","formatted_address":"KREMSERSTRASSE 24 A\nRETZ, Niederösterreich, 2070","site_category":"conventional_fuel_site"},{"id":"10022675","name":"HEILIGENKREUZ HAUPTSTRASSE","lat":48.056366,"lng":16.128253,"brand":"Shell","inactive":false,"type":0,"country_code":"AT","address":"HAUPTSTRASSE 1","city":"HEILIGENKREUZ","state":"Niederösterreich","postcode":"2532","telephone":"+43 2258 8703140","country":"Austria","amenities":["adblue_pack","air_and_water","carwash","credit_card","credit_card_general","disabled_facilities","fleet_card_general","jet","self_service","shop","standard_toilet","type_of_parking","manned"],"distance":56.867207079500005,"driving_distance":null,"driving_duration":null,"website_url":"https://www.shell.at/tanken/shell-tankstellensuche/standorte.html/10022675-heiligenkreuz-hauptstrasse","mdm_site_category":"Conventional Fuel Site","formatted_address":"HAUPTSTRASSE 1\nHEILIGENKREUZ, Niederösterreich, 2532","site_category":"conventional_fuel_site"},{"id":"10022639","name":"WIEN HUETTELBERGSTRASSE.","lat":48.202725,"lng":16.257546,"brand":"Shell","inactive":false,"type":0,"country_code":"AT","address":"HUETTELBERGSTRASSE 4","city":"WIEN","state":"Wien","postcode":"1140","telephone":"+43 1 9141235","country":"Austria","amenities":["adblue_car","adblue_pack","adblue_truck","air_and_water","apple_pay","austrian_highway_sticker","b2b_shell_card_ota","bakery_shop","billa_unterwegs","credit_card","credit_card_american_express","credit_card_mastercard","credit_card_visa","go_plus","google_pay","loyalty_cards","loyalty_program","mobile_payment","mobile_payment_amex","mobile_payment_maestro","mobile_payment_mastercard","mobile_payment_visa","paypal","self_service","shell_card","standard_toilet","wifi","manned"],"distance":58.40447113991,"driving_distance":null,"driving_duration":null,"website_url":"https://www.shell.at/tanken/shell-tankstellensuche/standorte.html/10022639-wien-huettelbergstrasse","mdm_site_category":"Conventional Fuel Site","formatted_address":"HUETTELBERGSTRASSE 4\nWIEN, Wien, 1140","site_category":"conventional_fuel_site"},{"id":"13048179","name":"EV BILLA GMUEND, WEITRAER STRASSE","lat":48.768559,"lng":14.979981,"brand":"Shell","inactive":false,"type":0,"country_code":"AT","address":"Weitraer Strasse 40a","city":"Gmuend","state":"Niederösterreich","postcode":"3950","telephone":"","country":"Austria","amenities":["apple_pay","credit_card","credit_card_mastercard","credit_card_visa","google_pay","mobile_payment","mobile_payment_maestro","mobile_payment_mastercard","mobile_payment_visa","shop","touchless_pay","manned"],"distance":60.255310163720004,"driving_distance":null,"driving_duration":null,"website_url":"https://www.shell.at/tanken/shell-tankstellensuche/standorte.html/13048179-ev-billa-gmuend-weitraer-strasse","mdm_site_category":"Destination Charging (EV)","formatted_address":"Weitraer Strasse 40a\nGmuend, Niederösterreich, 3950","site_category":"destination_charging_ev"},{"id":"13048175","name":"EV BILLA PERNITZ, HAUPTSTRASSE","lat":47.896294,"lng":15.96608,"brand":"Shell","inactive":false,"type":0,"country_code":"AT","address":"Hauptstrasse 27","city":"Pernitz","state":"Niederösterreich","postcode":"2763","telephone":"","country":"Austria","amenities":["apple_pay","credit_card","credit_card_mastercard","credit_card_visa","google_pay","mobile_payment","mobile_payment_maestro","mobile_payment_mastercard","mobile_payment_visa","shop","touchless_pay","manned"],"distance":61.171859202280004,"driving_distance":null,"driving_duration":null,"website_url":"https://www.shell.at/tanken/shell-tankstellensuche/standorte.html/13048175-ev-billa-pernitz-hauptstrasse","mdm_site_category":"Destination Charging (EV)","formatted_address":"Hauptstrasse 27\nPernitz, Niederösterreich, 2763","site_category":"destination_charging_ev"},{"id":"10022640","name":"WIEN HADIKGASSE.","lat":48.190435,"lng":16.294543,"brand":"Shell","inactive":false,"type":2,"country_code":"AT","address":"HADIKGASSE 128-134","city":"WIEN","state":"Wien","postcode":"1140","telephone":"+43 1 8947560","country":"Austria","amenities":["adblue_pack","air_and_water","apple_pay","austrian_highway_sticker","b2b_shell_card_ota","bakery_shop","billa_unterwegs","credit_card","credit_card_american_express","credit_card_mastercard","credit_card_visa","fast_food","fleet_card_dkv","fleet_card_general","fleet_card_uta","food_offerings","go_plus","google_pay","hgv_lane","high_speed_diesel_pump","loyalty_cards","loyalty_program","mobile_payment","mobile_payment_amex","mobile_payment_maestro","mobile_payment_mastercard","mobile_payment_visa","paypal","self_service","shell_card","standard_toilet","twenty_four_hour","twenty_four_hour_ev_service","wifi","manned"],"distance":61.4248993187,"driving_distance":null,"driving_duration":null,"website_url":"https://www.shell.at/tanken/shell-tankstellensuche/standorte.html/10022640-wien-hadikgasse","mdm_site_category":"Conventional Fuel Site with EV","formatted_address":"HADIKGASSE 128-134\nWIEN, Wien, 1140","site_category":"conventional_fuel_site_with_ev"},{"id":"10022637","name":"WIEN LAINZERSTRASSE.","lat":48.185532,"lng":16.296231,"brand":"Shell","inactive":false,"type":0,"country_code":"AT","address":"LAINZERSTRASSE 14","city":"WIEN","state":"Wien","postcode":"1130","telephone":"+43 1 8772572","country":"Austria","amenities":["adblue_pack","air_and_water","apple_pay","b2b_shell_card_ota","credit_card","credit_card_american_express","credit_card_mastercard","credit_card_visa","deli2go","go_plus","google_pay","high_speed_diesel_pump","loyalty_cards","loyalty_program","mobile_payment","mobile_payment_amex","mobile_payment_maestro","mobile_payment_mastercard","mobile_payment_visa","paypal","self_service","shell_card","shop","standard_toilet","wifi","manned"],"distance":61.70659454014,"driving_distance":null,"driving_duration":null,"website_url":"https://www.shell.at/tanken/shell-tankstellensuche/standorte.html/10022637-wien-lainzerstrasse","mdm_site_category":"Conventional Fuel Site","formatted_address":"LAINZERSTRASSE 14\nWIEN, Wien, 1130","site_category":"conventional_fuel_site"},{"id":"10022681","name":"KORNEUBURG WIENERSTRASSE.","lat":48.339313,"lng":16.337588,"brand":"Shell","inactive":false,"type":2,"country_code":"AT","address":"WIENERSTRASSE 38","city":"KORNEUBURG","state":"Niederösterreich","postcode":"2100","telephone":"+43 2262 72788","country":"Austria","amenities":["adblue_car","adblue_pack","adblue_truck","air_and_water","apple_pay","austrian_highway_sticker","b2b_shell_card_ota","bakery_shop","carwash","credit_card","credit_card_american_express","credit_card_mastercard","credit_card_visa","fleet_card_dkv","fleet_card_esso","fleet_card_uta","go_plus","google_pay","hgv_lane","high_speed_diesel_pump","loyalty_cards","loyalty_program","mobile_payment","mobile_payment_amex","mobile_payment_maestro","mobile_payment_mastercard","mobile_payment_visa","paypal","rollover","self_service","shell_card","shop","standard_toilet","vacuum","wifi","manned"],"distance":61.91355082356,"driving_distance":null,"driving_duration":null,"website_url":"https://www.shell.at/tanken/shell-tankstellensuche/standorte.html/10022681-korneuburg-wienerstrasse","mdm_site_category":"Conventional Fuel Site","formatted_address":"WIENERSTRASSE 38\nKORNEUBURG, Niederösterreich, 2100","site_category":"conventional_fuel_site"},{"id":"10022644","name":"WIEN PFENNINGGELDG 2/ECKE HERBSTST.","lat":48.207853,"lng":16.313299,"brand":"Shell","inactive":false,"type":2,"country_code":"AT","address":"PFENNINGGELDG 2/ECKE HERBSTSTRASSE","city":"WIEN","state":"Wien","postcode":"1160","telephone":"+43 1 4931814","country":"Austria","amenities":["adblue_car","adblue_pack","adblue_truck","air_and_water","apple_pay","austrian_highway_sticker","b2b_shell_card_ota","bakery_shop","carwash","credit_card","credit_card_american_express","credit_card_mastercard","credit_card_visa","disabled_facilities","fast_food","fleet_card_general","food_offerings","go_plus","google_pay","hgv_lane","loyalty_cards","loyalty_program","mobile_payment","mobile_payment_amex","mobile_payment_maestro","mobile_payment_mastercard","mobile_payment_visa","paypal","rollover","rollover_and_jet","self_service","shell_card","shop","standard_toilet","twenty_four_hour","twenty_four_hour_ev_service","vacuum","wifi","manned"],"distance":62.22541981135,"driving_distance":null,"driving_duration":null,"website_url":"https://www.shell.at/tanken/shell-tankstellensuche/standorte.html/10022644-wien-pfenninggeldg-2-ecke-herbstst","mdm_site_category":"Conventional Fuel Site with EV","formatted_address":"PFENNINGGELDG 2/ECKE HERBSTSTRASSE\nWIEN, Wien, 1160","site_category":"conventional_fuel_site_with_ev"},{"id":"10022642","name":"WIEN OEVERSEESTRASSE.","lat":48.201871,"lng":16.317649,"brand":"Shell","inactive":false,"type":0,"country_code":"AT","address":"OEVERSEESTRASSE 2B","city":"WIEN","state":"Wien","postcode":"1150","telephone":"+43 1 9854380","country":"Austria","amenities":["adblue_car","adblue_pack","adblue_truck","air_and_water","apple_pay","austrian_highway_sticker","b2b_shell_card_ota","bakery_shop","billa_unterwegs","carwash","credit_card","credit_card_american_express","credit_card_mastercard","credit_card_visa","fast_food","food_offerings","go_plus","google_pay","loyalty_cards","loyalty_program","mobile_payment","mobile_payment_amex","mobile_payment_maestro","mobile_payment_mastercard","mobile_payment_visa","paypal","rollover","self_service","shell_card","standard_toilet","twenty_four_hour","vacuum","wifi","manned"],"distance":62.71164869101,"driving_distance":null,"driving_duration":null,"website_url":"https://www.shell.at/tanken/shell-tankstellensuche/standorte.html/10022642-wien-oeverseestrasse","mdm_site_category":"Conventional Fuel Site","formatted_address":"OEVERSEESTRASSE 2B\nWIEN, Wien, 1150","site_category":"conventional_fuel_site"},{"id":"10022645","name":"WIEN GERSTHOFERSTRASSE.","lat":48.229079,"lng":16.32891,"brand":"Shell","inactive":false,"type":0,"country_code":"AT","address":"GERSTHOFERSTRASSE 2","city":"WIEN","state":"Wien","postcode":"1180","telephone":"+43 1 4782303","country":"Austria","amenities":["adblue_car","adblue_pack","adblue_truck","air_and_water","apple_pay","austrian_highway_sticker","b2b_shell_card_ota","bakery_shop","billa_unterwegs","credit_card","credit_card_american_express","credit_card_mastercard","credit_card_visa","fast_food","fleet_card_general","food_offerings","go_plus","google_pay","loyalty_cards","loyalty_program","mobile_payment","mobile_payment_amex","mobile_payment_maestro","mobile_payment_mastercard","mobile_payment_visa","paypal","self_service","shell_card","standard_toilet","twenty_four_hour","wifi","manned"],"distance":62.78365219999,"driving_distance":null,"driving_duration":null,"website_url":"https://www.shell.at/tanken/shell-tankstellensuche/standorte.html/10022645-wien-gersthoferstrasse","mdm_site_category":"Conventional Fuel Site","formatted_address":"GERSTHOFERSTRASSE 2\nWIEN, Wien, 1180","site_category":"conventional_fuel_site"},{"id":"10022646","name":"WIEN DARINGERGASSE.","lat":48.247244,"lng":16.334815,"brand":"Shell","inactive":false,"type":0,"country_code":"AT","address":"DARINGERGASSE 1A","city":"WIEN","state":"Wien","postcode":"1190","telephone":"+43 1 3203421","country":"Austria","amenities":["adblue_pack","air_and_water","apple_pay","b2b_shell_card_ota","bakery_shop","credit_card","credit_card_american_express","credit_card_mastercard","credit_card_visa","deli2go","go_plus","google_pay","loyalty_cards","loyalty_program","mobile_payment","mobile_payment_amex","mobile_payment_maestro","mobile_payment_mastercard","mobile_payment_visa","paypal","self_service","shell_card","shop","standard_toilet","wifi","manned"],"distance":62.80103556083,"driving_distance":null,"driving_duration":null,"website_url":"https://www.shell.at/tanken/shell-tankstellensuche/standorte.html/10022646-wien-daringergasse","mdm_site_category":"Conventional Fuel Site","formatted_address":"DARINGERGASSE 1A\nWIEN, Wien, 1190","site_category":"conventional_fuel_site"},{"id":"10022641","name":"WIEN LINZER STR.","lat":48.190405,"lng":16.321617,"brand":"Shell","inactive":false,"type":0,"country_code":"AT","address":"LINZER STR 2A","city":"WIEN","state":"Wien","postcode":"1150","telephone":"+43 1 8928077","country":"Austria","amenities":["adblue_pack","air_and_water","apple_pay","austrian_highway_sticker","b2b_shell_card_ota","bakery_shop","credit_card","credit_card_american_express","credit_card_mastercard","credit_card_visa","deli2go","fast_food","fleet_card_dkv","fleet_card_uta","food_offerings","go_plus","google_pay","loyalty_cards","loyalty_program","mobile_payment","mobile_payment_amex","mobile_payment_maestro","mobile_payment_mastercard","mobile_payment_visa","paypal","self_service","shell_card","shop","standard_toilet","twenty_four_hour","wifi","manned"],"distance":63.346889349769995,"driving_distance":null,"driving_duration":null,"website_url":"https://www.shell.at/tanken/shell-tankstellensuche/standorte.html/10022641-wien-linzer-str","mdm_site_category":"Conventional Fuel Site","formatted_address":"LINZER STR 2A\nWIEN, Wien, 1150","site_category":"conventional_fuel_site"},{"id":"10022647","name":"WIEN GRINZINGERSTRASSE.","lat":48.254652,"lng":16.363982,"brand":"Shell","inactive":false,"type":0,"country_code":"AT","address":"GRINZINGERSTRASSE 137","city":"WIEN","state":"Wien","postcode":"1190","telephone":"+43 1 3702148","country":"Austria","amenities":["adblue_car","adblue_pack","adblue_truck","air_and_water","apple_pay","austrian_highway_sticker","b2b_shell_card_ota","bakery_shop","credit_card","credit_card_american_express","credit_card_mastercard","credit_card_visa","deli2go","go_plus","google_pay","loyalty_cards","loyalty_program","mobile_payment","mobile_payment_amex","mobile_payment_maestro","mobile_payment_mastercard","mobile_payment_visa","paypal","self_service","shell_card","shop","standard_toilet","wifi","manned"],"distance":64.77926629694,"driving_distance":null,"driving_duration":null,"website_url":"https://www.shell.at/tanken/shell-tankstellensuche/standorte.html/10022647-wien-grinzingerstrasse","mdm_site_category":"Conventional Fuel Site","formatted_address":"GRINZINGERSTRASSE 137\nWIEN, Wien, 1190","site_category":"conventional_fuel_site"},{"id":"10022648","name":"WIEN HEILIGENSTAEDTERSTR","lat":48.241629,"lng":16.361394,"brand":"Shell","inactive":false,"type":0,"country_code":"AT","address":"HEILIGENSTAEDTERSTR. 60","city":"WIEN","state":"Wien","postcode":"1190","telephone":"+43 1 3682569","country":"Austria","amenities":["adblue_car","adblue_pack","adblue_truck","air_and_water","apple_pay","austrian_highway_sticker","b2b_shell_card_ota","bakery_shop","billa_unterwegs","carwash","credit_card","credit_card_general","fleet_card_dkv","fleet_card_general","fleet_card_uta","go_plus","google_pay","loyalty_cards","loyalty_program","manual","mobile_payment","mobile_payment_amex","mobile_payment_maestro","mobile_payment_mastercard","mobile_payment_visa","paypal","rollover","self_service","standard_toilet","twenty_four_hour","vacuum","wifi","manned"],"distance":64.85184118249,"driving_distance":null,"driving_duration":null,"website_url":"https://www.shell.at/tanken/shell-tankstellensuche/standorte.html/10022648-wien-heiligenstaedterstr","mdm_site_category":"Conventional Fuel Site","formatted_address":"HEILIGENSTAEDTERSTR. 60\nWIEN, Wien, 1190","site_category":"conventional_fuel_site"},{"id":"10022774","name":"GUTAU RINGSTRASSE.","lat":48.415829,"lng":14.609686,"brand":"Shell","inactive":false,"type":0,"country_code":"AT","address":"RINGSTRASSE 1","city":"GUTAU","state":"Oberösterreich","postcode":"4293","telephone":"+43 7946 6440","country":"Austria","amenities":["adblue_pack","air_and_water","full_service","shell_card","standard_toilet","manned"],"distance":66.15561321845,"driving_distance":null,"driving_duration":null,"website_url":"https://www.shell.at/tanken/shell-tankstellensuche/standorte.html/10022774-gutau-ringstrasse","mdm_site_category":"Conventional Fuel Site","formatted_address":"RINGSTRASSE 1\nGUTAU, Oberösterreich, 4293","site_category":"conventional_fuel_site"},{"id":"10022635","name":"WIEN TRIESTERSTRASSE.","lat":48.178851,"lng":16.357798,"brand":"Shell","inactive":false,"type":2,"country_code":"AT","address":"TRIESTERSTRASSE 6A-8","city":"WIEN","state":"Wien","postcode":"1100","telephone":"+43 1 6043464","country":"Austria","amenities":["adblue_car","adblue_pack","adblue_truck","air_and_water","apple_pay","austrian_highway_sticker","b2b_shell_card_ota","bakery_shop","carwash","credit_card","credit_card_american_express","credit_card_diners_club","credit_card_mastercard","fast_food","fleet_card_dkv","fleet_card_uta","food_offerings","go_plus","google_pay","hgv_lane","high_speed_diesel_pump","loyalty_cards","loyalty_program","mobile_payment","mobile_payment_amex","mobile_payment_maestro","mobile_payment_mastercard","mobile_payment_visa","parking_lanes","paypal","rollover","rollover_and_jet","self_service","service_bay","shell_card","shop","standard_toilet","twenty_four_hour","type_of_parking","vacuum","wifi","manned"],"distance":66.2860373415,"driving_distance":null,"driving_duration":null,"website_url":"https://www.shell.at/tanken/shell-tankstellensuche/standorte.html/10022635-wien-triesterstrasse","mdm_site_category":"Conventional Fuel Site","formatted_address":"TRIESTERSTRASSE 6A-8\nWIEN, Wien, 1100","site_category":"conventional_fuel_site"},{"id":"10022660","name":"BADEN VOESLAUERSTR","lat":48.004771,"lng":16.231503,"brand":"Shell","inactive":false,"type":0,"country_code":"AT","address":"VOESLAUERSTR 6","city":"BADEN","state":"Niederösterreich","postcode":"2500","telephone":"+43 2252 48693","country":"Austria","amenities":["air_and_water","apple_pay","austrian_highway_sticker","b2b_shell_card_ota","bakery_shop","billa_unterwegs","credit_card","credit_card_american_express","credit_card_mastercard","credit_card_visa","fleet_card_general","go_plus","google_pay","high_speed_diesel_pump","loyalty_cards","loyalty_program","mobile_payment","mobile_payment_amex","mobile_payment_maestro","mobile_payment_mastercard","mobile_payment_visa","paypal","self_service","standard_toilet","vacuum","wifi","manned"],"distance":66.4489682306,"driving_distance":null,"driving_duration":null,"website_url":"https://www.shell.at/tanken/shell-tankstellensuche/standorte.html/10022660-baden-voeslauerstr","mdm_site_category":"Conventional Fuel Site","formatted_address":"VOESLAUERSTR 6\nBADEN, Niederösterreich, 2500","site_category":"conventional_fuel_site"},{"id":"10022690","name":"MARIA ENZERSDORF STEINFELDERSTRASS.","lat":48.090901,"lng":16.309067,"brand":"Shell","inactive":false,"type":2,"country_code":"AT","address":"STEINFELDERSTRASSE 12","city":"MARIA ENZERSDORF","state":"Niederösterreich","postcode":"2344","telephone":"+43 2236 23254","country":"Austria","amenities":["adblue_car","adblue_pack","air_and_water","apple_pay","austrian_highway_sticker","b2b_shell_card_ota","bakery_shop","billa_unterwegs","carwash","credit_card","credit_card_american_express","credit_card_general","credit_card_mastercard","credit_card_visa","fleet_card_dkv","fleet_card_uta","go_plus","google_pay","hgv_lane","high_speed_diesel_pump","loyalty_cards","loyalty_program","mobile_payment","mobile_payment_amex","mobile_payment_maestro","mobile_payment_mastercard","mobile_payment_visa","paypal","rollover","self_service","shell_card","standard_toilet","twenty_four_hour","twenty_four_hour_ev_service","vacuum","wifi","manned"],"distance":66.50419488137,"driving_distance":null,"driving_duration":null,"website_url":"https://www.shell.at/tanken/shell-tankstellensuche/standorte.html/10022690-maria-enzersdorf-steinfelderstrass","mdm_site_category":"Conventional Fuel Site with EV","formatted_address":"STEINFELDERSTRASSE 12\nMARIA ENZERSDORF, Niederösterreich, 2344","site_category":"conventional_fuel_site_with_ev"},{"id":"10022651","name":"WIEN FLORIDSDORFER HAUPTSTR.","lat":48.254393,"lng":16.394112,"brand":"Shell","inactive":false,"type":0,"country_code":"AT","address":"FLORIDSDORFER HAUPTSTR 17","city":"WIEN","state":"Wien","postcode":"1210","telephone":"+43 1 2781449","country":"Austria","amenities":["adblue_car","adblue_pack","adblue_truck","air_and_water","apple_pay","austrian_highway_sticker","b2b_shell_card_ota","bakery_shop","credit_card","credit_card_general","fast_food","fleet_card_general","food_offerings","go_plus","google_pay","loyalty_cards","loyalty_program","mobile_payment","mobile_payment_amex","mobile_payment_maestro","mobile_payment_mastercard","mobile_payment_visa","paypal","self_service","shop","standard_toilet","twenty_four_hour","vacuum","wifi","manned"],"distance":66.98352569922,"driving_distance":null,"driving_duration":null,"website_url":"https://www.shell.at/tanken/shell-tankstellensuche/standorte.html/10022651-wien-floridsdorfer-hauptstr","mdm_site_category":"Conventional Fuel Site","formatted_address":"FLORIDSDORFER HAUPTSTR 17\nWIEN, Wien, 1210","site_category":"conventional_fuel_site"},{"id":"10022705","name":"STRENGBERG AUTOBAHNSTATION","lat":48.114509,"lng":14.667149,"brand":"Shell","inactive":false,"type":2,"country_code":"AT","address":"AUTOBAHNSTATION A1","city":"STRENGBERG","state":"Niederösterreich","postcode":"3314","telephone":"+43 7432 2276","country":"Austria","amenities":["adblue_pack","adblue_truck","air_and_water","apple_pay","austrian_highway_sticker","b2b_shell_card_ota","bakery_shop","credit_card","credit_card_american_express","credit_card_mastercard","credit_card_visa","deli2go","disabled_facilities","fleet_card_dkv","fleet_card_uta","full_service","go_plus","google_pay","hgv_lane","high_speed_diesel_pump","loyalty_cards","loyalty_program","maut_terminal","mobile_payment","mobile_payment_amex","mobile_payment_maestro","mobile_payment_mastercard","mobile_payment_visa","paypal","shell_card","shop","standard_toilet","truck_parking","twenty_four_hour","twenty_four_hour_ev_service","type_of_parking","wifi","motorway_service","manned"],"distance":67.01508950732,"driving_distance":null,"driving_duration":null,"website_url":"https://www.shell.at/tanken/shell-tankstellensuche/standorte.html/10022705-strengberg-autobahnstation","mdm_site_category":"Conventional Fuel Site with EV","formatted_address":"AUTOBAHNSTATION A1\nSTRENGBERG, Niederösterreich, 3314","site_category":"conventional_fuel_site_with_ev"},{"id":"13145830","name":"EV BILLA GUMPOLDSKIRCHEN, BAH.","lat":48.04056,"lng":16.28388,"brand":"Shell","inactive":false,"type":0,"country_code":"AT","address":"BAHNGASSE 1A","city":"GUMPOLDSKIRCHEN","state":"Niederösterreich","postcode":"2352","telephone":"","country":"Austria","amenities":["apple_pay","credit_card","credit_card_mastercard","credit_card_visa","google_pay","mobile_payment","mobile_payment_maestro","mobile_payment_mastercard","mobile_payment_visa","shop","touchless_pay","manned"],"distance":67.52616252627,"driving_distance":null,"driving_duration":null,"website_url":"https://www.shell.at/tanken/shell-tankstellensuche/standorte.html/13145830-ev-billa-gumpoldskirchen-bah","mdm_site_category":"Destination Charging (EV)","formatted_address":"BAHNGASSE 1A\nGUMPOLDSKIRCHEN, Niederösterreich, 2352","site_category":"destination_charging_ev"},{"id":"10022628","name":"WIEN AUSSTELLUNGSSTRASSE.","lat":48.217763,"lng":16.394665,"brand":"Shell","inactive":false,"type":0,"country_code":"AT","address":"AUSSTELLUNGSSTRASSE 4","city":"WIEN","state":"Wien","postcode":"1020","telephone":"+43 1 7295400","country":"Austria","amenities":["adblue_car","adblue_pack","adblue_truck","air_and_water","apple_pay","austrian_highway_sticker","b2b_shell_card_ota","bakery_shop","credit_card","credit_card_american_express","credit_card_mastercard","credit_card_visa","deli2go","fleet_card_dkv","fleet_card_esso","fleet_card_uta","go_plus","google_pay","guarded_car_park","loyalty_cards","loyalty_program","mobile_payment","mobile_payment_amex","mobile_payment_maestro","mobile_payment_mastercard","mobile_payment_visa","paypal","self_service","shell_card","shop","standard_toilet","twenty_four_hour","type_of_parking","wifi","manned"],"distance":67.81249708486001,"driving_distance":null,"driving_duration":null,"website_url":"https://www.shell.at/tanken/shell-tankstellensuche/standorte.html/10022628-wien-ausstellungsstrasse","mdm_site_category":"Conventional Fuel Site","formatted_address":"AUSSTELLUNGSSTRASSE 4\nWIEN, Wien, 1020","site_category":"conventional_fuel_site"},{"id":"10022652","name":"WIEN LEOPOLDAUERSTRASSE.","lat":48.259988,"lng":16.411752,"brand":"Shell","inactive":false,"type":0,"country_code":"AT","address":"LEOPOLDAUERSTRASSE 51","city":"WIEN","state":"Wien","postcode":"1210","telephone":"+43 1 2781401","country":"Austria","amenities":["adblue_car","adblue_pack","adblue_truck","air_and_water","apple_pay","austrian_highway_sticker","b2b_shell_card_ota","bakery_shop","billa_unterwegs","carwash","credit_card","credit_card_general","fleet_card_dkv","fleet_card_uta","go_plus","google_pay","loyalty_cards","loyalty_program","manual","mobile_payment","mobile_payment_amex","mobile_payment_maestro","mobile_payment_mastercard","mobile_payment_visa","rollover","self_service","shell_card","standard_toilet","twenty_four_hour","twenty_four_hour_ev_service","vacuum","wifi","manned"],"distance":68.17430095968,"driving_distance":null,"driving_duration":null,"website_url":"https://www.shell.at/tanken/shell-tankstellensuche/standorte.html/10022652-wien-leopoldauerstrasse","mdm_site_category":"Conventional Fuel Site with EV","formatted_address":"LEOPOLDAUERSTRASSE 51\nWIEN, Wien, 1210","site_category":"conventional_fuel_site_with_ev"},{"id":"10022696","name":"PFAFFSTAETTEN WIENERSTRASSE","lat":48.015556,"lng":16.273641,"brand":"Shell","inactive":false,"type":0,"country_code":"AT","address":"WIENERSTRASSE 97","city":"PFAFFSTAETTEN","state":"Niederösterreich","postcode":"2511","telephone":"+43 2252 209444","country":"Austria","amenities":["adblue_car","adblue_pack","adblue_truck","air_and_water","apple_pay","b2b_shell_card_ota","bakery_shop","billa_unterwegs","carwash","conveyor","credit_card","credit_card_american_express","credit_card_mastercard","credit_card_visa","fleet_card_dkv","fleet_card_uta","go_plus","google_pay","loyalty_cards","loyalty_program","mobile_payment","mobile_payment_amex","mobile_payment_maestro","mobile_payment_mastercard","mobile_payment_visa","paypal","self_service","shell_card","standard_toilet","twenty_four_hour_ev_service","wifi","manned"],"distance":68.35809467391,"driving_distance":null,"driving_duration":null,"website_url":"https://www.shell.at/tanken/shell-tankstellensuche/standorte.html/10022696-pfaffstaetten-wienerstrasse","mdm_site_category":"Conventional Fuel Site with EV","formatted_address":"WIENERSTRASSE 97\nPFAFFSTAETTEN, Niederösterreich, 2511","site_category":"conventional_fuel_site_with_ev"},{"id":"10032265","name":"8071 ZNOJMO","lat":48.85024,"lng":16.0543,"brand":"Shell","inactive":false,"type":2,"country_code":"CZ","address":"VÍDENSKÁ 20","city":"ZNOJMO","state":"Jihomoravský kraj","postcode":"669 02","telephone":"+420 515 261 680","country":"Czechia","amenities":["adblue_pack","air_and_water","apple_pay","b2b_shell_card_ota","b2b_shell_card_qr","bakery_shop","billa_unterwegs","clubsmart_card","credit_card","credit_card_general","disabled_facilities","fleet_card_general","full_service","go_plus","google_pay","hgv_lane","high_speed_diesel_pump","loyalty_cards","loyalty_program","mobile_payment","mobile_payment_amex","mobile_payment_diners","mobile_payment_maestro","mobile_payment_mastercard","mobile_payment_visa","parking_lanes","paypal","standard_toilet","twenty_four_hour","type_of_parking","wifi","manned"],"distance":68.95930341772001,"driving_distance":null,"driving_duration":null,"website_url":"https://find.shell.com/cz/fuel/10032265-8071-znojmo/de_AT","mdm_site_category":"Conventional Fuel Site","formatted_address":"VÍDENSKÁ 20\nZNOJMO, Jihomoravský kraj, 669 02","site_category":"conventional_fuel_site"},{"id":"10022633","name":"WIEN LAAERBERGSTRASSE.","lat":48.164233,"lng":16.390912,"brand":"Shell","inactive":false,"type":0,"country_code":"AT","address":"LAAERBERGSTRASSE 84","city":"WIEN","state":"Wien","postcode":"1100","telephone":"+43 1 6885351","country":"Austria","amenities":["adblue_car","adblue_pack","adblue_truck","air_and_water","apple_pay","austrian_highway_sticker","b2b_shell_card_ota","bakery_shop","billa_unterwegs","carwash","credit_card","credit_card_american_express","credit_card_general","credit_card_mastercard","credit_card_visa","disabled_facilities","fleet_card_dkv","fleet_card_uta","go_plus","google_pay","high_speed_diesel_pump","loyalty_cards","loyalty_program","mobile_payment","mobile_payment_amex","mobile_payment_maestro","mobile_payment_mastercard","mobile_payment_visa","partner_card","paypal","rollover","self_service","shell_card","standard_toilet","vacuum","wifi","manned"],"distance":69.11487971676999,"driving_distance":null,"driving_duration":null,"website_url":"https://www.shell.at/tanken/shell-tankstellensuche/standorte.html/10022633-wien-laaerbergstrasse","mdm_site_category":"Conventional Fuel Site","formatted_address":"LAAERBERGSTRASSE 84\nWIEN, Wien, 1100","site_category":"conventional_fuel_site"},{"id":"10022654","name":"WIEN WAGRAMERSTRASSE.","lat":48.233687,"lng":16.420369,"brand":"Shell","inactive":false,"type":0,"country_code":"AT","address":"WAGRAMERSTRASSE 14","city":"WIEN","state":"Wien","postcode":"1220","telephone":"+43 1 2697074","country":"Austria","amenities":["adblue_pack","air_and_water","apple_pay","austrian_highway_sticker","b2b_shell_card_ota","bakery_shop","billa_unterwegs","carwash","credit_card","credit_card_general","fast_food","fleet_card_dkv","fleet_card_general","fleet_card_uta","food_offerings","go_plus","google_pay","loyalty_cards","loyalty_program","mobile_payment","mobile_payment_amex","mobile_payment_maestro","mobile_payment_mastercard","mobile_payment_visa","paypal","rollover","self_service","shell_card","standard_toilet","twenty_four_hour","vacuum","wifi","manned"],"distance":69.30785978242,"driving_distance":null,"driving_duration":null,"website_url":"https://www.shell.at/tanken/shell-tankstellensuche/standorte.html/10022654-wien-wagramerstrasse","mdm_site_category":"Conventional Fuel Site","formatted_address":"WAGRAMERSTRASSE 14\nWIEN, Wien, 1220","site_category":"conventional_fuel_site"},{"id":"10022656","name":"WIEN DONAUSTADTSTRASSE","lat":48.227055,"lng":16.444949,"brand":"Shell","inactive":false,"type":2,"country_code":"AT","address":"DONAUSTADTSTRASSE 37C","city":"WIEN","state":"Wien","postcode":"1220","telephone":"+43 1 2020339","country":"Austria","amenities":["adblue_car","adblue_pack","adblue_truck","air_and_water","apple_pay","austrian_highway_sticker","b2b_shell_card_ota","bakery_shop","carwash","credit_card","credit_card_general","deli2go","disabled_facilities","fast_food","fleet_card_dkv","fleet_card_uta","food_offerings","go_plus","google_pay","hgv_lane","high_speed_diesel_pump","loyalty_cards","loyalty_program","mobile_payment","mobile_payment_amex","mobile_payment_maestro","mobile_payment_mastercard","mobile_payment_visa","paypal","rollover","self_service","shop","standard_toilet","twenty_four_hour","twenty_four_hour_ev_service","vacuum","wifi","manned"],"distance":71.23746771331001,"driving_distance":null,"driving_duration":null,"website_url":"https://www.shell.at/tanken/shell-tankstellensuche/standorte.html/10022656-wien-donaustadtstrasse","mdm_site_category":"Conventional Fuel Site with EV","formatted_address":"DONAUSTADTSTRASSE 37C\nWIEN, Wien, 1220","site_category":"conventional_fuel_site_with_ev"},{"id":"10022649","name":"WIEN WAGRAMER STRASSE.","lat":48.264427,"lng":16.454859,"brand":"Shell","inactive":false,"type":0,"country_code":"AT","address":"WAGRAMER STRASSE 203","city":"WIEN","state":"Wien","postcode":"1210","telephone":"+43 1 2589460","country":"Austria","amenities":["adblue_car","adblue_pack","adblue_truck","air_and_water","apple_pay","b2b_shell_card_ota","billa_unterwegs","carwash","credit_card","credit_card_general","fleet_card_dkv","fleet_card_uta","go_plus","google_pay","loyalty_cards","loyalty_program","mobile_payment","mobile_payment_amex","mobile_payment_maestro","mobile_payment_mastercard","mobile_payment_visa","paypal","rollover","self_service","standard_toilet","twenty_four_hour","twenty_four_hour_ev_service","wifi","manned"],"distance":71.25893115918001,"driving_distance":null,"driving_duration":null,"website_url":"https://www.shell.at/tanken/shell-tankstellensuche/standorte.html/10022649-wien-wagramer-strasse","mdm_site_category":"Conventional Fuel Site with EV","formatted_address":"WAGRAMER STRASSE 203\nWIEN, Wien, 1210","site_category":"conventional_fuel_site_with_ev"},{"id":"10022655","name":"WIEN HIRSCHSTETTNERSTRASSE.","lat":48.244099,"lng":16.45455,"brand":"Shell","inactive":false,"type":0,"country_code":"AT","address":"HIRSCHSTETTNERSTRASSE 24","city":"WIEN","state":"Wien","postcode":"1220","telephone":"+43 1 2023170","country":"Austria","amenities":["adblue_car","adblue_pack","adblue_truck","air_and_water","apple_pay","austrian_highway_sticker","b2b_shell_card_ota","bakery_shop","billa_unterwegs","carwash","credit_card","credit_card_general","deli2go","fleet_card_dkv","fleet_card_uta","go_plus","google_pay","loyalty_cards","loyalty_program","mobile_payment","mobile_payment_amex","mobile_payment_maestro","mobile_payment_mastercard","mobile_payment_visa","paypal","rollover","self_service","standard_toilet","vacuum","wifi","manned"],"distance":71.5871247136,"driving_distance":null,"driving_duration":null,"website_url":"https://www.shell.at/tanken/shell-tankstellensuche/standorte.html/10022655-wien-hirschstettnerstrasse","mdm_site_category":"Conventional Fuel Site","formatted_address":"HIRSCHSTETTNERSTRASSE 24\nWIEN, Wien, 1220","site_category":"conventional_fuel_site"},{"id":"10022653","name":"WIEN AM KAISERMUEHLENDAMM.","lat":48.207212,"lng":16.446857,"brand":"Shell","inactive":false,"type":2,"country_code":"AT","address":"AM KAISERMUEHLENDAMM 140","city":"WIEN","state":"Wien","postcode":"1220","telephone":"+43 1 2021030","country":"Austria","amenities":["adblue_car","adblue_pack","adblue_truck","air_and_water","apple_pay","austrian_highway_sticker","b2b_shell_card_ota","bakery_shop","carwash","credit_card","credit_card_general","disabled_facilities","fast_food","fleet_card_dkv","fleet_card_uta","food_offerings","go_plus","google_pay","hgv_lane","high_speed_diesel_pump","loyalty_cards","loyalty_program","mobile_payment","mobile_payment_amex","mobile_payment_maestro","mobile_payment_mastercard","mobile_payment_visa","paypal","rollover","self_service","shop","standard_toilet","twenty_four_hour","vacuum","wifi","manned"],"distance":71.84452334766,"driving_distance":null,"driving_duration":null,"website_url":"https://www.shell.at/tanken/shell-tankstellensuche/standorte.html/10022653-wien-am-kaisermuehlendamm","mdm_site_category":"Conventional Fuel Site","formatted_address":"AM KAISERMUEHLENDAMM 140\nWIEN, Wien, 1220","site_category":"conventional_fuel_site"},{"id":"10051667","name":"8504 KUCHAŘOVICE","lat":48.88122,"lng":16.06128,"brand":"Shell","inactive":false,"type":2,"country_code":"CZ","address":"KUCHAROVICE 45/2","city":"KUCHAŘOVICE","state":"Jihomoravský kraj","postcode":"669 02","telephone":"+420 515 221 798","country":"Czechia","amenities":["adblue_truck","air_and_water","b2b_shell_card_ota","b2b_shell_card_qr","clubsmart_card","full_service","go_plus","hgv_lane","high_speed_diesel_pump","loyalty_cards","loyalty_program","mobile_payment","shop","standard_toilet","vacuum","manned"],"distance":72.05231362708,"driving_distance":null,"driving_duration":null,"website_url":"https://find.shell.com/cz/fuel/10051667-8504-kucharovice/de_AT","mdm_site_category":"Conventional Fuel Site","formatted_address":"KUCHAROVICE 45/2\nKUCHAŘOVICE, Jihomoravský kraj, 669 02","site_category":"conventional_fuel_site"},{"id":"13059409","name":"EV BILLA WIEN, BREITENLEERSTRASSE","lat":48.250945,"lng":16.478426,"brand":"Shell","inactive":false,"type":0,"country_code":"AT","address":"BREITENLEERSTRASSE 148","city":"WIEN","state":"Vorarlberg","postcode":"1220","telephone":"","country":"Austria","amenities":["apple_pay","credit_card","credit_card_mastercard","credit_card_visa","google_pay","mobile_payment","mobile_payment_maestro","mobile_payment_mastercard","mobile_payment_visa","shop","touchless_pay","manned"],"distance":73.20664326225,"driving_distance":null,"driving_duration":null,"website_url":"https://www.shell.at/tanken/shell-tankstellensuche/standorte.html/13059409-ev-billa-wien-breitenleerstrasse","mdm_site_category":"Destination Charging (EV)","formatted_address":"BREITENLEERSTRASSE 148\nWIEN, Vorarlberg, 1220","site_category":"destination_charging_ev"},{"id":"13048176","name":"EV BILLA MARIA-LANZENDORF,WIENER S.","lat":48.099326,"lng":16.418834,"brand":"Shell","inactive":false,"type":0,"country_code":"AT","address":"Wiener Strasse 2","city":"Maria-Lanzendorf","state":"Niederösterreich","postcode":"2326","telephone":"","country":"Austria","amenities":["apple_pay","credit_card","credit_card_mastercard","credit_card_visa","google_pay","mobile_payment","mobile_payment_maestro","mobile_payment_mastercard","mobile_payment_visa","shop","touchless_pay","manned"],"distance":73.55223134007,"driving_distance":null,"driving_duration":null,"website_url":"https://www.shell.at/tanken/shell-tankstellensuche/standorte.html/13048176-ev-billa-maria-lanzendorf-wiener-s","mdm_site_category":"Destination Charging (EV)","formatted_address":"Wiener Strasse 2\nMaria-Lanzendorf, Niederösterreich, 2326","site_category":"destination_charging_ev"},{"id":"10022712","name":"A2/SUEDAUTOBAHN-FOEHRENBERG","lat":47.848291,"lng":16.183065,"brand":"Shell","inactive":false,"type":2,"country_code":"AT","address":"A2/SUEDAUTOBAHN-FOEHRENBERG","city":"BAD FISCHAU","state":"Niederösterreich","postcode":"2721","telephone":"+43 664 6166592","country":"Austria","amenities":["adblue_pack","adblue_truck","air_and_water","apple_pay","b2b_shell_card_ota","bakery_shop","credit_card","credit_card_american_express","credit_card_mastercard","credit_card_visa","deli2go","fleet_card_dkv","fleet_card_uta","go_plus","google_pay","hgv_lane","loyalty_cards","loyalty_program","mobile_payment","mobile_payment_amex","mobile_payment_maestro","mobile_payment_mastercard","mobile_payment_visa","paypal","self_service","shell_card","shop","standard_toilet","starbucks","twenty_four_hour","twenty_four_hour_ev_service","type_of_parking","wifi","manned"],"distance":75.40018856056999,"driving_distance":null,"driving_duration":null,"website_url":"https://www.shell.at/tanken/shell-tankstellensuche/standorte.html/10022712-a2-suedautobahn-foehrenberg","mdm_site_category":"Conventional Fuel Site with EV","formatted_address":"A2/SUEDAUTOBAHN-FOEHRENBERG\nBAD FISCHAU, Niederösterreich, 2721","site_category":"conventional_fuel_site_with_ev"},{"id":"10022711","name":"WOELLERSDORF NEUSTÄDTER STRASSE.","lat":47.849035,"lng":16.19201,"brand":"Shell","inactive":false,"type":2,"country_code":"AT","address":"WIENER NEUSTÄDTER STRASSE 10","city":"WOELLERSDORF","state":"Niederösterreich","postcode":"2752","telephone":"+43 2622 42760","country":"Austria","amenities":["adblue_pack","adblue_truck","air_and_water","apple_pay","b2b_shell_card_ota","bakery_shop","billa_unterwegs","carwash","conveyor","credit_card","credit_card_american_express","credit_card_mastercard","credit_card_visa","fleet_card_dkv","fleet_card_uta","full_service","go_plus","google_pay","hgv_lane","loyalty_cards","loyalty_program","mobile_payment","mobile_payment_amex","mobile_payment_maestro","mobile_payment_mastercard","mobile_payment_visa","paypal","shell_card","standard_toilet","wifi","manned"],"distance":75.78756306727,"driving_distance":null,"driving_duration":null,"website_url":"https://www.shell.at/tanken/shell-tankstellensuche/standorte.html/10022711-woellersdorf-neustadter-strasse","mdm_site_category":"Conventional Fuel Site","formatted_address":"WIENER NEUSTÄDTER STRASSE 10\nWOELLERSDORF, Niederösterreich, 2752","site_category":"conventional_fuel_site"},{"id":"12721668","name":"WIEN SEESTADTSTRASSE","lat":48.216516,"lng":16.505247,"brand":"Shell","inactive":false,"type":0,"country_code":"AT","address":"SEESTADTSTRASSE 6","city":"WIEN","state":"Wien","postcode":"1220","telephone":"+43 1 2803116","country":"Austria","amenities":["standard_toilet","mobile_payment","bakery_shop","loyalty_cards","credit_card","fuel_card","credit_card_general","self_service","austrian_highway_sticker","fleet_card_dkv","fleet_card_uta","credit_card_visa","credit_card_mastercard","credit_card_american_express","shell_card","euroshell_card","adblue_pack","loyalty_program","billa_unterwegs","go_plus","paypal","air_and_water","wifi","manned"],"distance":75.84869629619999,"driving_distance":null,"driving_duration":null,"website_url":"https://www.shell.at/tanken/shell-tankstellensuche/standorte.html/12721668-wien-seestadtstrasse","mdm_site_category":"Conventional Fuel Site with EV","formatted_address":"SEESTADTSTRASSE 6\nWIEN, Wien, 1220","site_category":"conventional_fuel_site_with_ev"},{"id":"10022700","name":"SCHWECHAT BRUCK-HAINBURGERSTRASSE.","lat":48.140529,"lng":16.479637,"brand":"Shell","inactive":false,"type":2,"country_code":"AT","address":"BRUCK-HAINBURGERSTRASSE 2 A","city":"SCHWECHAT","state":"Niederösterreich","postcode":"2320","telephone":"+43 1 7078108","country":"Austria","amenities":["adblue_pack","adblue_truck","air_and_water","apple_pay","austrian_highway_sticker","b2b_shell_card_ota","bakery_shop","billa_unterwegs","carwash","credit_card","credit_card_american_express","credit_card_general","credit_card_mastercard","credit_card_visa","fleet_card_dkv","fleet_card_uta","go_plus","google_pay","hgv_lane","high_speed_diesel_pump","loyalty_cards","loyalty_program","maut_terminal","mobile_payment","mobile_payment_amex","mobile_payment_maestro","mobile_payment_mastercard","mobile_payment_visa","partner_card","paypal","rollover","self_service","shell_card","standard_toilet","twenty_four_hour","vacuum","wifi","manned"],"distance":76.18877892791,"driving_distance":null,"driving_duration":null,"website_url":"https://www.shell.at/tanken/shell-tankstellensuche/standorte.html/10022700-schwechat-bruck-hainburgerstrasse","mdm_site_category":"Conventional Fuel Site","formatted_address":"BRUCK-HAINBURGERSTRASSE 2 A\nSCHWECHAT, Niederösterreich, 2320","site_category":"conventional_fuel_site"},{"id":"10022737","name":"ENNS FORSTBERGSTRASSE.","lat":48.209851,"lng":14.47682,"brand":"Shell","inactive":false,"type":2,"country_code":"AT","address":"FORSTBERGSTRASSE 18","city":"ENNS","state":"Oberösterreich","postcode":"4470","telephone":"+43 7223 82536","country":"Austria","amenities":["adblue_car","adblue_pack","adblue_truck","air_and_water","apple_pay","austrian_highway_sticker","b2b_shell_card_ota","bakery_shop","carwash","credit_card","credit_card_american_express","credit_card_diners_club","credit_card_mastercard","credit_card_visa","deli2go","disabled_facilities","fleet_card_dkv","fleet_card_uta","go_plus","google_pay","hgv_lane","high_speed_diesel_pump","loyalty_cards","loyalty_program","mobile_payment","mobile_payment_amex","mobile_payment_maestro","mobile_payment_mastercard","mobile_payment_visa","paypal","rollover","rollover_and_jet","self_service","shell_card","shop","standard_toilet","twenty_four_hour_ev_service","vacuum","wifi","manned"],"distance":77.30122589596,"driving_distance":null,"driving_duration":null,"website_url":"https://www.shell.at/tanken/shell-tankstellensuche/standorte.html/10022737-enns-forstbergstrasse","mdm_site_category":"Conventional Fuel Site with EV","formatted_address":"FORSTBERGSTRASSE 18\nENNS, Oberösterreich, 4470","site_category":"conventional_fuel_site_with_ev"},{"id":"10022663","name":"DEUTSCH WAGRAM HAUPTSTRASSE.","lat":48.295657,"lng":16.558694,"brand":"Shell","inactive":false,"type":2,"country_code":"AT","address":"HAUPTSTRASSE 59","city":"DEUTSCH WAGRAM","state":"Niederösterreich","postcode":"2232","telephone":"+43 2247 2264","country":"Austria","amenities":["adblue_car","adblue_pack","adblue_truck","air_and_water","apple_pay","austrian_highway_sticker","b2b_shell_card_ota","bakery_shop","carwash","credit_card","credit_card_american_express","credit_card_mastercard","credit_card_visa","fleet_card_dkv","fleet_card_esso","fleet_card_uta","go_plus","google_pay","hgv_lane","high_speed_diesel_pump","loyalty_cards","loyalty_program","mobile_payment","mobile_payment_amex","mobile_payment_maestro","mobile_payment_mastercard","mobile_payment_visa","paypal","rollover","self_service","shell_card","shop","standard_toilet","vacuum","wifi","manned"],"distance":78.50918662417,"driving_distance":null,"driving_duration":null,"website_url":"https://www.shell.at/tanken/shell-tankstellensuche/standorte.html/10022663-deutsch-wagram-hauptstrasse","mdm_site_category":"Conventional Fuel Site","formatted_address":"HAUPTSTRASSE 59\nDEUTSCH WAGRAM, Niederösterreich, 2232","site_category":"conventional_fuel_site"},{"id":"13048174","name":"EV BILLA RAASDORF,GROSSENZERSDORFER","lat":48.245638,"lng":16.567704,"brand":"Shell","inactive":false,"type":0,"country_code":"AT","address":"Grossenzersdorferstrasse","city":"Raasdorf","state":"Niederösterreich","postcode":"2281","telephone":"","country":"Austria","amenities":["apple_pay","credit_card","credit_card_mastercard","credit_card_visa","google_pay","mobile_payment","mobile_payment_maestro","mobile_payment_mastercard","mobile_payment_visa","shop","touchless_pay","manned"],"distance":79.82907964028,"driving_distance":null,"driving_duration":null,"website_url":"https://www.shell.at/tanken/shell-tankstellensuche/standorte.html/13048174-ev-billa-raasdorf-grossenzersdorfer","mdm_site_category":"Destination Charging (EV)","formatted_address":"Grossenzersdorferstrasse\nRaasdorf, Niederösterreich, 2281","site_category":"destination_charging_ev"},{"id":"13048171","name":"EV BILLA WIENER NEUSTADT,POTTENDORF","lat":47.833343,"lng":16.267947,"brand":"Shell","inactive":false,"type":0,"country_code":"AT","address":"Pottendorfer Strasse","city":"Wiener Neustadt","state":"Niederösterreich","postcode":"2700","telephone":"","country":"Austria","amenities":["apple_pay","credit_card","credit_card_mastercard","credit_card_visa","google_pay","mobile_payment","mobile_payment_maestro","mobile_payment_mastercard","mobile_payment_visa","shop","touchless_pay","manned"],"distance":80.95387185534,"driving_distance":null,"driving_duration":null,"website_url":"https://www.shell.at/tanken/shell-tankstellensuche/standorte.html/13048171-ev-billa-wiener-neustadt-pottendorf","mdm_site_category":"Destination Charging (EV)","formatted_address":"Pottendorfer Strasse\nWiener Neustadt, Niederösterreich, 2700","site_category":"destination_charging_ev"},{"id":"13059411","name":"EV BILLA GROSS-ENZERSDORF, OBERHAUS","lat":48.189721,"lng":16.577551,"brand":"Shell","inactive":false,"type":0,"country_code":"AT","address":"OBERHAUSNERSTRASSE","city":"GROSS-ENZERSDORF","state":"Niederösterreich","postcode":"2301","telephone":"","country":"Austria","amenities":["apple_pay","credit_card","credit_card_mastercard","credit_card_visa","google_pay","mobile_payment","mobile_payment_maestro","mobile_payment_mastercard","mobile_payment_visa","shop","touchless_pay","manned"],"distance":81.72017402994,"driving_distance":null,"driving_duration":null,"website_url":"https://www.shell.at/tanken/shell-tankstellensuche/standorte.html/13059411-ev-billa-gross-enzersdorf-oberhaus","mdm_site_category":"Destination Charging (EV)","formatted_address":"OBERHAUSNERSTRASSE\nGROSS-ENZERSDORF, Niederösterreich, 2301","site_category":"destination_charging_ev"},{"id":"10022693","name":"NEUNKIRCHEN WIENERSTRASSE","lat":47.730449,"lng":16.095428,"brand":"Shell","inactive":false,"type":0,"country_code":"AT","address":"WIENERSTRASSE 123","city":"NEUNKIRCHEN","state":"Niederösterreich","postcode":"2620","telephone":"+43 2635 62758","country":"Austria","amenities":["adblue_pack","air_and_water","carwash","credit_card","credit_card_american_express","credit_card_diners_club","credit_card_mastercard","credit_card_visa","full_service","high_speed_diesel_pump","pay_at_pump","rollover","shell_card","shop","standard_toilet","manned"],"distance":81.88712773587,"driving_distance":null,"driving_duration":null,"website_url":"https://www.shell.at/tanken/shell-tankstellensuche/standorte.html/10022693-neunkirchen-wienerstrasse","mdm_site_category":"Conventional Fuel Site","formatted_address":"WIENERSTRASSE 123\nNEUNKIRCHEN, Niederösterreich, 2620","site_category":"conventional_fuel_site"},{"id":"10022691","name":"MISTELBACH MITSCHASTRASSE","lat":48.56169,"lng":16.576921,"brand":"Shell","inactive":false,"type":0,"country_code":"AT","address":"MITSCHASTRASSE 29","city":"MISTELBACH","state":"Niederösterreich","postcode":"2130","telephone":"+43 2572 2622","country":"Austria","amenities":["adblue_car","adblue_pack","adblue_truck","air_and_water","apple_pay","austrian_highway_sticker","b2b_shell_card_ota","bakery_shop","carwash","credit_card","credit_card_american_express","credit_card_mastercard","credit_card_visa","fleet_card_dkv","fleet_card_esso","fleet_card_uta","go_plus","google_pay","high_speed_diesel_pump","loyalty_cards","loyalty_program","mobile_payment","mobile_payment_amex","mobile_payment_maestro","mobile_payment_mastercard","mobile_payment_visa","paypal","rollover","self_service","shell_card","shop","standard_toilet","twenty_four_hour_ev_service","vacuum","wifi","manned"],"distance":82.83089588164,"driving_distance":null,"driving_duration":null,"website_url":"https://www.shell.at/tanken/shell-tankstellensuche/standorte.html/10022691-mistelbach-mitschastrasse","mdm_site_category":"Conventional Fuel Site with EV","formatted_address":"MITSCHASTRASSE 29\nMISTELBACH, Niederösterreich, 2130","site_category":"conventional_fuel_site_with_ev"},{"id":"13059437","name":"EV BILLA NEUDÖRFL, HAUPTSTRASSE","lat":47.800928999999996,"lng":16.275732,"brand":"Shell","inactive":false,"type":0,"country_code":"AT","address":"HAUPTSTRASSE 169","city":"NEUDÖRFL","state":"Burgenland","postcode":"7201","telephone":"","country":"Austria","amenities":["apple_pay","credit_card","credit_card_mastercard","credit_card_visa","google_pay","mobile_payment","mobile_payment_maestro","mobile_payment_mastercard","mobile_payment_visa","shop","touchless_pay","manned"],"distance":83.95842613517999,"driving_distance":null,"driving_duration":null,"website_url":"https://www.shell.at/tanken/shell-tankstellensuche/standorte.html/13059437-ev-billa-neudorfl-hauptstrasse","mdm_site_category":"Destination Charging (EV)","formatted_address":"HAUPTSTRASSE 169\nNEUDÖRFL, Burgenland, 7201","site_category":"destination_charging_ev"},{"id":"10022747","name":"LINZ-EBELSBERG WIENER STRASSE.","lat":48.244247,"lng":14.334887,"brand":"Shell","inactive":false,"type":0,"country_code":"AT","address":"WIENER STRASSE 529","city":"LINZ-EBELSBERG","state":"Oberösterreich","postcode":"4030","telephone":"+43 732 316500","country":"Austria","amenities":["adblue_pack","air_and_water","apple_pay","austrian_highway_sticker","b2b_shell_card_ota","bakery_shop","credit_card","credit_card_american_express","credit_card_mastercard","credit_card_visa","disabled_facilities","fleet_card_dkv","fleet_card_uta","go_plus","google_pay","high_speed_diesel_pump","loyalty_cards","loyalty_program","mobile_payment","mobile_payment_amex","mobile_payment_maestro","mobile_payment_mastercard","mobile_payment_visa","paypal","self_service","shell_card","shop","standard_toilet","vacuum","wifi","manned"],"distance":86.98627518650001,"driving_distance":null,"driving_duration":null,"website_url":"https://www.shell.at/tanken/shell-tankstellensuche/standorte.html/10022747-linz-ebelsberg-wiener-strasse","mdm_site_category":"Conventional Fuel Site","formatted_address":"WIENER STRASSE 529\nLINZ-EBELSBERG, Oberösterreich, 4030","site_category":"conventional_fuel_site"},{"id":"13059435","name":"EV BILLA HORNSTEIN, NEUFELDERSTR.","lat":47.874008,"lng":16.432219,"brand":"Shell","inactive":false,"type":0,"country_code":"AT","address":"NEUFELDERSTRASSE 21","city":"HORNSTEIN","state":"Niederösterreich","postcode":"7053","telephone":"","country":"Austria","amenities":["apple_pay","credit_card","credit_card_mastercard","credit_card_visa","google_pay","mobile_payment","mobile_payment_maestro","mobile_payment_mastercard","mobile_payment_visa","shop","touchless_pay","manned"],"distance":87.1276267226,"driving_distance":null,"driving_duration":null,"website_url":"https://www.shell.at/tanken/shell-tankstellensuche/standorte.html/13059435-ev-billa-hornstein-neufelderstr","mdm_site_category":"Destination Charging (EV)","formatted_address":"NEUFELDERSTRASSE 21\nHORNSTEIN, Niederösterreich, 7053","site_category":"destination_charging_ev"},{"id":"10022749","name":"LINZ-STEG FREISTAEDTERSTRASSE.","lat":48.329232,"lng":14.313169,"brand":"Shell","inactive":false,"type":0,"country_code":"AT","address":"FREISTAEDTERSTRASSE 300","city":"LINZ-STEG","state":"Oberösterreich","postcode":"4040","telephone":"+43 732 245934","country":"Austria","amenities":["adblue_pack","air_and_water","apple_pay","austrian_highway_sticker","b2b_shell_card_ota","bakery_shop","carwash","credit_card","credit_card_american_express","credit_card_general","credit_card_mastercard","credit_card_visa","disabled_facilities","fleet_card_dkv","fleet_card_uta","go_plus","google_pay","high_speed_diesel_pump","loyalty_cards","loyalty_program","mobile_payment","mobile_payment_amex","mobile_payment_maestro","mobile_payment_mastercard","mobile_payment_visa","paypal","rollover","rollover_and_jet","self_service","shell_card","shop","standard_toilet","twenty_four_hour_ev_service","vacuum","wifi","manned"],"distance":87.75165898218,"driving_distance":null,"driving_duration":null,"website_url":"https://www.shell.at/tanken/shell-tankstellensuche/standorte.html/10022749-linz-steg-freistaedterstrasse","mdm_site_category":"Conventional Fuel Site with EV","formatted_address":"FREISTAEDTERSTRASSE 300\nLINZ-STEG, Oberösterreich, 4040","site_category":"conventional_fuel_site_with_ev"},{"id":"10022750","name":"LINZ SALZBURGERSTRASSE.","lat":48.273136,"lng":14.313552,"brand":"Shell","inactive":false,"type":0,"country_code":"AT","address":"SALZBURGERSTRASSE 1","city":"LINZ","state":"Oberösterreich","postcode":"4030","telephone":"+43 732 342110","country":"Austria","amenities":["adblue_pack","air_and_water","apple_pay","b2b_shell_card_ota","bakery_shop","billa_unterwegs","carwash","credit_card","credit_card_american_express","credit_card_mastercard","credit_card_visa","deli2go","fleet_card_dkv","fleet_card_uta","go_plus","google_pay","high_speed_diesel_pump","loyalty_cards","loyalty_program","mobile_payment","mobile_payment_amex","mobile_payment_maestro","mobile_payment_mastercard","mobile_payment_visa","paypal","rollover","self_service","shell_card","standard_toilet","twenty_four_hour","vacuum","wifi","manned"],"distance":88.15646510412,"driving_distance":null,"driving_duration":null,"website_url":"https://www.shell.at/tanken/shell-tankstellensuche/standorte.html/10022750-linz-salzburgerstrasse","mdm_site_category":"Conventional Fuel Site","formatted_address":"SALZBURGERSTRASSE 1\nLINZ, Oberösterreich, 4030","site_category":"conventional_fuel_site"},{"id":"12272200","name":"LINZ HANUSCHSTRASSE.","lat":48.271202,"lng":14.294622,"brand":"Shell","inactive":false,"type":0,"country_code":"AT","address":"HANUSCHSTRASSE 128","city":"LINZ","state":"Oberösterreich","postcode":"4020","telephone":"+43 732 341551","country":"Austria","amenities":["adblue_pack","air_and_water","austrian_highway_sticker","bakery_shop","carwash","credit_card","credit_card_american_express","credit_card_mastercard","credit_card_visa","jet","partner_card","rollover","rollover_and_jet","self_service","shell_card","shop","standard_toilet","vacuum","wifi","manned"],"distance":89.57233188963001,"driving_distance":null,"driving_duration":null,"website_url":"https://www.shell.at/tanken/shell-tankstellensuche/standorte.html/12272200-linz-hanuschstrasse","mdm_site_category":"Conventional Fuel Site","formatted_address":"HANUSCHSTRASSE 128\nLINZ, Oberösterreich, 4020","site_category":"conventional_fuel_site"},{"id":"10022697","name":"POYSDORF BAHNSTRASSE.","lat":48.660548,"lng":16.628842,"brand":"Shell","inactive":false,"type":0,"country_code":"AT","address":"WIENERSTRASSE 56","city":"POYSDORF","state":"Niederösterreich","postcode":"2170","telephone":"+43 2552 2663","country":"Austria","amenities":["adblue_car","adblue_truck","air_and_water","austrian_highway_sticker","carwash","credit_card","credit_card_american_express","credit_card_mastercard","credit_card_visa","disabled_facilities","fleet_card_general","high_speed_diesel_pump","parking_lanes","partner_card","rollover","self_service","shell_card","shop","standard_toilet","twenty_four_hour","type_of_parking","manned"],"distance":90.04748272984,"driving_distance":null,"driving_duration":null,"website_url":"https://www.shell.at/tanken/shell-tankstellensuche/standorte.html/10022697-poysdorf-bahnstrasse","mdm_site_category":"Conventional Fuel Site","formatted_address":"WIENERSTRASSE 56\nPOYSDORF, Niederösterreich, 2170","site_category":"conventional_fuel_site"},{"id":"10022732","name":"ANSFELDEN A1- SUED","lat":48.212159,"lng":14.281575,"brand":"Shell","inactive":false,"type":2,"country_code":"AT","address":"A1-AUTOBAHN-ANSFELDEN SUED","city":"ANSFELDEN","state":"Oberösterreich","postcode":"4052","telephone":"+43 7229 87002","country":"Austria","amenities":["adblue_pack","adblue_truck","air_and_water","apple_pay","austrian_highway_sticker","b2b_shell_card_ota","bakery_shop","credit_card","credit_card_american_express","credit_card_mastercard","credit_card_visa","deli2go","disabled_facilities","fleet_card_dkv","fleet_card_uta","go_plus","google_pay","hgv_lane","high_speed_diesel_pump","loyalty_cards","loyalty_program","mobile_payment","mobile_payment_amex","mobile_payment_maestro","mobile_payment_mastercard","mobile_payment_visa","parking_lanes","paypal","self_service","shell_card","shop","shower","standard_toilet","truck_parking","twenty_four_hour","twenty_four_hour_ev_service","type_of_parking","wifi","manned"],"distance":91.45320799445,"driving_distance":null,"driving_duration":null,"website_url":"https://www.shell.at/tanken/shell-tankstellensuche/standorte.html/10022732-ansfelden-a1-sued","mdm_site_category":"Conventional Fuel Site with EV","formatted_address":"A1-AUTOBAHN-ANSFELDEN SUED\nANSFELDEN, Oberösterreich, 4052","site_category":"conventional_fuel_site_with_ev"},{"id":"10022743","name":"HAID B.ANSFELDEN SALZBURGERSTRASSE.","lat":48.204888,"lng":14.247847,"brand":"Shell","inactive":false,"type":2,"country_code":"AT","address":"SALZBURGERSTRASSE 2","city":"HAID B.ANSFELDEN","state":"Oberösterreich","postcode":"4053","telephone":"+43 7229 87588","country":"Austria","amenities":["adblue_pack","adblue_truck","air_and_water","apple_pay","austrian_highway_sticker","b2b_shell_card_ota","bakery_shop","carwash","credit_card","credit_card_american_express","credit_card_mastercard","credit_card_visa","disabled_facilities","fleet_card_dkv","fleet_card_uta","go_plus","google_pay","hgv_lane","high_speed_diesel_pump","loyalty_cards","loyalty_program","mobile_payment","mobile_payment_amex","mobile_payment_maestro","mobile_payment_mastercard","mobile_payment_visa","paypal","rollover","self_service","shell_card","shop","standard_toilet","twenty_four_hour","twenty_four_hour_ev_service","vacuum","wifi","manned"],"distance":94.05636990135,"driving_distance":null,"driving_duration":null,"website_url":"https://www.shell.at/tanken/shell-tankstellensuche/standorte.html/10022743-haid-b-ansfelden-salzburgerstrasse","mdm_site_category":"Conventional Fuel Site with EV","formatted_address":"SALZBURGERSTRASSE 2\nHAID B.ANSFELDEN, Oberösterreich, 4053","site_category":"conventional_fuel_site_with_ev"},{"id":"13048187","name":"EV BILLA MATTERSBURG, MICHAEL KOCH.","lat":47.7399,"lng":16.40242,"brand":"Shell","inactive":false,"type":0,"country_code":"AT","address":"Michael Kochstrasse 63","city":"Mattersburg","state":"Burgenland","postcode":"7210","telephone":"","country":"Austria","amenities":["apple_pay","credit_card","credit_card_mastercard","credit_card_visa","google_pay","mobile_payment","mobile_payment_maestro","mobile_payment_mastercard","mobile_payment_visa","shop","touchless_pay","manned"],"distance":95.40675468194,"driving_distance":null,"driving_duration":null,"website_url":"https://www.shell.at/tanken/shell-tankstellensuche/standorte.html/13048187-ev-billa-mattersburg-michael-koch","mdm_site_category":"Destination Charging (EV)","formatted_address":"Michael Kochstrasse 63\nMattersburg, Burgenland, 7210","site_category":"destination_charging_ev"},{"id":"10022721","name":"EISENSTADT NEUSIEDLER STRASSE.","lat":47.846208,"lng":16.540636,"brand":"Shell","inactive":false,"type":0,"country_code":"AT","address":"NEUSIEDLER STRASSE 82","city":"EISENSTADT","state":"Burgenland","postcode":"7000","telephone":"+43 2682 75647","country":"Austria","amenities":["adblue_pack","air_and_water","apple_pay","austrian_highway_sticker","b2b_shell_card_ota","carwash","credit_card","credit_card_american_express","credit_card_mastercard","credit_card_visa","go_plus","google_pay","loyalty_cards","loyalty_program","mobile_payment","mobile_payment_amex","mobile_payment_maestro","mobile_payment_mastercard","mobile_payment_visa","paypal","rollover","self_service","shell_card","shop","standard_toilet","vacuum","wifi","manned"],"distance":95.44684569086,"driving_distance":null,"driving_duration":null,"website_url":"https://www.shell.at/tanken/shell-tankstellensuche/standorte.html/10022721-eisenstadt-neusiedler-strasse","mdm_site_category":"Conventional Fuel Site","formatted_address":"NEUSIEDLER STRASSE 82\nEISENSTADT, Burgenland, 7000","site_category":"conventional_fuel_site"},{"id":"10032274","name":"8080 MIKULOV PRAVÁ","lat":48.805824,"lng":16.62563,"brand":"Shell","inactive":false,"type":2,"country_code":"CZ","address":"K VÁPENCE 69","city":"MIKULOV","state":"Jihomoravský kraj","postcode":"692 01","telephone":"+420 519 327 777","country":"Czechia","amenities":["adblue_pack","air_and_water","apple_pay","b2b_shell_card_ota","b2b_shell_card_qr","clubsmart_card","credit_card","credit_card_general","disabled_facilities","fleet_card_general","full_service","go_plus","google_pay","hgv_lane","high_speed_diesel_pump","loyalty_cards","loyalty_program","mobile_payment","mobile_payment_amex","mobile_payment_diners","mobile_payment_maestro","mobile_payment_mastercard","mobile_payment_visa","paypal","shop","standard_toilet","twenty_four_hour","type_of_parking","wifi","manned"],"distance":97.08776494465,"driving_distance":null,"driving_duration":null,"website_url":"https://find.shell.com/cz/fuel/10032274-8080-mikulov-prava/de_AT","mdm_site_category":"Conventional Fuel Site","formatted_address":"K VÁPENCE 69\nMIKULOV, Jihomoravský kraj, 692 01","site_category":"conventional_fuel_site"},{"id":"10022755","name":"HOERSCHING-NEUBAU LINZERSTRASSE.","lat":48.220248,"lng":14.195858,"brand":"Shell","inactive":false,"type":0,"country_code":"AT","address":"LINZERSTRASSE 25","city":"HOERSCHING-NEUBAU","state":"Oberösterreich","postcode":"4063","telephone":"+43 7221 72178","country":"Austria","amenities":["adblue_pack","air_and_water","apple_pay","b2b_shell_card_ota","carwash","credit_card","credit_card_american_express","credit_card_mastercard","credit_card_visa","fleet_card_dkv","fleet_card_uta","go_plus","google_pay","loyalty_cards","loyalty_program","mobile_payment","mobile_payment_amex","mobile_payment_maestro","mobile_payment_mastercard","mobile_payment_visa","paypal","rollover","rollover_and_jet","self_service","shell_card","shop","standard_toilet","vacuum","wifi","manned"],"distance":97.56733098052999,"driving_distance":null,"driving_duration":null,"website_url":"https://www.shell.at/tanken/shell-tankstellensuche/standorte.html/10022755-hoersching-neubau-linzerstrasse","mdm_site_category":"Conventional Fuel Site","formatted_address":"LINZERSTRASSE 25\nHOERSCHING-NEUBAU, Oberösterreich, 4063","site_category":"conventional_fuel_site"},{"id":"12997620","name":"SIEGENDORF CHAPEAU-PARK","lat":47.777831,"lng":16.526175,"brand":"Shell","inactive":false,"type":0,"country_code":"AT","address":"CHAPEAU-PARK 1/TOP1","city":"SIEGENDORF","state":"Burgenland","postcode":"7011","telephone":"+43 2687 62666","country":"Austria","amenities":["adblue_car","adblue_pack","adblue_truck","air_and_water","apple_pay","austrian_highway_sticker","b2b_shell_card_ota","bakery_shop","billa_unterwegs","carwash","conveyor","credit_card","credit_card_general","go_plus","google_pay","hungarian_highway_sticker","jet","loyalty_cards","loyalty_program","mobile_payment","mobile_payment_amex","mobile_payment_maestro","mobile_payment_mastercard","mobile_payment_visa","paypal","rollover_and_jet","shell_card","standard_toilet","twenty_four_hour","twenty_four_hour_ev_service","manned"],"distance":99.31067439404,"driving_distance":null,"driving_duration":null,"website_url":"https://www.shell.at/tanken/shell-tankstellensuche/standorte.html/12997620-siegendorf-chapeau-park","mdm_site_category":"Conventional Fuel Site with EV","formatted_address":"CHAPEAU-PARK 1/TOP1\nSIEGENDORF, Burgenland, 7011","site_category":"conventional_fuel_site_with_ev"},{"id":"10032325","name":"8132 ČESKE BUDEJOVICE-NOVOHRADSKA","lat":48.96654,"lng":14.48797,"brand":"Shell","inactive":false,"type":0,"country_code":"CZ","address":"NOVOHRADSKÁ","city":"ČESKÉ BUDĚJOVICE","state":"Jihoceský kraj","postcode":"370 01","telephone":"+420 386 353 505","country":"Czechia","amenities":["adblue_pack","air_and_water","apple_pay","b2b_shell_card_ota","b2b_shell_card_qr","billa_unterwegs","carwash","credit_card","credit_card_general","disabled_facilities","fleet_card_general","go_plus","google_pay","loyalty_cards","loyalty_program","mobile_payment","mobile_payment_amex","mobile_payment_diners","mobile_payment_maestro","mobile_payment_mastercard","mobile_payment_visa","other_loyalty_cards","paypal","rollover","standard_toilet","twenty_four_hour","type_of_parking","unmanned","vacuum","wifi"],"distance":101.11904971806001,"driving_distance":null,"driving_duration":null,"website_url":"https://find.shell.com/cz/fuel/10032325-8132-ceske-budejovice-novohradska/de_AT","mdm_site_category":"Conventional Fuel Site with EV","formatted_address":"NOVOHRADSKÁ\nČESKÉ BUDĚJOVICE, Jihoceský kraj, 370 01","site_category":"conventional_fuel_site_with_ev"},{"id":"10022734","name":"BAD HALL ING.-PESENDORFER STRASSE.","lat":48.034477,"lng":14.212122,"brand":"Shell","inactive":false,"type":0,"country_code":"AT","address":"ING.-PESENDORFER STRASSE 1 B","city":"BAD HALL","state":"Oberösterreich","postcode":"4540","telephone":"+43 7258 2115","country":"Austria","amenities":["adblue_pack","air_and_water","apple_pay","austrian_highway_sticker","b2b_shell_card_ota","bakery_shop","billa_unterwegs","bottled_gas","carwash","credit_card","credit_card_american_express","credit_card_general","credit_card_mastercard","credit_card_visa","deli2go","fleet_card_dkv","fleet_card_uta","go_plus","google_pay","high_speed_diesel_pump","loyalty_cards","loyalty_program","mobile_payment","mobile_payment_amex","mobile_payment_maestro","mobile_payment_mastercard","mobile_payment_visa","paypal","rollover","self_service","shell_card","standard_toilet","vacuum","wifi","manned"],"distance":101.70697242599,"driving_distance":null,"driving_duration":null,"website_url":"https://www.shell.at/tanken/shell-tankstellensuche/standorte.html/10022734-bad-hall-ing-pesendorfer-strasse","mdm_site_category":"Conventional Fuel Site","formatted_address":"ING.-PESENDORFER STRASSE 1 B\nBAD HALL, Oberösterreich, 4540","site_category":"conventional_fuel_site"},{"id":"10032246","name":"8052 ČESKÉ BUDĚJOVICE-PRAŽSKÁ","lat":48.99749,"lng":14.48098,"brand":"Shell","inactive":false,"type":0,"country_code":"CZ","address":"PRAŽSKÁ","city":"ČESKÉ BUDĚJOVICE","state":"Jihoceský kraj","postcode":"370 01","telephone":"+420 387 314 250","country":"Czechia","amenities":["adblue_pack","air_and_water","apple_pay","b2b_shell_card_ota","b2b_shell_card_qr","bakery_shop","billa_unterwegs","clubsmart_card","credit_card","credit_card_general","disabled_facilities","fleet_card_general","full_service","go_plus","google_pay","loyalty_cards","loyalty_program","mobile_payment","mobile_payment_amex","mobile_payment_diners","mobile_payment_maestro","mobile_payment_mastercard","mobile_payment_visa","paypal","standard_toilet","twenty_four_hour","type_of_parking","wifi","manned"],"distance":103.83590668955,"driving_distance":null,"driving_duration":null,"website_url":"https://find.shell.com/cz/fuel/10032246-8052-ceske-budejovice-prazska/de_AT","mdm_site_category":"Conventional Fuel Site with EV","formatted_address":"PRAŽSKÁ\nČESKÉ BUDĚJOVICE, Jihoceský kraj, 370 01","site_category":"conventional_fuel_site_with_ev"},{"id":"10022746","name":"KREMSMUENSTER FUXJAEGERSTRASSE.","lat":48.05191,"lng":14.12428,"brand":"Shell","inactive":false,"type":2,"country_code":"AT","address":"FUXJAEGERSTRASSE 2","city":"KREMSMUENSTER","state":"Oberösterreich","postcode":"4550","telephone":"+43 7583 7186","country":"Austria","amenities":["adblue_pack","air_and_water","apple_pay","austrian_highway_sticker","b2b_shell_card_ota","bakery_shop","bottled_gas","carwash","credit_card","credit_card_american_express","credit_card_mastercard","credit_card_visa","deli2go","fleet_card_dkv","fleet_card_esso","fleet_card_uta","go_plus","google_pay","hgv_lane","high_speed_diesel_pump","loyalty_cards","loyalty_program","mobile_payment","mobile_payment_amex","mobile_payment_maestro","mobile_payment_mastercard","mobile_payment_visa","other_loyalty_cards","paypal","rollover","rollover_and_jet","self_service","shell_card","shop","standard_toilet","vacuum","wifi","manned"],"distance":107.21040920589999,"driving_distance":null,"driving_duration":null,"website_url":"https://www.shell.at/tanken/shell-tankstellensuche/standorte.html/10022746-kremsmuenster-fuxjaegerstrasse","mdm_site_category":"Conventional Fuel Site","formatted_address":"FUXJAEGERSTRASSE 2\nKREMSMUENSTER, Oberösterreich, 4550","site_category":"conventional_fuel_site"},{"id":"10022726","name":"PARNDORF NUMMER.","lat":47.993074,"lng":16.858713,"brand":"Shell","inactive":false,"type":2,"country_code":"AT","address":"NUMMER 43","city":"PARNDORF","state":"Burgenland","postcode":"7111","telephone":"+43 2166 2234","country":"Austria","amenities":["adblue_truck","air_and_water","apple_pay","austrian_highway_sticker","b2b_shell_card_ota","bakery_shop","carwash","credit_card","credit_card_american_express","credit_card_mastercard","credit_card_visa","deli2go","fleet_card_dkv","fleet_card_uta","go_plus","google_pay","hgv_lane","high_speed_diesel_pump","loyalty_cards","loyalty_program","mobile_payment","mobile_payment_amex","mobile_payment_maestro","mobile_payment_mastercard","mobile_payment_visa","paypal","rollover","selectshop","self_service","shell_card","standard_toilet","twenty_four_hour_ev_service","vacuum","wifi","manned"],"distance":108.29011806613,"driving_distance":null,"driving_duration":null,"website_url":"https://www.shell.at/tanken/shell-tankstellensuche/standorte.html/10022726-parndorf-nummer","mdm_site_category":"Conventional Fuel Site with EV","formatted_address":"NUMMER 43\nPARNDORF, Burgenland, 7111","site_category":"conventional_fuel_site_with_ev"},{"id":"12510447","name":"8547 HUSTOPEČE","lat":48.93234,"lng":16.7485,"brand":"Shell","inactive":false,"type":0,"country_code":"CZ","address":"BRATISLAVSKÁ 15","city":"HUSTOPEČE","state":"Jihomoravský kraj","postcode":"693 01","telephone":"+420 519 411 278","country":"Czechia","amenities":["adblue_pack","air_and_water","b2b_shell_card_ota","b2b_shell_card_qr","carwash","clubsmart_card","disabled_facilities","full_service","go_plus","loyalty_cards","loyalty_program","mobile_payment","rollover","shop","standard_toilet","twenty_four_hour","type_of_parking","vacuum","manned"],"distance":112.28277689834,"driving_distance":null,"driving_duration":null,"website_url":"https://find.shell.com/cz/fuel/12510447-8547-hustopece/de_AT","mdm_site_category":"Conventional Fuel Site with EV","formatted_address":"BRATISLAVSKÁ 15\nHUSTOPEČE, Jihomoravský kraj, 693 01","site_category":"conventional_fuel_site_with_ev"},{"id":"13091369","name":"8701 LOZORNO LNG","lat":48.322939,"lng":17.022314,"brand":"Shell","inactive":false,"type":0,"country_code":"SK","address":"LOZORNO 1108","city":"LOZORNO","state":"Bratislavský kraj","postcode":"900 55","telephone":"+421 2/582 451 10","country":"Slovakia","amenities":["twenty_four_hour","unmanned"],"distance":112.56399214188,"driving_distance":null,"driving_duration":null,"website_url":"https://find.shell.com/sk/fuel/13091369-8701-lozorno-lng/de_AT","mdm_site_category":"Other","formatted_address":"LOZORNO 1108\nLOZORNO, Bratislavský kraj, 900 55","site_category":"lng_site"},{"id":"10022745","name":"SCHLIERBACH PYHRNSTRASSE","lat":47.912023,"lng":14.114525,"brand":"Shell","inactive":false,"type":0,"country_code":"AT","address":"PYHRNSTRASSE 8","city":"SCHLIERBACH","state":"Oberösterreich","postcode":"4553","telephone":"+43 7582 62418","country":"Austria","amenities":["adblue_pack","air_and_water","apple_pay","austrian_highway_sticker","b2b_shell_card_ota","bakery_shop","carwash","credit_card","credit_card_american_express","credit_card_general","credit_card_mastercard","credit_card_visa","deli2go","disabled_facilities","fleet_card_dkv","fleet_card_uta","go_plus","google_pay","high_speed_diesel_pump","loyalty_cards","loyalty_program","mobile_payment","mobile_payment_amex","mobile_payment_maestro","mobile_payment_mastercard","mobile_payment_visa","paypal","rollover","self_service","shell_card","shop","standard_toilet","vacuum","wifi","manned"],"distance":113.77077740304,"driving_distance":null,"driving_duration":null,"website_url":"https://www.shell.at/tanken/shell-tankstellensuche/standorte.html/10022745-schlierbach-pyhrnstrasse","mdm_site_category":"Conventional Fuel Site","formatted_address":"PYHRNSTRASSE 8\nSCHLIERBACH, Oberösterreich, 4553","site_category":"conventional_fuel_site"},{"id":"12658605","name":"8244 MALACKY","lat":48.428984,"lng":17.036657,"brand":"Shell","inactive":false,"type":0,"country_code":"SK","address":"PEZINSKÁ 5736","city":"MALACKY","state":"Bratislavský kraj","postcode":"901 01","telephone":"+421 34/772 20 27","country":"Slovakia","amenities":["adblue_pack","adblue_truck","air_and_water","apple_pay","austrian_highway_sticker","b2b_shell_card_ota","b2b_shell_card_qr","clubsmart_card","full_service","go_plus","google_pay","loyalty_cards","loyalty_program","mobile_payment","mobile_payment_amex","mobile_payment_diners","mobile_payment_maestro","mobile_payment_mastercard","mobile_payment_visa","paypal","shop","standard_toilet","twenty_four_hour","vacuum","manned"],"distance":113.80509025756001,"driving_distance":null,"driving_duration":null,"website_url":"https://find.shell.com/sk/fuel/12658605-8244-malacky/de_AT","mdm_site_category":"Conventional Fuel Site","formatted_address":"PEZINSKÁ 5736\nMALACKY, Bratislavský kraj, 901 01","site_category":"conventional_fuel_site"},{"id":"12186604","name":"8213 BRATISLAVA-LAMAČSKÁ BRÁNA (X)","lat":48.204826,"lng":17.023465,"brand":"Shell","inactive":false,"type":0,"country_code":"SK","address":"Cesta 505 505","city":"Bratislava","state":"Bratislavský kraj","postcode":"840 02","telephone":"+421 2/642 827 60","country":"Slovakia","amenities":["adblue_pack","air_and_water","apple_pay","b2b_shell_card_ota","b2b_shell_card_qr","clubsmart_card","full_service","go_plus","google_pay","loyalty_cards","loyalty_program","mobile_payment","mobile_payment_amex","mobile_payment_diners","mobile_payment_maestro","mobile_payment_mastercard","mobile_payment_visa","parking_lanes","paypal","selectshop","shell_card","twenty_four_hour","type_of_parking","manned"],"distance":113.88892030911,"driving_distance":null,"driving_duration":null,"website_url":"https://find.shell.com/sk/fuel/12186604-8213-bratislava-lamacska-brana-x/de_AT","mdm_site_category":"Conventional Fuel Site","formatted_address":"Cesta 505 505\nBratislava, Bratislavský kraj, 840 02","site_category":"conventional_fuel_site"},{"id":"10032204","name":"8010 LADNA P","lat":48.81006,"lng":16.89228,"brand":"Shell","inactive":false,"type":0,"country_code":"CZ","address":"DALNICE D2 44.KM, SMER BRATISLAVA","city":"LADNA U BRECLAVI","state":"Jihomoravský kraj","postcode":"691 46","telephone":"+420 519 355 105","country":"Czechia","amenities":["adblue_car","adblue_pack","adblue_truck","air_and_water","apple_pay","b2b_shell_card_ota","b2b_shell_card_qr","carwash","full_service","go_plus","google_pay","high_speed_diesel_pump","loyalty_cards","loyalty_program","mobile_payment","mobile_payment_amex","mobile_payment_diners","mobile_payment_maestro","mobile_payment_mastercard","mobile_payment_visa","other_loyalty_cards","paypal","rollover","selectshop","shower","twenty_four_hour","twenty_four_hour_ev_service","type_of_parking","wifi","manned"],"distance":114.48374698322,"driving_distance":null,"driving_duration":null,"website_url":"https://find.shell.com/cz/fuel/10032204-8010-ladna-p/de_AT","mdm_site_category":"Conventional Fuel Site with EV","formatted_address":"DALNICE D2 44.KM, SMER BRATISLAVA\nLADNA U BRECLAVI, Jihomoravský kraj, 691 46","site_category":"conventional_fuel_site_with_ev"},{"id":"10032242","name":"8048 LADNA L","lat":48.80996,"lng":16.89415,"brand":"Shell","inactive":false,"type":2,"country_code":"CZ","address":"DALNICE D2 44.KM, SMER BRNO","city":"LADNA U BRECLAVI","state":"Jihomoravský kraj","postcode":"691 46","telephone":"+420 519 355 008","country":"Czechia","amenities":["adblue_pack","adblue_truck","air_and_water","apple_pay","b2b_shell_card_ota","b2b_shell_card_qr","clubsmart_card","credit_card","credit_card_general","disabled_facilities","fast_food","fleet_card_general","food_offerings","go_plus","google_pay","guarded_car_park","hgv_lane","high_speed_diesel_pump","loyalty_cards","loyalty_program","mobile_payment","mobile_payment_amex","mobile_payment_diners","mobile_payment_maestro","mobile_payment_mastercard","mobile_payment_visa","parking_lanes","paypal","selectshop","shower","standard_toilet","twenty_four_hour","type_of_parking","unmanned","wifi","motorway_service"],"distance":114.6019515963,"driving_distance":null,"driving_duration":null,"website_url":"https://find.shell.com/cz/fuel/10032242-8048-ladna-l/de_AT","mdm_site_category":"Conventional Fuel Site","formatted_address":"DALNICE D2 44.KM, SMER BRNO\nLADNA U BRECLAVI, Jihomoravský kraj, 691 46","site_category":"conventional_fuel_site"},{"id":"10051671","name":"8509 BOŘETICE","lat":48.9075,"lng":16.8436,"brand":"Shell","inactive":false,"type":0,"country_code":"CZ","address":"BORETICE","city":"BOŘETICE","state":"Jihomoravský kraj","postcode":"691 08","telephone":"+420 519 430 278","country":"Czechia","amenities":["adblue_pack","air_and_water","b2b_shell_card_ota","b2b_shell_card_qr","carwash","clubsmart_card","full_service","go_plus","loyalty_cards","loyalty_program","mobile_payment","rollover","shop","standard_toilet","vacuum","manned"],"distance":116.58833793318,"driving_distance":null,"driving_duration":null,"website_url":"https://find.shell.com/cz/fuel/10051671-8509-boretice/de_AT","mdm_site_category":"Conventional Fuel Site","formatted_address":"BORETICE\nBOŘETICE, Jihomoravský kraj, 691 08","site_category":"conventional_fuel_site"},{"id":"10022756","name":"PRAMBACHKIRCHEN UNTERBRUCK.","lat":48.317818,"lng":13.918583,"brand":"Shell","inactive":false,"type":0,"country_code":"AT","address":"UNTERBRUCK 17","city":"PRAMBACHKIRCHEN","state":"Oberösterreich","postcode":"4731","telephone":"+43 7277 2317","country":"Austria","amenities":["air_and_water","credit_card","credit_card_general","partner_card","self_service","shell_card","shop","standard_toilet","manned"],"distance":116.9529150729,"driving_distance":null,"driving_duration":null,"website_url":"https://www.shell.at/tanken/shell-tankstellensuche/standorte.html/10022756-prambachkirchen-unterbruck","mdm_site_category":"Conventional Fuel Site","formatted_address":"UNTERBRUCK 17\nPRAMBACHKIRCHEN, Oberösterreich, 4731","site_category":"conventional_fuel_site"},{"id":"10035003","name":"8229 BRATISLAVA-KARLOVESKÁ (IV)","lat":48.150362,"lng":17.063189,"brand":"Shell","inactive":false,"type":0,"country_code":"SK","address":"Karloveská ul. 4","city":"Bratislava","state":"Bratislavský kraj","postcode":"841 05","telephone":"+421 2/654 403 00","country":"Slovakia","amenities":["adblue_pack","air_and_water","apple_pay","austrian_highway_sticker","b2b_shell_card_ota","b2b_shell_card_qr","bakery_shop","carwash","clubsmart_card","credit_card","credit_card_general","disabled_facilities","fast_food","food_offerings","full_service","go_plus","google_pay","loyalty_cards","loyalty_program","mobile_payment","mobile_payment_amex","mobile_payment_diners","mobile_payment_maestro","mobile_payment_mastercard","mobile_payment_visa","parking_lanes","paypal","rollover","shell_card","shop","standard_toilet","starbucks","twenty_four_hour","type_of_parking","vacuum","manned"],"distance":117.84976519144,"driving_distance":null,"driving_duration":null,"website_url":"https://find.shell.com/sk/fuel/10035003-8229-bratislava-karloveska-iv/de_AT","mdm_site_category":"Conventional Fuel Site","formatted_address":"Karloveská ul. 4\nBratislava, Bratislavský kraj, 841 05","site_category":"conventional_fuel_site"},{"id":"10034993","name":"8210 BRATISLAVA-PANÓNSKA (VI)","lat":48.119144,"lng":17.099491,"brand":"Shell","inactive":false,"type":0,"country_code":"SK","address":"Panónska 3433","city":"Bratislava","state":"Bratislavský kraj","postcode":"851 04","telephone":"+421 2/635 317 24","country":"Slovakia","amenities":["adblue_pack","air_and_water","apple_pay","b2b_shell_card_ota","b2b_shell_card_qr","full_service","go_plus","google_pay","loyalty_cards","loyalty_program","mobile_payment","mobile_payment_amex","mobile_payment_diners","mobile_payment_maestro","mobile_payment_mastercard","mobile_payment_visa","other_loyalty_cards","paypal","shop","starbucks","twenty_four_hour","manned"],"distance":121.21326869661,"driving_distance":null,"driving_duration":null,"website_url":"https://find.shell.com/sk/fuel/10034993-8210-bratislava-panonska-vi/de_AT","mdm_site_category":"Conventional Fuel Site","formatted_address":"Panónska 3433\nBratislava, Bratislavský kraj, 851 04","site_category":"conventional_fuel_site"},{"id":"10022784","name":"PUTZLEINSDORF HANRIEDER STR","lat":48.513859,"lng":13.873042,"brand":"Shell","inactive":false,"type":0,"country_code":"AT","address":"HANRIEDER STR. 9","city":"PUTZLEINSDORF","state":"Oberösterreich","postcode":"4134","telephone":"+43 7286 84122","country":"Austria","amenities":["adblue_pack","air_and_water","austrian_highway_sticker","bakery_shop","credit_card","credit_card_american_express","credit_card_mastercard","credit_card_visa","partner_card","self_service","shell_card","standard_toilet","manned"],"distance":121.40784039539,"driving_distance":null,"driving_duration":null,"website_url":"https://www.shell.at/tanken/shell-tankstellensuche/standorte.html/10022784-putzleinsdorf-hanrieder-str","mdm_site_category":"Conventional Fuel Site","formatted_address":"HANRIEDER STR. 9\nPUTZLEINSDORF, Oberösterreich, 4134","site_category":"conventional_fuel_site"},{"id":"10035011","name":"8257 BRATISLAVA-EINSTEINOVA (V)","lat":48.130696,"lng":17.122366,"brand":"Shell","inactive":false,"type":2,"country_code":"SK","address":"Einsteinova ul. 23","city":"Bratislava","state":"Bratislavský kraj","postcode":"851 01","telephone":"+421 2/625 205 67","country":"Slovakia","amenities":["adblue_pack","adblue_truck","air_and_water","apple_pay","austrian_highway_sticker","b2b_shell_card_ota","b2b_shell_card_qr","bakery_shop","clubsmart_card","credit_card","credit_card_general","disabled_facilities","fast_food","food_offerings","full_service","go_plus","google_pay","hgv_lane","high_speed_diesel_pump","loyalty_cards","loyalty_program","mobile_payment","mobile_payment_amex","mobile_payment_diners","mobile_payment_maestro","mobile_payment_mastercard","mobile_payment_visa","parking_lanes","paypal","shell_card","shop","standard_toilet","starbucks","twenty_four_hour","twenty_four_hour_ev_service","type_of_parking","vacuum","manned"],"distance":122.59432022483,"driving_distance":null,"driving_duration":null,"website_url":"https://find.shell.com/sk/fuel/10035011-8257-bratislava-einsteinova-v/de_AT","mdm_site_category":"Conventional Fuel Site with EV","formatted_address":"Einsteinova ul. 23\nBratislava, Bratislavský kraj, 851 01","site_category":"conventional_fuel_site_with_ev"},{"id":"10051633","name":"8297 BRATISLAVA VAJNORSKA","lat":48.177873,"lng":17.147613,"brand":"Shell","inactive":false,"type":2,"country_code":"SK","address":"Vajnorska 171","city":"Bratislava","state":"Bratislavský kraj","postcode":"831 04","telephone":"+421 2/444 538 28","country":"Slovakia","amenities":["adblue_pack","air_and_water","apple_pay","austrian_highway_sticker","b2b_shell_card_ota","b2b_shell_card_qr","carwash","clubsmart_card","full_service","go_plus","google_pay","hgv_lane","high_speed_diesel_pump","loyalty_cards","loyalty_program","mobile_payment","mobile_payment_amex","mobile_payment_diners","mobile_payment_maestro","mobile_payment_mastercard","mobile_payment_visa","parking_lanes","paypal","shell_card","shell_machine_rollover","shop","standard_toilet","twenty_four_hour","type_of_parking","vacuum","manned"],"distance":123.45073590609,"driving_distance":null,"driving_duration":null,"website_url":"https://find.shell.com/sk/fuel/10051633-8297-bratislava-vajnorska/de_AT","mdm_site_category":"Conventional Fuel Site","formatted_address":"Vajnorska 171\nBratislava, Bratislavský kraj, 831 04","site_category":"conventional_fuel_site"},{"id":"10035015","name":"8262 BRATISLAVA-BAJKALSKÁ (VII)","lat":48.154282,"lng":17.145744,"brand":"Shell","inactive":false,"type":0,"country_code":"SK","address":"Bajkalská ul. 7","city":"Bratislava","state":"Bratislavský kraj","postcode":"821 09","telephone":"+421 2/556 423 54","country":"Slovakia","amenities":["adblue_pack","air_and_water","apple_pay","austrian_highway_sticker","b2b_shell_card_ota","b2b_shell_card_qr","clubsmart_card","credit_card","credit_card_general","disabled_facilities","full_service","go_plus","google_pay","loyalty_cards","loyalty_program","mobile_payment","mobile_payment_amex","mobile_payment_diners","mobile_payment_maestro","mobile_payment_mastercard","mobile_payment_visa","parking_lanes","paypal","selectshop","shell_card","standard_toilet","starbucks","twenty_four_hour","type_of_parking","vacuum","manned"],"distance":123.77596622601,"driving_distance":null,"driving_duration":null,"website_url":"https://find.shell.com/sk/fuel/10035015-8262-bratislava-bajkalska-vii/de_AT","mdm_site_category":"Conventional Fuel Site","formatted_address":"Bajkalská ul. 7\nBratislava, Bratislavský kraj, 821 09","site_category":"conventional_fuel_site"},{"id":"13102449","name":"EV BILLA LAMBACH ROBERT SITTER STR.","lat":48.091172,"lng":13.86804,"brand":"Shell","inactive":false,"type":0,"country_code":"AT","address":"ROBERT SITTER STRASSE 2","city":"LAMBACH","state":"Oberösterreich","postcode":"4560","telephone":"","country":"Austria","amenities":["apple_pay","credit_card","credit_card_mastercard","credit_card_visa","google_pay","mobile_payment","mobile_payment_maestro","mobile_payment_mastercard","mobile_payment_visa","shop","touchless_pay","manned"],"distance":124.27991565322999,"driving_distance":null,"driving_duration":null,"website_url":"https://www.shell.at/tanken/shell-tankstellensuche/standorte.html/13102449-ev-billa-lambach-robert-sitter-str","mdm_site_category":"Destination Charging (EV)","formatted_address":"ROBERT SITTER STRASSE 2\nLAMBACH, Oberösterreich, 4560","site_category":"destination_charging_ev"},{"id":"10034989","name":"8205 BRATISLAVA-ROŽŇAVSKÁ (I)","lat":48.16855,"lng":17.157672,"brand":"Shell","inactive":false,"type":2,"country_code":"SK","address":"Rožňavská 6","city":"Bratislava","state":"Bratislavský kraj","postcode":"821 04","telephone":"+421 2/436 312 82","country":"Slovakia","amenities":["adblue_car","adblue_pack","air_and_water","apple_pay","austrian_highway_sticker","b2b_shell_card_ota","b2b_shell_card_qr","bakery_shop","carwash","clubsmart_card","credit_card","credit_card_general","disabled_facilities","full_service","go_plus","google_pay","hgv_lane","high_speed_diesel_pump","loyalty_cards","loyalty_program","mobile_payment","mobile_payment_amex","mobile_payment_diners","mobile_payment_maestro","mobile_payment_mastercard","mobile_payment_visa","parking_lanes","paypal","rollover","selectshop","shell_card","standard_toilet","twenty_four_hour","twenty_four_hour_ev_service","type_of_parking","vacuum","manned"],"distance":124.361344528,"driving_distance":null,"driving_duration":null,"website_url":"https://find.shell.com/sk/fuel/10034989-8205-bratislava-roznavska-i/de_AT","mdm_site_category":"Conventional Fuel Site with EV","formatted_address":"Rožňavská 6\nBratislava, Bratislavský kraj, 821 04","site_category":"conventional_fuel_site_with_ev"},{"id":"10034995","name":"8212 BRATISLAVA-DRIEŇOVA (II)","lat":48.161385,"lng":17.159665,"brand":"Shell","inactive":false,"type":0,"country_code":"SK","address":"Drieňova ul. 5421","city":"Bratislava","state":"Bratislavský kraj","postcode":"821 02","telephone":"+421 2/436 374 24","country":"Slovakia","amenities":["adblue_pack","air_and_water","apple_pay","b2b_shell_card_ota","b2b_shell_card_qr","carwash","full_service","go_plus","google_pay","loyalty_cards","loyalty_program","mobile_payment","mobile_payment_amex","mobile_payment_diners","mobile_payment_maestro","mobile_payment_mastercard","mobile_payment_visa","other_loyalty_cards","paypal","rollover","selectshop","starbucks","manned"],"distance":124.64697835264,"driving_distance":null,"driving_duration":null,"website_url":"https://find.shell.com/sk/fuel/10034995-8212-bratislava-drienova-ii/de_AT","mdm_site_category":"Conventional Fuel Site","formatted_address":"Drieňova ul. 5421\nBratislava, Bratislavský kraj, 821 02","site_category":"conventional_fuel_site"},{"id":"10022761","name":"SCHARNSTEIN HAUPTSTRASSE.","lat":47.902285,"lng":13.956524,"brand":"Shell","inactive":false,"type":0,"country_code":"AT","address":"HAUPTSTRASSE 29","city":"SCHARNSTEIN","state":"Oberösterreich","postcode":"4644","telephone":"+43 7615 2535","country":"Austria","amenities":["adblue_pack","air_and_water","apple_pay","austrian_highway_sticker","b2b_shell_card_ota","bottled_gas","carwash","credit_card","credit_card_american_express","credit_card_mastercard","credit_card_visa","fleet_card_dkv","fleet_card_uta","go_plus","google_pay","high_speed_diesel_pump","loyalty_cards","loyalty_program","mobile_payment","mobile_payment_amex","mobile_payment_maestro","mobile_payment_mastercard","mobile_payment_visa","paypal","rollover","rollover_and_jet","self_service","shell_card","shop","standard_toilet","wifi","manned"],"distance":124.90636202738,"driving_distance":null,"driving_duration":null,"website_url":"https://www.shell.at/tanken/shell-tankstellensuche/standorte.html/10022761-scharnstein-hauptstrasse","mdm_site_category":"Conventional Fuel Site","formatted_address":"HAUPTSTRASSE 29\nSCHARNSTEIN, Oberösterreich, 4644","site_category":"conventional_fuel_site"},{"id":"10057055","name":"8246 SVÄTÝ JUR","lat":48.243991,"lng":17.206515,"brand":"Shell","inactive":false,"type":0,"country_code":"SK","address":"NA PAŽITI 5","city":"Svätý Jur","state":"Bratislavský kraj","postcode":"900 21","telephone":"+421 2/443 712 06","country":"Slovakia","amenities":["adblue_pack","air_and_water","apple_pay","b2b_shell_card_ota","b2b_shell_card_qr","fleet_card_general","go_plus","google_pay","loyalty_cards","loyalty_program","mobile_payment","mobile_payment_amex","mobile_payment_diners","mobile_payment_maestro","mobile_payment_mastercard","mobile_payment_visa","other_loyalty_cards","paypal","selectshop","standard_toilet","twenty_four_hour","type_of_parking","unmanned","vacuum"],"distance":126.7854009513,"driving_distance":null,"driving_duration":null,"website_url":"https://find.shell.com/sk/fuel/10057055-8246-svaty-jur/de_AT","mdm_site_category":"Conventional Fuel Site","formatted_address":"NA PAŽITI 5\nSvätý Jur, Bratislavský kraj, 900 21","site_category":"conventional_fuel_site"},{"id":"10022724","name":"NICKELSDORF (SUED) A4-AUTOBAHN-NIC","lat":47.927871,"lng":17.097147,"brand":"Shell","inactive":false,"type":2,"country_code":"AT","address":"A4-AUTOBAHN-NICKELSDORF SUED","city":"NICKELSDORF (SUED)","state":"Burgenland","postcode":"2425","telephone":"+43 2146 2882","country":"Austria","amenities":["adblue_pack","adblue_truck","air_and_water","apple_pay","austrian_highway_sticker","b2b_shell_card_ota","bakery_shop","childs_toilet","credit_card","credit_card_american_express","credit_card_mastercard","credit_card_visa","deli2go","disabled_facilities","fleet_card_dkv","fleet_card_uta","go_plus","google_pay","hgv_lane","high_speed_diesel_pump","hungarian_highway_sticker","loyalty_cards","loyalty_program","mobile_payment","mobile_payment_amex","mobile_payment_maestro","mobile_payment_mastercard","mobile_payment_visa","paypal","shell_card","shop","shower","standard_toilet","twenty_four_hour","type_of_parking","wifi","manned"],"distance":127.46745585338,"driving_distance":null,"driving_duration":null,"website_url":"https://www.shell.at/tanken/shell-tankstellensuche/standorte.html/10022724-nickelsdorf-sued-a4-autobahn-nic","mdm_site_category":"Conventional Fuel Site","formatted_address":"A4-AUTOBAHN-NICKELSDORF SUED\nNICKELSDORF (SUED), Burgenland, 2425","site_category":"conventional_fuel_site"},{"id":"10035027","name":"8283 BRATISLAVA POPRADSKA","lat":48.140313,"lng":17.193408,"brand":"Shell","inactive":false,"type":2,"country_code":"SK","address":"Popradská ul. 10946/.","city":"Bratislava","state":"Bratislavský kraj","postcode":"821 06","telephone":"+421 2/456 401 64","country":"Slovakia","amenities":["adblue_pack","air_and_water","apple_pay","austrian_highway_sticker","b2b_shell_card_ota","b2b_shell_card_qr","carwash","clubsmart_card","credit_card","credit_card_general","disabled_facilities","full_service","go_plus","google_pay","hgv_lane","high_speed_diesel_pump","loyalty_cards","loyalty_program","mobile_payment","mobile_payment_amex","mobile_payment_diners","mobile_payment_maestro","mobile_payment_mastercard","mobile_payment_visa","parking_lanes","paypal","rollover","selectshop","shell_card","standard_toilet","twenty_four_hour","type_of_parking","vacuum","manned"],"distance":127.54293949400001,"driving_distance":null,"driving_duration":null,"website_url":"https://find.shell.com/sk/fuel/10035027-8283-bratislava-popradska/de_AT","mdm_site_category":"Conventional Fuel Site","formatted_address":"Popradská ul. 10946/.\nBratislava, Bratislavský kraj, 821 06","site_category":"conventional_fuel_site"},{"id":"10022723","name":"NICKELSDORF (NORD) A4-AUTOBAHN-NIC","lat":47.92859,"lng":17.101841,"brand":"Shell","inactive":false,"type":2,"country_code":"AT","address":"A4-AUTOBAHN-NICKELSDORF NORD","city":"NICKELSDORF (NORD)","state":"Burgenland","postcode":"2425","telephone":"+43 2146 2880","country":"Austria","amenities":["adblue_pack","adblue_truck","air_and_water","apple_pay","austrian_highway_sticker","b2b_shell_card_ota","bakery_shop","childs_toilet","credit_card","credit_card_american_express","credit_card_mastercard","credit_card_visa","deli2go","disabled_facilities","fleet_card_dkv","fleet_card_uta","go_plus","google_pay","hgv_lane","high_speed_diesel_pump","loyalty_cards","loyalty_program","maut_terminal","mobile_payment","mobile_payment_amex","mobile_payment_maestro","mobile_payment_mastercard","mobile_payment_visa","paypal","shell_card","shop","shower","standard_toilet","truck_parking","twenty_four_hour","type_of_parking","wifi","manned"],"distance":127.76121994598,"driving_distance":null,"driving_duration":null,"website_url":"https://www.shell.at/tanken/shell-tankstellensuche/standorte.html/10022723-nickelsdorf-nord-a4-autobahn-nic","mdm_site_category":"Conventional Fuel Site","formatted_address":"A4-AUTOBAHN-NICKELSDORF NORD\nNICKELSDORF (NORD), Burgenland, 2425","site_category":"conventional_fuel_site"},{"id":"10035013","name":"8260 BRATISLAVA-DVOJKRÍŽNA (III)","lat":48.14601,"lng":17.211462,"brand":"Shell","inactive":false,"type":0,"country_code":"SK","address":"Dvojkrížna ul.","city":"Bratislava","state":"Bratislavský kraj","postcode":"821 01","telephone":"+421 2/456 400 63","country":"Slovakia","amenities":["adblue_pack","air_and_water","apple_pay","austrian_highway_sticker","b2b_shell_card_ota","b2b_shell_card_qr","bakery_shop","clubsmart_card","credit_card","credit_card_general","disabled_facilities","full_service","go_plus","google_pay","loyalty_cards","loyalty_program","mobile_payment","mobile_payment_amex","mobile_payment_diners","mobile_payment_maestro","mobile_payment_mastercard","mobile_payment_visa","parking_lanes","paypal","selectshop","shell_card","standard_toilet","twenty_four_hour","type_of_parking","manned"],"distance":128.73740495613,"driving_distance":null,"driving_duration":null,"website_url":"https://find.shell.com/sk/fuel/10035013-8260-bratislava-dvojkrizna-iii/de_AT","mdm_site_category":"Conventional Fuel Site","formatted_address":"Dvojkrížna ul.\nBratislava, Bratislavský kraj, 821 01","site_category":"conventional_fuel_site"},{"id":"10022783","name":"NATTERNBACH HAUSERSTRASSE.","lat":48.394513,"lng":13.749522,"brand":"Shell","inactive":false,"type":0,"country_code":"AT","address":"HAUSERSTRASSE 10","city":"NATTERNBACH","state":"Oberösterreich","postcode":"4723","telephone":"+43 7278 8227","country":"Austria","amenities":["air_and_water","carwash","credit_card","credit_card_general","jet","partner_card","rollover","rollover_and_jet","self_service","shell_card","standard_toilet","manned"],"distance":129.39195578455,"driving_distance":null,"driving_duration":null,"website_url":"https://www.shell.at/tanken/shell-tankstellensuche/standorte.html/10022783-natternbach-hauserstrasse","mdm_site_category":"Conventional Fuel Site","formatted_address":"HAUSERSTRASSE 10\nNATTERNBACH, Oberösterreich, 4723","site_category":"conventional_fuel_site"},{"id":"10022764","name":"STEYRERMUEHL HAUPTSTRASSE","lat":47.991318,"lng":13.80795,"brand":"Shell","inactive":false,"type":2,"country_code":"AT","address":"HAUPTSTRASSE 51","city":"STEYRERMUEHL","state":"Oberösterreich","postcode":"4662","telephone":"+43 7613 2389","country":"Austria","amenities":["adblue_pack","air_and_water","apple_pay","austrian_highway_sticker","b2b_shell_card_ota","bakery_shop","bottled_gas","carwash","credit_card","credit_card_american_express","credit_card_mastercard","credit_card_visa","fleet_card_dkv","fleet_card_general","fleet_card_uta","go_plus","google_pay","hgv_lane","high_speed_diesel_pump","loyalty_cards","loyalty_program","maut_terminal","mobile_payment","mobile_payment_amex","mobile_payment_maestro","mobile_payment_mastercard","mobile_payment_visa","parking_lanes","partner_card","paypal","rollover","self_service","shell_card","shop","standard_toilet","type_of_parking","vacuum","wifi","manned"],"distance":131.66106602856,"driving_distance":null,"driving_duration":null,"website_url":"https://www.shell.at/tanken/shell-tankstellensuche/standorte.html/10022764-steyrermuehl-hauptstrasse","mdm_site_category":"Conventional Fuel Site","formatted_address":"HAUPTSTRASSE 51\nSTEYRERMUEHL, Oberösterreich, 4662","site_category":"conventional_fuel_site"},{"id":"12653049","name":"8553 HODONÍN-BRATISLAVSKÁ","lat":48.845602,"lng":17.126831,"brand":"Shell","inactive":false,"type":0,"country_code":"CZ","address":"BRATISLAVSKÁ 3866/1","city":"HODONÍN","state":"Jihomoravský kraj","postcode":"695 01","telephone":"+420 776 305 583","country":"Czechia","amenities":["adblue_pack","air_and_water","b2b_shell_card_ota","b2b_shell_card_qr","clubsmart_card","full_service","go_plus","loyalty_cards","loyalty_program","mobile_payment","shop","twenty_four_hour","manned"],"distance":131.71246987992,"driving_distance":null,"driving_duration":null,"website_url":"https://find.shell.com/cz/fuel/12653049-8553-hodonin-bratislavska/de_AT","mdm_site_category":"Conventional Fuel Site","formatted_address":"BRATISLAVSKÁ 3866/1\nHODONÍN, Jihomoravský kraj, 695 01","site_category":"conventional_fuel_site"},{"id":"13048182","name":"EV BILLA SCHWANENSTADT, VOR DER AU","lat":48.047855,"lng":13.78136,"brand":"Shell","inactive":false,"type":0,"country_code":"AT","address":"Vor der Au 5","city":"Schwanenstadt","state":"Oberösterreich","postcode":"4690","telephone":"","country":"Austria","amenities":["apple_pay","credit_card","credit_card_mastercard","credit_card_visa","google_pay","mobile_payment","mobile_payment_maestro","mobile_payment_mastercard","mobile_payment_visa","shop","touchless_pay","manned"],"distance":131.73285075660002,"driving_distance":null,"driving_duration":null,"website_url":"https://www.shell.at/tanken/shell-tankstellensuche/standorte.html/13048182-ev-billa-schwanenstadt-vor-der-au","mdm_site_category":"Destination Charging (EV)","formatted_address":"Vor der Au 5\nSchwanenstadt, Oberösterreich, 4690","site_category":"destination_charging_ev"},{"id":"10051655","name":"8520 HODONIN - BRNENSKA","lat":48.86726,"lng":17.11415,"brand":"Shell","inactive":false,"type":0,"country_code":"CZ","address":"BRNENSKA 3540","city":"HODONIN","state":"Jihomoravský kraj","postcode":"695 01","telephone":"+420 518 346 945","country":"Czechia","amenities":["adblue_pack","adblue_truck","air_and_water","b2b_shell_card_ota","b2b_shell_card_qr","carwash","clubsmart_card","full_service","go_plus","high_speed_diesel_pump","loyalty_cards","loyalty_program","mobile_payment","rollover","shop","standard_toilet","twenty_four_hour","vacuum","manned"],"distance":131.87530332848,"driving_distance":null,"driving_duration":null,"website_url":"https://find.shell.com/cz/fuel/10051655-8520-hodonin-brnenska/de_AT","mdm_site_category":"Conventional Fuel Site","formatted_address":"BRNENSKA 3540\nHODONIN, Jihomoravský kraj, 695 01","site_category":"conventional_fuel_site"},{"id":"10022762","name":"SCHWANENSTADT GMUNDNERSTRASSE..","lat":48.051743,"lng":13.777035,"brand":"Shell","inactive":false,"type":2,"country_code":"AT","address":"GMUNDNERSTRASSE 21","city":"SCHWANENSTADT","state":"Oberösterreich","postcode":"4690","telephone":"+43 7673 2747","country":"Austria","amenities":["adblue_pack","air_and_water","apple_pay","austrian_highway_sticker","b2b_shell_card_ota","bakery_shop","carwash","credit_card","credit_card_american_express","credit_card_mastercard","credit_card_visa","deli2go","fleet_card_dkv","fleet_card_uta","google_pay","hgv_lane","high_speed_diesel_pump","mobile_payment","mobile_payment_amex","mobile_payment_maestro","mobile_payment_mastercard","mobile_payment_visa","parking_lanes","partner_card","paypal","rollover","self_service","shell_card","shop","standard_toilet","type_of_parking","vacuum","wifi","manned"],"distance":131.92879726366002,"driving_distance":null,"driving_duration":null,"website_url":"https://www.shell.at/tanken/shell-tankstellensuche/standorte.html/10022762-schwanenstadt-gmundnerstrasse","mdm_site_category":"Conventional Fuel Site","formatted_address":"GMUNDNERSTRASSE 21\nSCHWANENSTADT, Oberösterreich, 4690","site_category":"conventional_fuel_site"},{"id":"12621362","name":"8224 ROVINKA","lat":48.093171,"lng":17.242111,"brand":"Shell","inactive":false,"type":0,"country_code":"SK","address":"SLNEČNICOVÁ 2048/2","city":"ROVINKA","state":"Bratislavský kraj","postcode":"900 41","telephone":"+421 2/459 852 58","country":"Slovakia","amenities":["adblue_pack","air_and_water","apple_pay","b2b_shell_card_ota","b2b_shell_card_qr","clubsmart_card","full_service","go_plus","google_pay","loyalty_cards","loyalty_program","mobile_payment","mobile_payment_amex","mobile_payment_diners","mobile_payment_maestro","mobile_payment_mastercard","mobile_payment_visa","paypal","shop","twenty_four_hour","manned"],"distance":132.18099591753,"driving_distance":null,"driving_duration":null,"website_url":"https://find.shell.com/sk/fuel/12621362-8224-rovinka/de_AT","mdm_site_category":"Conventional Fuel Site","formatted_address":"SLNEČNICOVÁ 2048/2\nROVINKA, Bratislavský kraj, 900 41","site_category":"conventional_fuel_site"},{"id":"12425921","name":"8626 BERNOLAKOVO","lat":48.206897,"lng":17.295505,"brand":"Shell","inactive":false,"type":0,"country_code":"SK","address":"SENECKA CESTA 3231","city":"BERNOLAKOVO","state":"Trnavský kraj","postcode":"900 27","telephone":"+421 948 909 906","country":"Slovakia","amenities":["air_and_water","austrian_highway_sticker","b2b_shell_card_ota","b2b_shell_card_qr","cafe","clubsmart_card","disability_assistance","food_offerings","go_plus","high_speed_diesel_pump","loyalty_cards","loyalty_program","mobile_payment","others","sandwich","self_service","shop","snack_food","standard_toilet","twenty_four_hour","type_of_parking","wifi","manned"],"distance":133.81643826249,"driving_distance":null,"driving_duration":null,"website_url":"https://find.shell.com/sk/fuel/12425921-8626-bernolakovo/de_AT","mdm_site_category":"Conventional Fuel Site","formatted_address":"SENECKA CESTA 3231\nBERNOLAKOVO, Trnavský kraj, 900 27","site_category":"conventional_fuel_site"},{"id":"10058176","name":"8206 SENEC","lat":48.240529,"lng":17.360585,"brand":"Shell","inactive":false,"type":2,"country_code":"SK","address":"Horný dvor 4665","city":"Senec","state":"Bratislavský kraj","postcode":"903 01","telephone":"+421 2/455 281 19","country":"Slovakia","amenities":["adblue_car","adblue_pack","adblue_truck","air_and_water","apple_pay","b2b_shell_card_ota","b2b_shell_card_qr","clubsmart_card","full_service","go_plus","google_pay","hgv_lane","high_speed_diesel_pump","loyalty_cards","loyalty_program","mobile_payment","mobile_payment_amex","mobile_payment_diners","mobile_payment_maestro","mobile_payment_mastercard","mobile_payment_visa","parking_lanes","paypal","shell_card","shop","standard_toilet","starbucks","twenty_four_hour","twenty_four_hour_ev_service","type_of_parking","vacuum","manned"],"distance":138.17462969023998,"driving_distance":null,"driving_duration":null,"website_url":"https://find.shell.com/sk/fuel/10058176-8206-senec/de_AT","mdm_site_category":"Conventional Fuel Site with EV","formatted_address":"Horný dvor 4665\nSenec, Bratislavský kraj, 903 01","site_category":"conventional_fuel_site_with_ev"},{"id":"13091506","name":"8702 SENEC II LNG","lat":48.242262,"lng":17.36113,"brand":"Shell","inactive":false,"type":0,"country_code":"SK","address":"DIAĽNIČNÁ CESTA 4570/2A","city":"SENEC","state":"Bratislavský kraj","postcode":"903 01","telephone":"+421 2/582 451 10","country":"Slovakia","amenities":["twenty_four_hour","unmanned"],"distance":138.19562487984,"driving_distance":null,"driving_duration":null,"website_url":"https://find.shell.com/sk/fuel/13091506-8702-senec-ii-lng/de_AT","mdm_site_category":"Other","formatted_address":"DIAĽNIČNÁ CESTA 4570/2A\nSENEC, Bratislavský kraj, 903 01","site_category":"lng_site"},{"id":"12815396","name":"RUTZENMOOS AM MOOSGRABEN","lat":47.955,"lng":13.726389,"brand":"Shell","inactive":false,"type":2,"country_code":"AT","address":"AM MOOSGRABEN 3","city":"RUTZENMOOS","state":"Oberösterreich","postcode":"4845","telephone":"+43 7672 22681","country":"Austria","amenities":["standard_toilet","carwash","mobile_payment","high_speed_diesel_pump","bakery_shop","loyalty_cards","credit_card","fuel_card","credit_card_general","parking_lanes","self_service","austrian_highway_sticker","childs_toilet","fleet_card_dkv","fleet_card_uta","fleet_card_esso","credit_card_visa","credit_card_mastercard","credit_card_american_express","credit_card_diners_club","shell_card","euroshell_card","twenty_four_hour","conveyor","jet","rollover","rollover_and_jet","conveyor_and_jet","shop","truck_parking","adblue_truck","adblue_car","adblue_pack","loyalty_program","go_plus","paypal","disabled_facilities","hgv_lane","air_and_water","shower","wifi","vacuum","shell_machine_rollover","manned"],"distance":138.706796416,"driving_distance":null,"driving_duration":null,"website_url":"https://www.shell.at/tanken/shell-tankstellensuche/standorte.html/12815396-rutzenmoos-am-moosgraben","mdm_site_category":"Conventional Fuel Site with EV","formatted_address":"AM MOOSGRABEN 3\nRUTZENMOOS, Oberösterreich, 4845","site_category":"conventional_fuel_site_with_ev"},{"id":"10025291","name":"OBERNZELL, PASSAUER STR","lat":48.55582,"lng":13.631671,"brand":"Shell","inactive":false,"type":0,"country_code":"DE","address":"PASSAUER STR. 5","city":"OBERNZELL","state":"Bayern","postcode":"94130","telephone":"+49 8591 9398050","country":"Germany","amenities":["air_and_water","apple_pay","b2b_shell_card_ota","carwash","clubsmart_card","credit_card","credit_card_general","fleet_card_general","google_pay","loyalty_cards","loyalty_program","mobile_payment","mobile_payment_amex","mobile_payment_maestro","mobile_payment_mastercard","mobile_payment_visa","paypal","rollover","selectshop","self_service","shell_card","smart_deal","standard_toilet","manned"],"distance":139.67050611283,"driving_distance":null,"driving_duration":null,"website_url":"https://find.shell.com/de/fuel/10025291-obernzell-passauer-str/de_AT","mdm_site_category":"Conventional Fuel Site","formatted_address":"PASSAUER STR. 5\nOBERNZELL, Bayern, 94130","site_category":"conventional_fuel_site"},{"id":"13016116","name":"EV TESCO MOSONMAGYAROVAR","lat":47.877499,"lng":17.256646,"brand":"Shell","inactive":false,"type":0,"country_code":"HU","address":"KIRALYHIDAI U. 42.","city":"MOSONMAGYAROVAR","state":"Gyor-Moson-Sopron","postcode":"9200","telephone":"","country":"Hungary","amenities":["credit_card","credit_card_general","fleet_card_general","shop","twenty_four_hour_ev_service","manned"],"distance":140.594495038,"driving_distance":null,"driving_duration":null,"website_url":"https://find.shell.com/hu/fuel/13016116-ev-tesco-mosonmagyarovar/de_AT","mdm_site_category":"Destination Charging (EV)","formatted_address":"KIRALYHIDAI U. 42.\nMOSONMAGYAROVAR, Gyor-Moson-Sopron, 9200","site_category":"destination_charging_ev"},{"id":"10024774","name":"HAUZENBERG, FRITZ-WEIDINGER","lat":48.653747,"lng":13.624985,"brand":"Shell","inactive":false,"type":0,"country_code":"DE","address":"FRITZ-WEIDINGER STRASSE 38","city":"HAUZENBERG","state":"Bayern","postcode":"94051","telephone":"+49 8586 4099","country":"Germany","amenities":["adblue_pack","air_and_water","apple_pay","b2b_shell_card_ota","bakery_shop","cafe","carwash","clubsmart_card","credit_card","credit_card_american_express","credit_card_general","credit_card_mastercard","credit_card_visa","deli2go","fleet_card_esso","fleet_card_general","food_offerings","google_pay","loyalty_cards","loyalty_program","mobile_payment","mobile_payment_amex","mobile_payment_maestro","mobile_payment_mastercard","mobile_payment_visa","partner_card","paypal","recup","rollover","selectshop","self_service","shell_card","shell_club_smart_extra_card","smart_deal","standard_toilet","vacuum","wifi","manned"],"distance":142.21094893943,"driving_distance":null,"driving_duration":null,"website_url":"https://find.shell.com/de/fuel/10024774-hauzenberg-fritz-weidinger/de_AT","mdm_site_category":"Conventional Fuel Site","formatted_address":"FRITZ-WEIDINGER STRASSE 38\nHAUZENBERG, Bayern, 94051","site_category":"conventional_fuel_site"},{"id":"10051636","name":"8608 CASTKOV DO","lat":48.74627,"lng":17.340549,"brand":"Shell","inactive":false,"type":0,"country_code":"SK","address":"CASTKOV 230","city":"ČASTKOV","state":"Trnavský kraj","postcode":"906 01","telephone":"+421 908 414 832","country":"Slovakia","amenities":["adblue_pack","adblue_truck","air_and_water","b2b_shell_card_ota","b2b_shell_card_qr","clubsmart_card","full_service","go_plus","loyalty_cards","loyalty_program","mobile_payment","shell_card","shop","standard_toilet","manned"],"distance":142.46393274978,"driving_distance":null,"driving_duration":null,"website_url":"https://find.shell.com/sk/fuel/10051636-8608-castkov-do/de_AT","mdm_site_category":"Conventional Fuel Site with EV","formatted_address":"CASTKOV 230\nČASTKOV, Trnavský kraj, 906 01","site_category":"conventional_fuel_site_with_ev"},{"id":"10056365","name":"8295 ŠTVRTOK NA OSTROVE","lat":48.083379,"lng":17.383684,"brand":"Shell","inactive":false,"type":0,"country_code":"SK","address":"Štvrtok na Ostrove","city":"Štvrtok na Ostrove","state":"Bratislavský kraj","postcode":"930 40","telephone":"+421 31/560 23 16","country":"Slovakia","amenities":["adblue_pack","air_and_water","apple_pay","b2b_shell_card_ota","b2b_shell_card_qr","clubsmart_card","full_service","go_plus","google_pay","loyalty_cards","loyalty_program","mobile_payment","mobile_payment_amex","mobile_payment_diners","mobile_payment_maestro","mobile_payment_mastercard","mobile_payment_visa","parking_lanes","paypal","shell_card","shop","standard_toilet","twenty_four_hour","type_of_parking","vacuum","manned"],"distance":142.67413233096002,"driving_distance":null,"driving_duration":null,"website_url":"https://find.shell.com/sk/fuel/10056365-8295-stvrtok-na-ostrove/de_AT","mdm_site_category":"Conventional Fuel Site","formatted_address":"Štvrtok na Ostrove\nŠtvrtok na Ostrove, Bratislavský kraj, 930 40","site_category":"conventional_fuel_site"},{"id":"10203148","name":"MOSONMAGYARÓVÁR II.","lat":47.851998,"lng":17.281545,"brand":"Shell","inactive":false,"type":0,"country_code":"HU","address":"SZENT ISTVÁN KIRÁLY ÚT 170","city":"MOSONMAGYARÓVÁR","state":"Gyor-Moson-Sopron","postcode":"9200","telephone":"+36 96 579 044","country":"Hungary","amenities":["adblue_pack","air_and_water","austrian_highway_sticker","b2b_shell_card_ota","bakery_shop","carwash","credit_card","credit_card_general","fleet_card_general","food_offerings","full_service","go_plus","hot_food","hungarian_highway_sticker","loyalty_cards","loyalty_program","mobile_payment","netpincer","other_loyalty_cards","pet_friendly","rollover","shop","standard_toilet","type_of_parking","wifi","manned"],"distance":143.41179284325997,"driving_distance":null,"driving_duration":null,"website_url":"https://find.shell.com/hu/fuel/10203148-mosonmagyarovar-ii/de_AT","mdm_site_category":"Conventional Fuel Site","formatted_address":"SZENT ISTVÁN KIRÁLY ÚT 170\nMOSONMAGYARÓVÁR, Gyor-Moson-Sopron, 9200","site_category":"conventional_fuel_site"},{"id":"10203136","name":"MOSONMAGYARÓVÁR I.","lat":47.844414,"lng":17.282205,"brand":"Shell","inactive":false,"type":2,"country_code":"HU","address":"GABONARAKPART 10","city":"MOSONMAGYARÓVÁR","state":"Gyor-Moson-Sopron","postcode":"9200","telephone":"+36 30 655 4989","country":"Hungary","amenities":["adblue_car","adblue_pack","adblue_truck","air_and_water","austrian_highway_sticker","b2b_shell_card_ota","bakery_shop","credit_card","credit_card_general","fleet_card_general","food_offerings","full_service","go_plus","hgv_lane","high_speed_diesel_pump","hungarian_highway_sticker","loyalty_cards","loyalty_program","mobile_payment","other_loyalty_cards","others","shop","standard_toilet","type_of_parking","wifi","manned"],"distance":143.79355488708,"driving_distance":null,"driving_duration":null,"website_url":"https://find.shell.com/hu/fuel/10203136-mosonmagyarovar-i/de_AT","mdm_site_category":"Conventional Fuel Site","formatted_address":"GABONARAKPART 10\nMOSONMAGYARÓVÁR, Gyor-Moson-Sopron, 9200","site_category":"conventional_fuel_site"},{"id":"10026233","name":"BUECHLBERG, HAUPTSTR","lat":48.668262,"lng":13.518751,"brand":"Shell","inactive":false,"type":0,"country_code":"DE","address":"HAUPTSTR. 33","city":"BUECHLBERG","state":"Bayern","postcode":"94124","telephone":"+49 8505 922041","country":"Germany","amenities":["air_and_water","apple_pay","b2b_shell_card_ota","clubsmart_card","credit_card","credit_card_american_express","credit_card_diners_club","credit_card_general","credit_card_mastercard","credit_card_visa","google_pay","loyalty_cards","loyalty_program","mobile_payment","mobile_payment_amex","mobile_payment_maestro","mobile_payment_mastercard","mobile_payment_visa","paypal","self_service","shell_card","shop","smart_deal","standard_toilet","vacuum","manned"],"distance":150.17660587454,"driving_distance":null,"driving_duration":null,"website_url":"https://find.shell.com/de/fuel/10026233-buechlberg-hauptstr/de_AT","mdm_site_category":"Conventional Fuel Site","formatted_address":"HAUPTSTR. 33\nBUECHLBERG, Bayern, 94124","site_category":"conventional_fuel_site"},{"id":"10025286","name":"FREYUNG, GRAFENAUER STR","lat":48.81352,"lng":13.545373,"brand":"Shell","inactive":false,"type":0,"country_code":"DE","address":"GRAFENAUER STR. 45","city":"FREYUNG","state":"Bayern","postcode":"94078","telephone":"+49 8551 576816","country":"Germany","amenities":["air_and_water","apple_pay","b2b_shell_card_ota","cafe","carwash","credit_card","credit_card_general","fleet_card_general","food_offerings","google_pay","loyalty_cards","loyalty_program","mobile_payment","mobile_payment_amex","mobile_payment_maestro","mobile_payment_mastercard","mobile_payment_visa","other_loyalty_cards","paypal","rollover","self_service","shell_card","shop","smart_deal","standard_toilet","manned"],"distance":152.73782279238,"driving_distance":null,"driving_duration":null,"website_url":"https://find.shell.com/de/fuel/10025286-freyung-grafenauer-str/de_AT","mdm_site_category":"Conventional Fuel Site","formatted_address":"GRAFENAUER STR. 45\nFREYUNG, Bayern, 94078","site_category":"conventional_fuel_site"},{"id":"10022735","name":"BAD ISCHL SALZBURGERSTRASSE.","lat":47.719351,"lng":13.609103,"brand":"Shell","inactive":false,"type":0,"country_code":"AT","address":"SALZBURGERSTRASSE 52","city":"BAD ISCHL","state":"Oberösterreich","postcode":"4820","telephone":"+43 6132 26373","country":"Austria","amenities":["adblue_pack","air_and_water","apple_pay","austrian_highway_sticker","b2b_shell_card_ota","bakery_shop","billa_unterwegs","carwash","credit_card","credit_card_american_express","credit_card_mastercard","credit_card_visa","fleet_card_dkv","fleet_card_uta","full_service","go_plus","google_pay","high_speed_diesel_pump","loyalty_cards","loyalty_program","mobile_payment","mobile_payment_amex","mobile_payment_maestro","mobile_payment_mastercard","mobile_payment_visa","paypal","rollover","rollover_and_jet","shell_card","standard_toilet","swiss_highway_sticker","vacuum","wifi","manned"],"distance":157.10748995574,"driving_distance":null,"driving_duration":null,"website_url":"https://www.shell.at/tanken/shell-tankstellensuche/standorte.html/10022735-bad-ischl-salzburgerstrasse","mdm_site_category":"Conventional Fuel Site","formatted_address":"SALZBURGERSTRASSE 52\nBAD ISCHL, Oberösterreich, 4820","site_category":"conventional_fuel_site"},{"id":"12844252","name":"HÉDERVÁR","lat":47.831715,"lng":17.468479,"brand":"Shell","inactive":false,"type":2,"country_code":"HU","address":"KÜLTERÜLET, HRSZ: 0109","city":"HÉDERVÁR","state":"Gyor-Moson-Sopron","postcode":"9178","telephone":"+36 30 200 3521","country":"Hungary","amenities":["adblue_pack","air_and_water","b2b_shell_card_ota","bottled_gas","carwash","clubsmart_card","credit_card","credit_card_general","credit_card_mastercard","credit_card_visa","disabled_facilities","food_offerings","full_service","go_plus","hgv_lane","high_speed_diesel_pump","jet","loyalty_cards","loyalty_program","mobile_payment","parking_lanes","shell_card","shop","snack_food","standard_toilet","type_of_parking","vacuum","wifi","manned"],"distance":157.14721445424,"driving_distance":null,"driving_duration":null,"website_url":"https://find.shell.com/hu/fuel/12844252-hedervar/de_AT","mdm_site_category":"Conventional Fuel Site","formatted_address":"KÜLTERÜLET, HRSZ: 0109\nHÉDERVÁR, Gyor-Moson-Sopron, 9178","site_category":"conventional_fuel_site"},{"id":"10056526","name":"8532 OSTROŽSKÁ NOVÁ VES","lat":48.99116,"lng":17.41782,"brand":"Shell","inactive":false,"type":0,"country_code":"CZ","address":"OSVOBOZENÍ 268","city":"OSTROŽSKÁ NOVÁ VES","state":"Zlínský kraj","postcode":"687 22","telephone":"+420 572 591 517","country":"Czechia","amenities":["adblue_pack","air_and_water","b2b_shell_card_ota","b2b_shell_card_qr","clubsmart_card","full_service","go_plus","high_speed_diesel_pump","loyalty_cards","loyalty_program","mobile_payment","shop","standard_toilet","twenty_four_hour","manned"],"distance":157.8403294728,"driving_distance":null,"driving_duration":null,"website_url":"https://find.shell.com/cz/fuel/10056526-8532-ostrozska-nova-ves/de_AT","mdm_site_category":"Conventional Fuel Site","formatted_address":"OSVOBOZENÍ 268\nOSTROŽSKÁ NOVÁ VES, Zlínský kraj, 687 22","site_category":"conventional_fuel_site"}],"clusters":[]}