{"locations":[{"id":"10022901","name":"GRAZ-ST.PETER ST.PETER-HAUPTSTRASS.","lat":47.057367,"lng":15.471032,"brand":"Shell","inactive":false,"type":0,"country_code":"AT","address":"ST.PETER-HAUPTSTRASSE 24","city":"GRAZ-ST.PETER","state":"Steiermark","postcode":"8042","telephone":"+43 316 463773","country":"Austria","amenities":["adblue_pack","air_and_water","apple_pay","b2b_shell_card_ota","bakery_shop","billa_unterwegs","carwash","credit_card","credit_card_american_express","credit_card_mastercard","credit_card_visa","disabled_facilities","fleet_card_dkv","fleet_card_uta","go_plus","google_pay","loyalty_cards","loyalty_program","mobile_payment","mobile_payment_amex","mobile_payment_maestro","mobile_payment_mastercard","mobile_payment_visa","paypal","rollover_and_jet","self_service","shell_card","standard_toilet","twenty_four_hour","twenty_four_hour_ev_service","vacuum","wifi","manned"],"distance":2.3424795348,"driving_distance":null,"driving_duration":null,"website_url":"https://www.shell.at/tanken/shell-tankstellensuche/standorte.html/10022901-graz-st-peter-st-peter-hauptstrass","mdm_site_category":"Conventional Fuel Site with EV","formatted_address":"ST.PETER-HAUPTSTRASSE 24\nGRAZ-ST.PETER, Steiermark, 8042","site_category":"conventional_fuel_site_with_ev"},{"id":"11961203","name":"GOESSENDORF BUNDESSTRASSE.","lat":46.996953,"lng":15.496848,"brand":"Shell","inactive":false,"type":0,"country_code":"AT","address":"BUNDESSTRASSE 248","city":"GOESSENDORF","state":"Steiermark","postcode":"8071","telephone":"+43 3135 46127","country":"Austria","amenities":["adblue_pack","air_and_water","partner_card","pay_at_pump","self_service","shell_card","standard_toilet","manned"],"distance":5.90340236973,"driving_distance":null,"driving_duration":null,"website_url":"https://www.shell.at/tanken/shell-tankstellensuche/standorte.html/11961203-goessendorf-bundesstrasse","mdm_site_category":"Conventional Fuel Site","formatted_address":"BUNDESSTRASSE 248\nGOESSENDORF, Steiermark, 8071","site_category":"conventional_fuel_site"},{"id":"13059438","name":"EV BILLA GRAZ, PETER ROSEGGER STR.","lat":47.054892,"lng":15.41159,"brand":"Shell","inactive":false,"type":0,"country_code":"AT","address":"PETER ROSEGGER STR. 30","city":"GRAZ","state":"Steiermark","postcode":"8010","telephone":"","country":"Austria","amenities":["apple_pay","credit_card","credit_card_mastercard","credit_card_visa","google_pay","mobile_payment","mobile_payment_maestro","mobile_payment_mastercard","mobile_payment_visa","shop","touchless_pay","manned"],"distance":6.720028205949999,"driving_distance":null,"driving_duration":null,"website_url":"https://www.shell.at/tanken/shell-tankstellensuche/standorte.html/13059438-ev-billa-graz-peter-rosegger-str","mdm_site_category":"Destination Charging (EV)","formatted_address":"PETER ROSEGGER STR. 30\nGRAZ, Steiermark, 8010","site_category":"destination_charging_ev"},{"id":"10022913","name":"LASSNITZHOEHE SCHEMERLHOEHE.","lat":47.063084,"lng":15.590819,"brand":"Shell","inactive":false,"type":2,"country_code":"AT","address":"SCHEMERLHOEHE 5","city":"LASSNITZHOEHE","state":"Steiermark","postcode":"8301","telephone":"+43 3133 3258","country":"Austria","amenities":["adblue_pack","air_and_water","apple_pay","b2b_shell_card_ota","bakery_shop","carwash","credit_card","credit_card_general","deli2go","fleet_card_dkv","fleet_card_uta","go_plus","google_pay","hgv_lane","high_speed_diesel_pump","loyalty_cards","loyalty_program","mobile_payment","mobile_payment_amex","mobile_payment_maestro","mobile_payment_mastercard","mobile_payment_visa","paypal","rollover","self_service","shell_card","shop","standard_toilet","twenty_four_hour_ev_service","wifi","manned"],"distance":7.03210017152,"driving_distance":null,"driving_duration":null,"website_url":"https://www.shell.at/tanken/shell-tankstellensuche/standorte.html/10022913-lassnitzhoehe-schemerlhoehe","mdm_site_category":"Conventional Fuel Site with EV","formatted_address":"SCHEMERLHOEHE 5\nLASSNITZHOEHE, Steiermark, 8301","site_category":"conventional_fuel_site_with_ev"},{"id":"10022899","name":"GRAZ WIENERSTRASSE.","lat":47.0876,"lng":15.41238,"brand":"Shell","inactive":false,"type":2,"country_code":"AT","address":"WIENERSTRASSE 180A","city":"GRAZ","state":"Steiermark","postcode":"8051","telephone":"+43 316 681135","country":"Austria","amenities":["adblue_car","adblue_pack","adblue_truck","air_and_water","apple_pay","atm","atm_in","austrian_highway_sticker","b2b_shell_card_ota","bakery_shop","carwash","conveyor","credit_card","credit_card_american_express","credit_card_diners_club","credit_card_general","credit_card_mastercard","credit_card_visa","fleet_card_dkv","fleet_card_uta","go_plus","google_pay","hgv_lane","high_speed_diesel_pump","loyalty_cards","loyalty_program","mobile_payment","mobile_payment_amex","mobile_payment_maestro","mobile_payment_mastercard","mobile_payment_visa","paypal","rollover","self_service","shell_card","shop","standard_toilet","twenty_four_hour","wifi","manned"],"distance":7.84333417432,"driving_distance":null,"driving_duration":null,"website_url":"https://www.shell.at/tanken/shell-tankstellensuche/standorte.html/10022899-graz-wienerstrasse","mdm_site_category":"Conventional Fuel Site","formatted_address":"WIENERSTRASSE 180A\nGRAZ, Steiermark, 8051","site_category":"conventional_fuel_site"},{"id":"10022934","name":"SEIERSBERG MARIA PFEIFERSTRASSE.","lat":47.013165,"lng":15.40893,"brand":"Shell","inactive":false,"type":2,"country_code":"AT","address":"MARIA PFEIFERSTRASSE 6","city":"SEIERSBERG","state":"Steiermark","postcode":"8055","telephone":"+43 316 242018","country":"Austria","amenities":["adblue_pack","adblue_truck","air_and_water","apple_pay","austrian_highway_sticker","b2b_shell_card_ota","bakery_shop","credit_card","credit_card_general","disabled_facilities","fleet_card_dkv","fleet_card_uta","go_plus","google_pay","hgv_lane","loyalty_cards","loyalty_program","mobile_payment","mobile_payment_amex","mobile_payment_maestro","mobile_payment_mastercard","mobile_payment_visa","paypal","self_service","shop","standard_toilet","twenty_four_hour","twenty_four_hour_ev_service","type_of_parking","wifi","manned"],"distance":8.02598744616,"driving_distance":null,"driving_duration":null,"website_url":"https://www.shell.at/tanken/shell-tankstellensuche/standorte.html/10022934-seiersberg-maria-pfeiferstrasse","mdm_site_category":"Conventional Fuel Site with EV","formatted_address":"MARIA PFEIFERSTRASSE 6\nSEIERSBERG, Steiermark, 8055","site_category":"conventional_fuel_site_with_ev"},{"id":"13063143","name":"UNTERPREMSTAETTEN INDUSTRIESTRASSE","lat":46.96362,"lng":15.44115,"brand":"Shell","inactive":false,"type":0,"country_code":"AT","address":"INDUSTRIESTRASSE 30","city":"UNTERPREMSTÄTTEN","state":"Steiermark","postcode":"8141","telephone":"+43 316 777","country":"Austria","amenities":["air_and_water","standard_toilet","twenty_four_hour","unmanned"],"distance":10.59097907528,"driving_distance":null,"driving_duration":null,"website_url":"https://www.shell.at/tanken/shell-tankstellensuche/standorte.html/13063143-unterpremstaetten-industriestrasse","mdm_site_category":"Conventional Fuel Site","formatted_address":"INDUSTRIESTRASSE 30\nUNTERPREMSTÄTTEN, Steiermark, 8141","site_category":"conventional_fuel_site"},{"id":"13048189","name":"EV BILLA GRATKORN, ST. STEFANER S.","lat":47.128433,"lng":15.34655,"brand":"Shell","inactive":false,"type":0,"country_code":"AT","address":"St. Stefaner Strasse 1","city":"Gratkorn","state":"Steiermark","postcode":"8101","telephone":"","country":"Austria","amenities":["apple_pay","credit_card","credit_card_mastercard","credit_card_visa","google_pay","mobile_payment","mobile_payment_maestro","mobile_payment_mastercard","mobile_payment_visa","shop","touchless_pay","manned"],"distance":14.52674631909,"driving_distance":null,"driving_duration":null,"website_url":"https://www.shell.at/tanken/shell-tankstellensuche/standorte.html/13048189-ev-billa-gratkorn-st-stefaner-s","mdm_site_category":"Destination Charging (EV)","formatted_address":"St. Stefaner Strasse 1\nGratkorn, Steiermark, 8101","site_category":"destination_charging_ev"},{"id":"10022891","name":"GLEISDORF HARTBERGERSTRASSE.","lat":47.114048,"lng":15.710222,"brand":"Shell","inactive":false,"type":0,"country_code":"AT","address":"HARTBERGERSTRASSE 54","city":"GLEISDORF","state":"Steiermark","postcode":"8200","telephone":"+43 3112 2635","country":"Austria","amenities":["adblue_pack","air_and_water","carwash","credit_card","credit_card_general","fleet_card_general","self_service","shop","standard_toilet","manned"],"distance":17.438238694560003,"driving_distance":null,"driving_duration":null,"website_url":"https://www.shell.at/tanken/shell-tankstellensuche/standorte.html/10022891-gleisdorf-hartbergerstrasse","mdm_site_category":"Conventional Fuel Site","formatted_address":"HARTBERGERSTRASSE 54\nGLEISDORF, Steiermark, 8200","site_category":"conventional_fuel_site"},{"id":"10022943","name":"WEIZ GLEISDORFERSTRASSE.","lat":47.208593,"lng":15.633555,"brand":"Shell","inactive":false,"type":0,"country_code":"AT","address":"GLEISDORFERSTRASSE 111","city":"WEIZ","state":"Steiermark","postcode":"8160","telephone":"+43 3172 2501370","country":"Austria","amenities":["adblue_pack","air_and_water","carwash","credit_card","credit_card_general","fleet_card_general","self_service","shop","standard_toilet","manned"],"distance":20.324050055849998,"driving_distance":null,"driving_duration":null,"website_url":"https://www.shell.at/tanken/shell-tankstellensuche/standorte.html/10022943-weiz-gleisdorferstrasse","mdm_site_category":"Conventional Fuel Site","formatted_address":"GLEISDORFERSTRASSE 111\nWEIZ, Steiermark, 8160","site_category":"conventional_fuel_site"},{"id":"10022944","name":"WEIZ BIRKFELDERSTRASSE.","lat":47.219478,"lng":15.634634,"brand":"Shell","inactive":false,"type":0,"country_code":"AT","address":"BIRKFELDERSTRASSE 63","city":"WEIZ","state":"Steiermark","postcode":"8160","telephone":"+43 3172 2050","country":"Austria","amenities":["adblue_pack","air_and_water","apple_pay","austrian_highway_sticker","b2b_shell_card_ota","bakery_shop","billa_unterwegs","carwash","credit_card","credit_card_general","fleet_card_uta","go_plus","google_pay","loyalty_cards","loyalty_program","mobile_payment","mobile_payment_amex","mobile_payment_maestro","mobile_payment_mastercard","mobile_payment_visa","paypal","rollover","self_service","service_bay","standard_toilet","vacuum","wifi","manned"],"distance":21.4209148087,"driving_distance":null,"driving_duration":null,"website_url":"https://www.shell.at/tanken/shell-tankstellensuche/standorte.html/10022944-weiz-birkfelderstrasse","mdm_site_category":"Conventional Fuel Site","formatted_address":"BIRKFELDERSTRASSE 63\nWEIZ, Steiermark, 8160","site_category":"conventional_fuel_site"},{"id":"13113706","name":"EV BILLA KROTTENDORF, NR. 173","lat":47.009436,"lng":15.216749,"brand":"Shell","inactive":false,"type":0,"country_code":"AT","address":"NR. 173","city":"KROTTENDORF","state":"Steiermark","postcode":"8564","telephone":"","country":"Austria","amenities":["apple_pay","credit_card","credit_card_mastercard","credit_card_visa","google_pay","mobile_payment","mobile_payment_maestro","mobile_payment_mastercard","mobile_payment_visa","shop","touchless_pay","manned"],"distance":21.93705150295,"driving_distance":null,"driving_duration":null,"website_url":"https://www.shell.at/tanken/shell-tankstellensuche/standorte.html/13113706-ev-billa-krottendorf-nr-173","mdm_site_category":"Destination Charging (EV)","formatted_address":"NR. 173\nKROTTENDORF, Steiermark, 8564","site_category":"destination_charging_ev"},{"id":"10022893","name":"GRALLA A9/PHYRNAUTOBAHN-GRALLA WEST","lat":46.833208,"lng":15.547725,"brand":"Shell","inactive":false,"type":2,"country_code":"AT","address":"AM RASTPLATZ 1","city":"GRALLA","state":"Steiermark","postcode":"8431","telephone":"+43 3452 84715","country":"Austria","amenities":["adblue_pack","adblue_truck","air_and_water","apple_pay","b2b_shell_card_ota","credit_card","credit_card_general","fleet_card_dkv","fleet_card_uta","go_plus","google_pay","hgv_lane","loyalty_cards","loyalty_program","mobile_payment","mobile_payment_amex","mobile_payment_maestro","mobile_payment_mastercard","mobile_payment_visa","paypal","shop","standard_toilet","twenty_four_hour","twenty_four_hour_ev_service","type_of_parking","unmanned","wifi"],"distance":24.37696387361,"driving_distance":null,"driving_duration":null,"website_url":"https://www.shell.at/tanken/shell-tankstellensuche/standorte.html/10022893-gralla-a9-phyrnautobahn-gralla-west","mdm_site_category":"Conventional Fuel Site with EV","formatted_address":"AM RASTPLATZ 1\nGRALLA, Steiermark, 8431","site_category":"conventional_fuel_site_with_ev"},{"id":"10022892","name":"GRALLA A9/PHYRNAUTOBAHN-GRALLA OST","lat":46.83101,"lng":15.552746,"brand":"Shell","inactive":false,"type":2,"country_code":"AT","address":"AM RASTPLATZ 2","city":"GRALLA","state":"Steiermark","postcode":"8431","telephone":"+43 3452 84373","country":"Austria","amenities":["adblue_pack","adblue_truck","air_and_water","apple_pay","b2b_shell_card_ota","bakery_shop","credit_card","credit_card_general","fleet_card_dkv","fleet_card_uta","go_plus","google_pay","hgv_lane","loyalty_cards","loyalty_program","mobile_payment","mobile_payment_amex","mobile_payment_maestro","mobile_payment_mastercard","mobile_payment_visa","paypal","self_service","shop","standard_toilet","twenty_four_hour","twenty_four_hour_ev_service","type_of_parking","wifi","manned"],"distance":24.67767544562,"driving_distance":null,"driving_duration":null,"website_url":"https://www.shell.at/tanken/shell-tankstellensuche/standorte.html/10022892-gralla-a9-phyrnautobahn-gralla-ost","mdm_site_category":"Conventional Fuel Site with EV","formatted_address":"AM RASTPLATZ 2\nGRALLA, Steiermark, 8431","site_category":"conventional_fuel_site_with_ev"},{"id":"10022906","name":"HEIMSCHUH SULMTALSTRASSE","lat":46.764262,"lng":15.494348,"brand":"Shell","inactive":false,"type":0,"country_code":"AT","address":"SULMTALSTRASSE 45","city":"HEIMSCHUH","state":"Steiermark","postcode":"8451","telephone":"+43 3452 83576","country":"Austria","amenities":["adblue_pack","adblue_truck","air_and_water","bakery_shop","carwash","credit_card","credit_card_general","disabled_facilities","fleet_card_general","self_service","shell_card","shop","standard_toilet","type_of_parking","manned"],"distance":31.77556065518,"driving_distance":null,"driving_duration":null,"website_url":"https://www.shell.at/tanken/shell-tankstellensuche/standorte.html/10022906-heimschuh-sulmtalstrasse","mdm_site_category":"Conventional Fuel Site","formatted_address":"SULMTALSTRASSE 45\nHEIMSCHUH, Steiermark, 8451","site_category":"conventional_fuel_site"},{"id":"10022941","name":"STUBENBERG/SEE VOCKENBERG.","lat":47.234247,"lng":15.835936,"brand":"Shell","inactive":false,"type":0,"country_code":"AT","address":"VOCKENBERG 72","city":"STUBENBERG/SEE","state":"Steiermark","postcode":"8223","telephone":"+43 3176 80333","country":"Austria","amenities":["adblue_pack","air_and_water","bakery_shop","carwash","credit_card","credit_card_american_express","credit_card_diners_club","credit_card_general","credit_card_mastercard","credit_card_visa","fleet_card_general","jet","partner_card","pay_at_pump","rollover","self_service","shell_card","shop","standard_toilet","twenty_four_hour","type_of_parking","manned"],"distance":32.63871208459,"driving_distance":null,"driving_duration":null,"website_url":"https://www.shell.at/tanken/shell-tankstellensuche/standorte.html/10022941-stubenberg-see-vockenberg","mdm_site_category":"Conventional Fuel Site","formatted_address":"VOCKENBERG 72\nSTUBENBERG/SEE, Steiermark, 8223","site_category":"conventional_fuel_site"},{"id":"10022908","name":"ILZ A2-AUTOBAHN ILZ-HAINFELD","lat":47.079261,"lng":15.962565,"brand":"Shell","inactive":false,"type":2,"country_code":"AT","address":"A2-AUTOBAHN ILZ-HAINFELD 56","city":"ILZ","state":"Steiermark","postcode":"8262","telephone":"+43 3385 7055","country":"Austria","amenities":["adblue_pack","adblue_truck","air_and_water","apple_pay","b2b_shell_card_ota","bakery_shop","credit_card","credit_card_general","deli2go","fleet_card_dkv","fleet_card_uta","go_plus","google_pay","heavy_duty_ev","hgv_lane","loyalty_cards","loyalty_program","mobile_payment","mobile_payment_amex","mobile_payment_maestro","mobile_payment_mastercard","mobile_payment_visa","paypal","self_service","shop","standard_toilet","twenty_four_hour","twenty_four_hour_ev_service","type_of_parking","wifi","manned"],"distance":35.186800007029994,"driving_distance":null,"driving_duration":null,"website_url":"https://www.shell.at/tanken/shell-tankstellensuche/standorte.html/10022908-ilz-a2-autobahn-ilz-hainfeld","mdm_site_category":"Conventional Fuel Site with EV","formatted_address":"A2-AUTOBAHN ILZ-HAINFELD 56\nILZ, Steiermark, 8262","site_category":"conventional_fuel_site_with_ev"},{"id":"11913039","name":"BIRKFELD BAHNHOFSTRASSE","lat":47.352952,"lng":15.697599,"brand":"Shell","inactive":false,"type":0,"country_code":"AT","address":"BAHNHOFSTRASSE 18","city":"BIRKFELD","state":"Steiermark","postcode":"8190","telephone":"+43 3174 441622","country":"Austria","amenities":["air_and_water","credit_card","credit_card_general","full_service","shell_card","shop","manned"],"distance":36.84630370794,"driving_distance":null,"driving_duration":null,"website_url":"https://www.shell.at/tanken/shell-tankstellensuche/standorte.html/11913039-birkfeld-bahnhofstrasse","mdm_site_category":"Conventional Fuel Site","formatted_address":"BAHNHOFSTRASSE 18\nBIRKFELD, Steiermark, 8190","site_category":"conventional_fuel_site"},{"id":"10022932","name":"BREITENAU ERHARDTSTRASSE","lat":47.384062,"lng":15.478166,"brand":"Shell","inactive":false,"type":0,"country_code":"AT","address":"ERHARDTSTRASSE 89","city":"BREITENAU","state":"Steiermark","postcode":"8614","telephone":"+43 3866 5103","country":"Austria","amenities":["air_and_water","credit_card","credit_card_general","fleet_card_general","self_service","shop","standard_toilet","manned"],"distance":37.18263553136,"driving_distance":null,"driving_duration":null,"website_url":"https://www.shell.at/tanken/shell-tankstellensuche/standorte.html/10022932-breitenau-erhardtstrasse","mdm_site_category":"Conventional Fuel Site","formatted_address":"ERHARDTSTRASSE 89\nBREITENAU, Steiermark, 8614","site_category":"conventional_fuel_site"},{"id":"10022923","name":"POELLAU BEI HARTBERG SCHLOFFERECKS.","lat":47.309653,"lng":15.830571,"brand":"Shell","inactive":false,"type":0,"country_code":"AT","address":"SCHLOFFERECKSTRASSE 413","city":"POELLAU BEI HARTBERG","state":"Steiermark","postcode":"8225","telephone":"+43 3335 2268","country":"Austria","amenities":["adblue_pack","air_and_water","carwash","credit_card","credit_card_general","full_service","rollover_and_jet","shell_card","shop","standard_toilet","manned"],"distance":38.18128066967,"driving_distance":null,"driving_duration":null,"website_url":"https://www.shell.at/tanken/shell-tankstellensuche/standorte.html/10022923-poellau-bei-hartberg-schlofferecks","mdm_site_category":"Conventional Fuel Site","formatted_address":"SCHLOFFERECKSTRASSE 413\nPOELLAU BEI HARTBERG, Steiermark, 8225","site_category":"conventional_fuel_site"},{"id":"12181755","name":"LEUTSCHACH SCHLOSSBERG.","lat":46.663657,"lng":15.470401,"brand":"Shell","inactive":false,"type":0,"country_code":"AT","address":"SCHLOSSBERG 144","city":"LEUTSCHACH","state":"Steiermark","postcode":"8463","telephone":"+43 3454 282","country":"Austria","amenities":["adblue_pack","air_and_water","austrian_highway_sticker","bakery_shop","carwash","credit_card","credit_card_american_express","credit_card_mastercard","credit_card_visa","disabled_facilities","fast_food","fleet_card_general","food_offerings","high_speed_diesel_pump","jet","rollover","self_service","shop","standard_toilet","type_of_parking","vacuum","manned"],"distance":43.01835489157,"driving_distance":null,"driving_duration":null,"website_url":"https://www.shell.at/tanken/shell-tankstellensuche/standorte.html/12181755-leutschach-schlossberg","mdm_site_category":"Conventional Fuel Site","formatted_address":"SCHLOSSBERG 144\nLEUTSCHACH, Steiermark, 8463","site_category":"conventional_fuel_site"},{"id":"13072442","name":"FUERSTENFELD BURGAUERSTRASSE","lat":47.065498,"lng":16.079127,"brand":"Shell","inactive":false,"type":0,"country_code":"AT","address":"BURGAUERSTRASSE 28","city":"FÜRSTENFELD","state":"Steiermark","postcode":"8280","telephone":"+43 3382 51270","country":"Austria","amenities":["adblue_car","adblue_pack","adblue_truck","air_and_water","apple_pay","b2b_shell_card_ota","carwash","go_plus","google_pay","loyalty_cards","loyalty_program","mobile_payment","mobile_payment_amex","mobile_payment_maestro","mobile_payment_mastercard","mobile_payment_visa","paypal","rollover","selectshop","self_service","shell_card","twenty_four_hour_ev_service","wifi","manned"],"distance":43.904258306980005,"driving_distance":null,"driving_duration":null,"website_url":"https://www.shell.at/tanken/shell-tankstellensuche/standorte.html/13072442-fuerstenfeld-burgauerstrasse","mdm_site_category":"Conventional Fuel Site with EV","formatted_address":"BURGAUERSTRASSE 28\nFÜRSTENFELD, Steiermark, 8280","site_category":"conventional_fuel_site_with_ev"},{"id":"10022933","name":"ST.MAREIN/MUERZTAL HAUPTSTR.","lat":47.472633,"lng":15.365169,"brand":"Shell","inactive":false,"type":2,"country_code":"AT","address":"HAUPTSTRASSE 20","city":"ST.MAREIN I.MZT.","state":"Steiermark","postcode":"8641","telephone":"+43 3864 5510","country":"Austria","amenities":["adblue_pack","air_and_water","apple_pay","austrian_highway_sticker","b2b_shell_card_ota","bakery_shop","billa_unterwegs","carwash","credit_card","credit_card_american_express","credit_card_diners_club","credit_card_general","credit_card_mastercard","credit_card_visa","fleet_card_dkv","fleet_card_uta","go_plus","google_pay","hgv_lane","loyalty_cards","loyalty_program","mobile_payment","mobile_payment_amex","mobile_payment_maestro","mobile_payment_mastercard","mobile_payment_visa","paypal","rollover","self_service","shell_card","standard_toilet","twenty_four_hour_ev_service","wifi","manned"],"distance":48.08353863162,"driving_distance":null,"driving_duration":null,"website_url":"https://www.shell.at/tanken/shell-tankstellensuche/standorte.html/10022933-st-marein-muerztal-hauptstr","mdm_site_category":"Conventional Fuel Site with EV","formatted_address":"HAUPTSTRASSE 20\nST.MAREIN I.MZT., Steiermark, 8641","site_category":"conventional_fuel_site_with_ev"},{"id":"13059441","name":"EV BILLA LEOBEN, PESTALOZZISTRASSE","lat":47.375706,"lng":15.073677,"brand":"Shell","inactive":false,"type":0,"country_code":"AT","address":"PESTALOZZISTRASSE 71","city":"LEOBEN","state":"Steiermark","postcode":"8704","telephone":"","country":"Austria","amenities":["apple_pay","credit_card","credit_card_mastercard","credit_card_visa","google_pay","mobile_payment","mobile_payment_maestro","mobile_payment_mastercard","mobile_payment_visa","shop","touchless_pay","manned"],"distance":48.46195925557,"driving_distance":null,"driving_duration":null,"website_url":"https://www.shell.at/tanken/shell-tankstellensuche/standorte.html/13059441-ev-billa-leoben-pestalozzistrasse","mdm_site_category":"Destination Charging (EV)","formatted_address":"PESTALOZZISTRASSE 71\nLEOBEN, Steiermark, 8704","site_category":"destination_charging_ev"},{"id":"12756085","name":"RATTEN KIRCHENVIERTEL","lat":47.476842,"lng":15.715358,"brand":"Shell","inactive":false,"type":0,"country_code":"AT","address":"KIRCHENVIERTEL 201","city":"RATTEN","state":"Steiermark","postcode":"8673","telephone":"+43 3173 2770","country":"Austria","amenities":["air_and_water","shop","twenty_four_hour","unmanned"],"distance":50.167704035570004,"driving_distance":null,"driving_duration":null,"website_url":"https://www.shell.at/tanken/shell-tankstellensuche/standorte.html/12756085-ratten-kirchenviertel","mdm_site_category":"Conventional Fuel Site","formatted_address":"KIRCHENVIERTEL 201\nRATTEN, Steiermark, 8673","site_category":"conventional_fuel_site"},{"id":"13048183","name":"EV BILLA JENNERSDORF, TECHNOLOGIEP.","lat":46.93744,"lng":16.147444,"brand":"Shell","inactive":false,"type":0,"country_code":"AT","address":"Technologiepark 1","city":"Jennersdorf","state":"Burgenland","postcode":"8380","telephone":"","country":"Austria","amenities":["apple_pay","credit_card","credit_card_mastercard","credit_card_visa","google_pay","mobile_payment","mobile_payment_maestro","mobile_payment_mastercard","mobile_payment_visa","shop","touchless_pay","manned"],"distance":50.67442651478,"driving_distance":null,"driving_duration":null,"website_url":"https://www.shell.at/tanken/shell-tankstellensuche/standorte.html/13048183-ev-billa-jennersdorf-technologiep","mdm_site_category":"Destination Charging (EV)","formatted_address":"Technologiepark 1\nJennersdorf, Burgenland, 8380","site_category":"destination_charging_ev"},{"id":"10022926","name":"ROHRBACH/LAFNITZ NUMMER.","lat":47.391289,"lng":15.994522,"brand":"Shell","inactive":false,"type":0,"country_code":"AT","address":"EICHBERGERSTRASSE 171","city":"ROHRBACH/LAFNITZ","state":"Steiermark","postcode":"8234","telephone":"+43 3338 24120","country":"Austria","amenities":["adblue_truck","air_and_water","austrian_highway_sticker","carwash","credit_card","credit_card_american_express","credit_card_mastercard","credit_card_visa","disabled_facilities","full_service","high_speed_diesel_pump","jet","partner_card","rollover","rollover_and_jet","self_service","shell_card","shop","standard_toilet","type_of_parking","vacuum","manned"],"distance":53.24416560195,"driving_distance":null,"driving_duration":null,"website_url":"https://www.shell.at/tanken/shell-tankstellensuche/standorte.html/10022926-rohrbach-lafnitz-nummer","mdm_site_category":"Conventional Fuel Site","formatted_address":"EICHBERGERSTRASSE 171\nROHRBACH/LAFNITZ, Steiermark, 8234","site_category":"conventional_fuel_site"},{"id":"10022911","name":"KNITTELFELD WIENERSTRASSE","lat":47.217473,"lng":14.8275,"brand":"Shell","inactive":false,"type":0,"country_code":"AT","address":"WIENERSTRASSE 17","city":"KNITTELFELD","state":"Steiermark","postcode":"8720","telephone":"+43 3512 86812","country":"Austria","amenities":["adblue_pack","air_and_water","austrian_highway_sticker","bakery_shop","carwash","credit_card","credit_card_general","fleet_card_general","high_speed_diesel_pump","self_service","shop","standard_toilet","vacuum","manned"],"distance":54.17227408164,"driving_distance":null,"driving_duration":null,"website_url":"https://www.shell.at/tanken/shell-tankstellensuche/standorte.html/10022911-knittelfeld-wienerstrasse","mdm_site_category":"Conventional Fuel Site","formatted_address":"WIENERSTRASSE 17\nKNITTELFELD, Steiermark, 8720","site_category":"conventional_fuel_site"},{"id":"13048185","name":"EV BILLA KNITTELFELD, KAERNTNER S.","lat":47.210935,"lng":14.81537,"brand":"Shell","inactive":false,"type":0,"country_code":"AT","address":"Kaerntner Str. 74","city":"Knittelfeld","state":"Steiermark","postcode":"8720","telephone":"","country":"Austria","amenities":["apple_pay","credit_card","credit_card_mastercard","credit_card_visa","google_pay","mobile_payment","mobile_payment_maestro","mobile_payment_mastercard","mobile_payment_visa","shop","touchless_pay","manned"],"distance":54.796114177119996,"driving_distance":null,"driving_duration":null,"website_url":"https://www.shell.at/tanken/shell-tankstellensuche/standorte.html/13048185-ev-billa-knittelfeld-kaerntner-s","mdm_site_category":"Destination Charging (EV)","formatted_address":"Kaerntner Str. 74\nKnittelfeld, Steiermark, 8720","site_category":"destination_charging_ev"},{"id":"10022917","name":"LANGENWANG S6-SEMMERING SCHNELLSTR","lat":47.558346,"lng":15.590115,"brand":"Shell","inactive":false,"type":2,"country_code":"AT","address":"S6-SEMMERING SCHNELLSTRASSE","city":"LANGENWANG","state":"Steiermark","postcode":"8665","telephone":"+43 3854 6140","country":"Austria","amenities":["adblue_pack","air_and_water","austrian_highway_sticker","bakery_shop","credit_card","credit_card_american_express","credit_card_mastercard","credit_card_visa","hgv_lane","high_speed_diesel_pump","partner_card","self_service","shell_card","shop","shower","standard_toilet","truck_parking","type_of_parking","motorway_service","manned"],"distance":56.932497097209996,"driving_distance":null,"driving_duration":null,"website_url":"https://www.shell.at/tanken/shell-tankstellensuche/standorte.html/10022917-langenwang-s6-semmering-schnellstr","mdm_site_category":"Conventional Fuel Site","formatted_address":"S6-SEMMERING SCHNELLSTRASSE\nLANGENWANG, Steiermark, 8665","site_category":"conventional_fuel_site"},{"id":"13111442","name":"BENEDIKT","lat":46.610589,"lng":15.893986,"brand":"Shell","inactive":false,"type":0,"country_code":"SI","address":"RADGONSKA CESTA 15","city":"BENEDIKT","state":"Lenart","postcode":"2234","telephone":"+386 51 276 753","country":"Slovenia","amenities":["cafe","food_offerings","free_toilet","sandwich","self_service","shell_card","shop","wifi","cctv","manned"],"distance":57.320772571759996,"driving_distance":null,"driving_duration":null,"website_url":"https://find.shell.com/si/fuel/13111442-benedikt/de_AT","mdm_site_category":"Conventional Fuel Site","formatted_address":"RADGONSKA CESTA 15\nBENEDIKT, Lenart, 2234","site_category":"conventional_fuel_site"},{"id":"12858623","name":"NEUBERG IN BURGENLAND","lat":47.184586,"lng":16.248007,"brand":"Shell","inactive":false,"type":0,"country_code":"AT","address":"OBERE HAUPSTRASSE 174","city":"NEUBERG IN BURGENLAND","state":"Burgenland","postcode":"7537","telephone":"","country":"Austria","amenities":["selectshop","manned"],"distance":58.54511097827,"driving_distance":null,"driving_duration":null,"website_url":"https://www.shell.at/tanken/shell-tankstellensuche/standorte.html/12858623-neuberg-in-burgenland","mdm_site_category":"Conventional Fuel Site","formatted_address":"OBERE HAUPSTRASSE 174\nNEUBERG IN BURGENLAND, Burgenland, 7537","site_category":"conventional_fuel_site"},{"id":"13107242","name":"MARIBOR PTUJSKA ZAHOD","lat":46.534802,"lng":15.661667,"brand":"Shell","inactive":false,"type":0,"country_code":"SI","address":"PTUJSKA CESTA 104","city":"MARIBOR","state":"Maribor","postcode":"2000","telephone":"+386 51 276 750","country":"Slovenia","amenities":["cafe","food_offerings","free_toilet","sandwich","self_service","shell_card","shop","wifi","cctv","manned"],"distance":58.59459805914,"driving_distance":null,"driving_duration":null,"website_url":"https://find.shell.com/si/fuel/13107242-maribor-ptujska-zahod/de_AT","mdm_site_category":"Conventional Fuel Site","formatted_address":"PTUJSKA CESTA 104\nMARIBOR, Maribor, 2000","site_category":"conventional_fuel_site"},{"id":"12712636","name":"ST. MICHAEL GUESSINGER STR.","lat":47.119662,"lng":16.27137,"brand":"Shell","inactive":false,"type":0,"country_code":"AT","address":"GUESSINGER STR. 184","city":"ST. MICHAEL","state":"Burgenland","postcode":"7535","telephone":"+43 3327 4009","country":"Austria","amenities":["air_and_water","selectshop","self_service","manned"],"distance":58.9149859002,"driving_distance":null,"driving_duration":null,"website_url":"https://www.shell.at/tanken/shell-tankstellensuche/standorte.html/12712636-st-michael-guessinger-str","mdm_site_category":"Conventional Fuel Site","formatted_address":"GUESSINGER STR. 184\nST. MICHAEL, Burgenland, 7535","site_category":"conventional_fuel_site"},{"id":"13118978","name":"GEDEROVCI","lat":46.679179,"lng":16.056043,"brand":"Shell","inactive":false,"type":0,"country_code":"SI","address":"GEDEROVCI 17A","city":"GEDEROVCI – TIŠINA","state":"Gornja Radgona","postcode":"9251","telephone":"+386 51 276 755","country":"Slovenia","amenities":["cafe","food_offerings","sandwich","self_service","shell_card","shop","wifi","manned"],"distance":59.05312569769,"driving_distance":null,"driving_duration":null,"website_url":"https://find.shell.com/si/fuel/13118978-gederovci/de_AT","mdm_site_category":"Conventional Fuel Site","formatted_address":"GEDEROVCI 17A\nGEDEROVCI – TIŠINA, Gornja Radgona, 9251","site_category":"conventional_fuel_site"},{"id":"13034047","name":"RABAFUZES","lat":46.98223,"lng":16.2807,"brand":"Shell","inactive":false,"type":2,"country_code":"HU","address":"8-AS UT HRSZ. 0232/8","city":"SZENTGOTHARD","state":"Vas","postcode":"9970","telephone":"+36 94 445 620","country":"Hungary","amenities":["adblue_pack","adblue_truck","air_and_water","alcoholic_beverages_beer","alcoholic_beverages_spirits","alcoholic_beverages_wine","austrian_highway_sticker","b2b_shell_card_ota","bakery_shop","bottled_gas","cafe","carwash","charging","clubsmart_card","credit_card","credit_card_american_express","credit_card_mastercard","credit_card_visa","fleet_card_dkv","food_offerings","full_service","hgv_lane","high_speed_diesel_pump","hungarian_highway_sticker","jet","loyalty_cards","loyalty_program","mobile_loyalty","mobile_payment","mobile_payment_visa","paid_toilet","parking_lanes","pet_friendly","sandwich","shell_card","shop","snack_food","truck_parking","type_of_parking","vacuum","wifi","cctv","manned"],"distance":59.663957591569996,"driving_distance":null,"driving_duration":null,"website_url":"https://find.shell.com/hu/fuel/13034047-rabafuzes/de_AT","mdm_site_category":"Conventional Fuel Site","formatted_address":"8-AS UT HRSZ. 0232/8\nSZENTGOTHARD, Vas, 9970","site_category":"conventional_fuel_site"},{"id":"13107257","name":"MARIBOR PTUJSKA VZHOD","lat":46.522453,"lng":15.679758,"brand":"Shell","inactive":false,"type":0,"country_code":"SI","address":"PTUJSKA CESTA 225M","city":"MARIBOR","state":"Maribor","postcode":"2000","telephone":"+386 51 276 751","country":"Slovenia","amenities":["cafe","food_offerings","free_toilet","sandwich","self_service","shell_card","shop","wifi","cctv","manned"],"distance":60.236039268990005,"driving_distance":null,"driving_duration":null,"website_url":"https://find.shell.com/si/fuel/13107257-maribor-ptujska-vzhod/de_AT","mdm_site_category":"Conventional Fuel Site","formatted_address":"PTUJSKA CESTA 225M\nMARIBOR, Maribor, 2000","site_category":"conventional_fuel_site"},{"id":"13119058","name":"MARIBOR BOHOVA","lat":46.518072,"lng":15.651544,"brand":"Shell","inactive":false,"type":0,"country_code":"SI","address":"TRŽAŠKA CESTA 83","city":"MARIBOR","state":"Maribor","postcode":"2000","telephone":"+386 51 276 749","country":"Slovenia","amenities":["cafe","food_offerings","sandwich","self_service","shell_card","shop","wifi","manned"],"distance":60.26272937653,"driving_distance":null,"driving_duration":null,"website_url":"https://find.shell.com/si/fuel/13119058-maribor-bohova/de_AT","mdm_site_category":"Conventional Fuel Site","formatted_address":"TRŽAŠKA CESTA 83\nMARIBOR, Maribor, 2000","site_category":"conventional_fuel_site"},{"id":"13089334","name":"MIKLAVŽ","lat":46.496455,"lng":15.71354,"brand":"Shell","inactive":false,"type":0,"country_code":"SI","address":"PTUJSKA CESTA 135","city":"MIKLAVŽ","state":"Maribor","postcode":"2204","telephone":"+386 51 276 752","country":"Slovenia","amenities":["carwash","credit_card","credit_card_mastercard","gls","jet","self_service","shell_card","shop","manned"],"distance":63.663494963830004,"driving_distance":null,"driving_duration":null,"website_url":"https://find.shell.com/si/fuel/13089334-miklavz/de_AT","mdm_site_category":"Conventional Fuel Site","formatted_address":"PTUJSKA CESTA 135\nMIKLAVŽ, Maribor, 2204","site_category":"conventional_fuel_site"},{"id":"10022949","name":"BAD TATZMANNSDORF JORMANNSDORFER S.","lat":47.345534,"lng":16.224015,"brand":"Shell","inactive":false,"type":0,"country_code":"AT","address":"JORMANNSDORFER STR 52","city":"BAD TATZMANNSDORF","state":"Burgenland","postcode":"7431","telephone":"+43 3353 8271","country":"Austria","amenities":["adblue_car","air_and_water","austrian_highway_sticker","carwash","credit_card","credit_card_mastercard","credit_card_visa","disabled_facilities","fleet_card_general","high_speed_diesel_pump","jet","rollover","rollover_and_jet","self_service","shop","standard_toilet","type_of_parking","manned"],"distance":63.813523985879996,"driving_distance":null,"driving_duration":null,"website_url":"https://www.shell.at/tanken/shell-tankstellensuche/standorte.html/10022949-bad-tatzmannsdorf-jormannsdorfer-s","mdm_site_category":"Conventional Fuel Site","formatted_address":"JORMANNSDORFER STR 52\nBAD TATZMANNSDORF, Burgenland, 7431","site_category":"conventional_fuel_site"},{"id":"10022948","name":"GROSSPETERSDORF GUESSINGERSTRASSE.","lat":47.230869,"lng":16.322664,"brand":"Shell","inactive":false,"type":0,"country_code":"AT","address":"GUESSINGERSTRASSE 1A","city":"GROSSPETERSDORF","state":"Burgenland","postcode":"7503","telephone":"+43 3362 2222","country":"Austria","amenities":["adblue_pack","air_and_water","austrian_highway_sticker","carwash","credit_card","credit_card_general","fleet_card_general","rollover","self_service","shell_card","shop","standard_toilet","type_of_parking","manned"],"distance":65.39162592843,"driving_distance":null,"driving_duration":null,"website_url":"https://www.shell.at/tanken/shell-tankstellensuche/standorte.html/10022948-grosspetersdorf-guessingerstrasse","mdm_site_category":"Conventional Fuel Site","formatted_address":"GUESSINGERSTRASSE 1A\nGROSSPETERSDORF, Burgenland, 7503","site_category":"conventional_fuel_site"},{"id":"13089423","name":"MURSKA SOBOTA LENDAVSKA","lat":46.667686,"lng":16.176816,"brand":"Shell","inactive":false,"type":0,"country_code":"SI","address":"LENDAVSKA ULICA 75","city":"MURSKA SOBOTA","state":"Murska Sobota","postcode":"9000","telephone":"+386 51 276 757","country":"Slovenia","amenities":["credit_card","credit_card_mastercard","self_service","shell_card","shop","cctv","manned"],"distance":66.74929400191,"driving_distance":null,"driving_duration":null,"website_url":"https://find.shell.com/si/fuel/13089423-murska-sobota-lendavska/de_AT","mdm_site_category":"Conventional Fuel Site","formatted_address":"LENDAVSKA ULICA 75\nMURSKA SOBOTA, Murska Sobota, 9000","site_category":"conventional_fuel_site"},{"id":"12661881","name":"FRAM","lat":46.449892,"lng":15.651698,"brand":"Shell","inactive":false,"type":0,"country_code":"SI","address":"TURNERJEVA 35","city":"FRAM","state":"Maribor","postcode":"2313","telephone":"+386 51 688 660","country":"Slovenia","amenities":["adblue_pack","air_and_water","atm","atm_in","bakery_shop","credit_card","credit_card_general","disability_assistance","disabled_facilities","food_offerings","restaurant","self_service","shell_card","shop","shower","standard_toilet","truck_parking","twenty_four_hour","type_of_parking","manned"],"distance":67.72254194917001,"driving_distance":null,"driving_duration":null,"website_url":"https://find.shell.com/si/fuel/12661881-fram/de_AT","mdm_site_category":"Conventional Fuel Site","formatted_address":"TURNERJEVA 35\nFRAM, Maribor, 2313","site_category":"conventional_fuel_site"},{"id":"13095433","name":"MURSKA SOBOTA BAKOVSKA","lat":46.645803,"lng":16.168159,"brand":"Shell","inactive":false,"type":0,"country_code":"SI","address":"BAKOVSKA 31 A","city":"MURSKA SOBOTA","state":"Murska Sobota","postcode":"9000","telephone":"+386 51 276 756","country":"Slovenia","amenities":["credit_card","credit_card_mastercard","food_offerings","self_service","shell_card","shop","snack_food","manned"],"distance":67.83810210556,"driving_distance":null,"driving_duration":null,"website_url":"https://find.shell.com/si/fuel/13095433-murska-sobota-bakovska/de_AT","mdm_site_category":"Conventional Fuel Site","formatted_address":"BAKOVSKA 31 A\nMURSKA SOBOTA, Murska Sobota, 9000","site_category":"conventional_fuel_site"},{"id":"13122283","name":"ZG. POLSKAVA","lat":46.430884,"lng":15.627126,"brand":"Shell","inactive":false,"type":0,"country_code":"SI","address":"BUKOVEC 1B","city":"ZGORNJA POLSKAVA","state":"Slovenska Bistrica","postcode":"2314","telephone":"+386 51 276 748","country":"Slovenia","amenities":["cafe","food_offerings","free_toilet","sandwich","self_service","shell_card","shop","snack_food","wifi","cctv","manned"],"distance":69.52086708835999,"driving_distance":null,"driving_duration":null,"website_url":"https://find.shell.com/si/fuel/13122283-zg-polskava/de_AT","mdm_site_category":"Conventional Fuel Site","formatted_address":"BUKOVEC 1B\nZGORNJA POLSKAVA, Slovenska Bistrica, 2314","site_category":"conventional_fuel_site"},{"id":"13048184","name":"EV BILLA EISENERZ, BADWEG","lat":47.542822,"lng":14.88799,"brand":"Shell","inactive":false,"type":0,"country_code":"AT","address":"Badweg","city":"Eisenerz","state":"Steiermark","postcode":"8790","telephone":"","country":"Austria","amenities":["apple_pay","credit_card","credit_card_mastercard","credit_card_visa","google_pay","mobile_payment","mobile_payment_maestro","mobile_payment_mastercard","mobile_payment_visa","shop","touchless_pay","manned"],"distance":71.64534978357999,"driving_distance":null,"driving_duration":null,"website_url":"https://www.shell.at/tanken/shell-tankstellensuche/standorte.html/13048184-ev-billa-eisenerz-badweg","mdm_site_category":"Destination Charging (EV)","formatted_address":"Badweg\nEisenerz, Steiermark, 8790","site_category":"destination_charging_ev"},{"id":"10022713","name":"ASPANG A2/SUEDAUTOBAHN-ZOEBERN","lat":47.542771,"lng":16.117475,"brand":"Shell","inactive":false,"type":2,"country_code":"AT","address":"A2/SUEDAUTOBAHN-ZOEBERN","city":"ASPANG","state":"Niederösterreich","postcode":"2870","telephone":"+43 2642 51190","country":"Austria","amenities":["adblue_pack","adblue_truck","air_and_water","apple_pay","b2b_shell_card_ota","credit_card","credit_card_american_express","credit_card_mastercard","credit_card_visa","deli2go","fleet_card_dkv","fleet_card_uta","go_plus","google_pay","hgv_lane","high_speed_diesel_pump","loyalty_cards","loyalty_program","mobile_payment","mobile_payment_amex","mobile_payment_maestro","mobile_payment_mastercard","mobile_payment_visa","parking_lanes","paypal","self_service","shell_card","shop","standard_toilet","truck_parking","twenty_four_hour","twenty_four_hour_ev_service","type_of_parking","wifi","manned"],"distance":71.9072177482,"driving_distance":null,"driving_duration":null,"website_url":"https://www.shell.at/tanken/shell-tankstellensuche/standorte.html/10022713-aspang-a2-suedautobahn-zoebern","mdm_site_category":"Conventional Fuel Site with EV","formatted_address":"A2/SUEDAUTOBAHN-ZOEBERN\nASPANG, Niederösterreich, 2870","site_category":"conventional_fuel_site_with_ev"},{"id":"13095395","name":"LJUTOMER","lat":46.526134,"lng":16.193609,"brand":"Shell","inactive":false,"type":0,"country_code":"SI","address":"KOLODVORSKA ULICA 2A","city":"LJUTOMER","state":"Ljutomer","postcode":"9240","telephone":"+386 51 276 758","country":"Slovenia","amenities":["carwash","credit_card","credit_card_mastercard","food_offerings","jet","self_service","shell_card","shop","snack_food","manned"],"distance":78.62442667534,"driving_distance":null,"driving_duration":null,"website_url":"https://find.shell.com/si/fuel/13095395-ljutomer/de_AT","mdm_site_category":"Conventional Fuel Site","formatted_address":"KOLODVORSKA ULICA 2A\nLJUTOMER, Ljutomer, 9240","site_category":"conventional_fuel_site"},{"id":"10022977","name":"VOELKERMARKT UMFAHRUNGSSTRASSE.","lat":46.662413,"lng":14.626691,"brand":"Shell","inactive":false,"type":2,"country_code":"AT","address":"UMFAHRUNGSSTRASSE 14","city":"VOELKERMARKT","state":"Kärnten","postcode":"9100","telephone":"+43 4232 2512","country":"Austria","amenities":["adblue_pack","air_and_water","apple_pay","b2b_shell_card_ota","bakery_shop","billa_unterwegs","carwash","credit_card","credit_card_american_express","credit_card_mastercard","credit_card_visa","full_service","go_plus","google_pay","hgv_lane","loyalty_cards","loyalty_program","mobile_payment","mobile_payment_amex","mobile_payment_maestro","mobile_payment_mastercard","mobile_payment_visa","paypal","rollover","rollover_and_jet","shell_card","standard_toilet","twenty_four_hour_ev_service","wifi","manned"],"distance":79.1641405269,"driving_distance":null,"driving_duration":null,"website_url":"https://www.shell.at/tanken/shell-tankstellensuche/standorte.html/10022977-voelkermarkt-umfahrungsstrasse","mdm_site_category":"Conventional Fuel Site with EV","formatted_address":"UMFAHRUNGSSTRASSE 14\nVOELKERMARKT, Kärnten, 9100","site_category":"conventional_fuel_site_with_ev"},{"id":"10022978","name":"VOELKERMARKT A2/SUEDAUTOBAHN","lat":46.679387,"lng":14.596049,"brand":"Shell","inactive":false,"type":2,"country_code":"AT","address":"A2/SUEDAUTOBAHN","city":"VOELKERMARKT","state":"Kärnten","postcode":"9100","telephone":"+43 4231 21210","country":"Austria","amenities":["standard_toilet","mobile_payment","bakery_shop","loyalty_cards","credit_card","fuel_card","credit_card_general","self_service","fleet_card_dkv","fleet_card_uta","deli2go","twenty_four_hour","shop","adblue_truck","adblue_pack","loyalty_program","go_plus","paypal","b2b_shell_card_ota","hgv_lane","air_and_water","wifi","apple_pay","google_pay","mobile_payment_amex","mobile_payment_visa","mobile_payment_mastercard","mobile_payment_maestro","manned"],"distance":80.13246454066001,"driving_distance":null,"driving_duration":null,"website_url":"https://www.shell.at/tanken/shell-tankstellensuche/standorte.html/10022978-voelkermarkt-a2-suedautobahn","mdm_site_category":"Conventional Fuel Site with EV","formatted_address":"A2/SUEDAUTOBAHN\nVOELKERMARKT, Kärnten, 9100","site_category":"conventional_fuel_site_with_ev"},{"id":"10203567","name":"KÖRMEND","lat":47.009923,"lng":16.583371,"brand":"Shell","inactive":false,"type":2,"country_code":"HU","address":"RÁKÓCZI U. 124","city":"KÖRMEND","state":"Vas","postcode":"9900","telephone":"+36 94 594 042","country":"Hungary","amenities":["adblue_pack","adblue_truck","air_and_water","austrian_highway_sticker","b2b_shell_card_ota","bakery_shop","credit_card","credit_card_general","fleet_card_general","food_offerings","full_service","go_plus","hgv_lane","high_speed_diesel_pump","hungarian_highway_sticker","loyalty_cards","loyalty_program","mobile_payment","other_loyalty_cards","others","shop","standard_toilet","twenty_four_hour","type_of_parking","wifi","manned"],"distance":82.23138600868,"driving_distance":null,"driving_duration":null,"website_url":"https://find.shell.com/hu/fuel/10203567-kormend/de_AT","mdm_site_category":"Conventional Fuel Site","formatted_address":"RÁKÓCZI U. 124\nKÖRMEND, Vas, 9900","site_category":"conventional_fuel_site"},{"id":"10022970","name":"TREIBACH POECKSTEIN.","lat":46.888189,"lng":14.439279,"brand":"Shell","inactive":false,"type":2,"country_code":"AT","address":"PÖCKSTEIN 4","city":"STRASSBURG","state":"Kärnten","postcode":"9341","telephone":"+43 4262 4728","country":"Austria","amenities":["adblue_pack","air_and_water","apple_pay","b2b_shell_card_ota","bakery_shop","carwash","credit_card","credit_card_american_express","credit_card_mastercard","credit_card_visa","fleet_card_dkv","fleet_card_uta","full_service","go_plus","google_pay","hgv_lane","loyalty_cards","loyalty_program","mobile_payment","mobile_payment_amex","mobile_payment_maestro","mobile_payment_mastercard","mobile_payment_visa","paypal","rollover","shell_card","shop","standard_toilet","twenty_four_hour_ev_service","wifi","manned"],"distance":82.47202723223,"driving_distance":null,"driving_duration":null,"website_url":"https://www.shell.at/tanken/shell-tankstellensuche/standorte.html/10022970-treibach-poeckstein","mdm_site_category":"Conventional Fuel Site with EV","formatted_address":"PÖCKSTEIN 4\nSTRASSBURG, Kärnten, 9341","site_category":"conventional_fuel_site_with_ev"},{"id":"13101280","name":"EV TESCO KÖRMEND","lat":47.017127,"lng":16.614945,"brand":"Shell","inactive":false,"type":0,"country_code":"HU","address":"Sport u. 5.","city":"Körmend","state":"Vas","postcode":"9900","telephone":"","country":"Hungary","amenities":["credit_card","credit_card_general","fleet_card_general","shop","twenty_four_hour_ev_service","manned"],"distance":84.57687862261001,"driving_distance":null,"driving_duration":null,"website_url":"https://find.shell.com/hu/fuel/13101280-ev-tesco-kormend/de_AT","mdm_site_category":"Destination Charging (EV)","formatted_address":"Sport u. 5.\nKörmend, Vas, 9900","site_category":"destination_charging_ev"},{"id":"10203477","name":"SZOMBATHELY II.","lat":47.242083,"lng":16.590791,"brand":"Shell","inactive":false,"type":0,"country_code":"HU","address":"DOLGOZÓK ÚTJA  3785(83 HRSZ.)","city":"SZOMBATHELY","state":"Vas","postcode":"9700","telephone":"+36 94 506 990","country":"Hungary","amenities":["adblue_pack","air_and_water","austrian_highway_sticker","b2b_shell_card_ota","bakery_shop","carwash","credit_card","credit_card_general","fleet_card_general","full_service","go_plus","hungarian_highway_sticker","loyalty_cards","loyalty_program","mobile_payment","other_loyalty_cards","rollover","shop","standard_toilet","type_of_parking","wifi","manned"],"distance":85.21297119374,"driving_distance":null,"driving_duration":null,"website_url":"https://find.shell.com/hu/fuel/10203477-szombathely-ii/de_AT","mdm_site_category":"Conventional Fuel Site","formatted_address":"DOLGOZÓK ÚTJA  3785(83 HRSZ.)\nSZOMBATHELY, Vas, 9700","site_category":"conventional_fuel_site"},{"id":"10203508","name":"SZOMBATHELY III.","lat":47.22947,"lng":16.61748,"brand":"Shell","inactive":false,"type":0,"country_code":"HU","address":"KISKAR U. 8","city":"SZOMBATHELY","state":"Vas","postcode":"9700","telephone":"+36 94 509 182","country":"Hungary","amenities":["adblue_pack","air_and_water","austrian_highway_sticker","b2b_shell_card_ota","bakery_shop","carwash","credit_card","credit_card_general","fast_food","fleet_card_general","food_offerings","full_service","go_plus","hungarian_highway_sticker","loyalty_cards","loyalty_program","mobile_payment","other_loyalty_cards","others","pet_friendly","rollover","shop","standard_toilet","twenty_four_hour","type_of_parking","wifi","manned"],"distance":86.84514548186,"driving_distance":null,"driving_duration":null,"website_url":"https://find.shell.com/hu/fuel/10203508-szombathely-iii/de_AT","mdm_site_category":"Conventional Fuel Site","formatted_address":"KISKAR U. 8\nSZOMBATHELY, Vas, 9700","site_category":"conventional_fuel_site"},{"id":"10203476","name":"SZOMBATHELY","lat":47.258231,"lng":16.612629,"brand":"Shell","inactive":false,"type":2,"country_code":"HU","address":"FARKAS K UTCA 1663/3 HRSZ.","city":"SZOMBATHELY","state":"Vas","postcode":"9700","telephone":"+36 94 506 261","country":"Hungary","amenities":["adblue_pack","adblue_truck","air_and_water","austrian_highway_sticker","b2b_shell_card_ota","bakery_shop","credit_card","credit_card_general","fast_food","fleet_card_general","food_offerings","full_service","go_plus","hgv_lane","high_speed_diesel_pump","hungarian_highway_sticker","loyalty_cards","loyalty_program","mobile_payment","netpincer","other_loyalty_cards","others","paid_toilet","pet_friendly","shop","standard_toilet","twenty_four_hour_ev_service","type_of_parking","wifi","manned"],"distance":87.2595140783,"driving_distance":null,"driving_duration":null,"website_url":"https://find.shell.com/hu/fuel/10203476-szombathely/de_AT","mdm_site_category":"Conventional Fuel Site with EV","formatted_address":"FARKAS K UTCA 1663/3 HRSZ.\nSZOMBATHELY, Vas, 9700","site_category":"conventional_fuel_site_with_ev"},{"id":"13078358","name":"EV BILLA STEINBERGDÖRFL, S31/B50","lat":47.490921,"lng":16.492083,"brand":"Shell","inactive":true,"type":0,"country_code":"AT","address":"S31/B50","city":"STEINBERGDÖRFL","state":"Burgenland","postcode":"7453","telephone":"","country":"Austria","amenities":["apple_pay","credit_card","credit_card_mastercard","credit_card_visa","google_pay","mobile_payment","mobile_payment_maestro","mobile_payment_mastercard","mobile_payment_visa","shop","touchless_pay","manned"],"distance":89.47910527231,"driving_distance":null,"driving_duration":null,"website_url":"https://www.shell.at/tanken/shell-tankstellensuche/standorte.html/13078358-ev-billa-steinbergdorfl-s31-b50","mdm_site_category":"Destination Charging (EV)","formatted_address":"S31/B50\nSTEINBERGDÖRFL, Burgenland, 7453","site_category":"destination_charging_ev"},{"id":"11367859","name":"SZOMBATHELY IV.","lat":47.24139,"lng":16.652838,"brand":"Shell","inactive":false,"type":0,"country_code":"HU","address":"ZANATI ÚT 70","city":"SZOMBATHELY","state":"Vas","postcode":"9700","telephone":"+36 94 714 225","country":"Hungary","amenities":["adblue_pack","air_and_water","austrian_highway_sticker","b2b_shell_card_ota","full_service","go_plus","hungarian_highway_sticker","loyalty_cards","loyalty_program","mobile_payment","other_loyalty_cards","pet_friendly","shop","standard_toilet","wifi","manned"],"distance":89.74545403949999,"driving_distance":null,"driving_duration":null,"website_url":"https://find.shell.com/hu/fuel/11367859-szombathely-iv/de_AT","mdm_site_category":"Conventional Fuel Site","formatted_address":"ZANATI ÚT 70\nSZOMBATHELY, Vas, 9700","site_category":"conventional_fuel_site"},{"id":"13040798","name":"EV TESCO SZOMBATHELY","lat":47.239704,"lng":16.653583,"brand":"Shell","inactive":false,"type":0,"country_code":"HU","address":"Zanati ut 70.","city":"Szombathely","state":"Vas","postcode":"9700","telephone":"","country":"Hungary","amenities":["credit_card","credit_card_general","touchless_pay","twenty_four_hour_ev_service","manned"],"distance":89.75729237571001,"driving_distance":null,"driving_duration":null,"website_url":"https://find.shell.com/hu/fuel/13040798-ev-tesco-szombathely/de_AT","mdm_site_category":"Destination Charging (EV)","formatted_address":"Zanati ut 70.\nSzombathely, Vas, 9700","site_category":"destination_charging_ev"},{"id":"10022921","name":"OBERWOELZ HAUPTPLATZ.","lat":47.203328,"lng":14.281349,"brand":"Shell","inactive":false,"type":0,"country_code":"AT","address":"HAUPTPLATZ 30","city":"OBERWOELZ","state":"Steiermark","postcode":"8832","telephone":"+43 3581 8413","country":"Austria","amenities":["adblue_pack","air_and_water","credit_card","credit_card_general","fleet_card_general","self_service","shop","standard_toilet","manned"],"distance":93.75902891722,"driving_distance":null,"driving_duration":null,"website_url":"https://www.shell.at/tanken/shell-tankstellensuche/standorte.html/10022921-oberwoelz-hauptplatz","mdm_site_category":"Conventional Fuel Site","formatted_address":"HAUPTPLATZ 30\nOBERWOELZ, Steiermark, 8832","site_category":"conventional_fuel_site"},{"id":"10202755","name":"ZALAEGERSZEG I.","lat":46.854672,"lng":16.806196,"brand":"Shell","inactive":false,"type":2,"country_code":"HU","address":"HOCK J. U.","city":"ZALAEGERSZEG","state":"Zala","postcode":"8900","telephone":"+36 92 596 160","country":"Hungary","amenities":["adblue_pack","air_and_water","austrian_highway_sticker","b2b_shell_card_ota","credit_card","credit_card_general","fleet_card_general","full_service","go_plus","hgv_lane","high_speed_diesel_pump","hungarian_highway_sticker","loyalty_cards","loyalty_program","mobile_payment","other_loyalty_cards","shop","standard_toilet","type_of_parking","wifi","manned"],"distance":101.49338086164,"driving_distance":null,"driving_duration":null,"website_url":"https://find.shell.com/hu/fuel/10202755-zalaegerszeg-i/de_AT","mdm_site_category":"Conventional Fuel Site","formatted_address":"HOCK J. U.\nZALAEGERSZEG, Zala, 8900","site_category":"conventional_fuel_site"},{"id":"10022927","name":"ROTTENMANN BUNDESSTRASSE.","lat":47.52533,"lng":14.340165,"brand":"Shell","inactive":false,"type":2,"country_code":"AT","address":"BUNDESSTRASSE 1","city":"ROTTENMANN","state":"Steiermark","postcode":"8786","telephone":"+43 3614 3777","country":"Austria","amenities":["adblue_pack","adblue_truck","air_and_water","apple_pay","austrian_highway_sticker","b2b_shell_card_ota","bakery_shop","carwash","conveyor","credit_card","credit_card_american_express","credit_card_mastercard","credit_card_visa","fleet_card_dkv","fleet_card_uta","go_plus","google_pay","hgv_lane","loyalty_cards","loyalty_program","mobile_payment","mobile_payment_amex","mobile_payment_maestro","mobile_payment_mastercard","mobile_payment_visa","paypal","rollover_and_jet","self_service","shell_card","shop","shower","standard_toilet","twenty_four_hour","twenty_four_hour_ev_service","type_of_parking","vacuum","wifi","manned"],"distance":102.20672585339,"driving_distance":null,"driving_duration":null,"website_url":"https://www.shell.at/tanken/shell-tankstellensuche/standorte.html/10022927-rottenmann-bundesstrasse","mdm_site_category":"Conventional Fuel Site with EV","formatted_address":"BUNDESSTRASSE 1\nROTTENMANN, Steiermark, 8786","site_category":"conventional_fuel_site_with_ev"},{"id":"10022964","name":"KLAGENFURT VIKTRINGERRING.","lat":46.620504,"lng":14.304217,"brand":"Shell","inactive":false,"type":2,"country_code":"AT","address":"VIKTRINGERRING 57","city":"KLAGENFURT","state":"Kärnten","postcode":"9020","telephone":"+43 463 56669","country":"Austria","amenities":["adblue_pack","air_and_water","apple_pay","b2b_shell_card_ota","bakery_shop","carwash","credit_card","credit_card_general","deli2go","fleet_card_general","go_plus","google_pay","hgv_lane","loyalty_cards","loyalty_program","mobile_payment","mobile_payment_amex","mobile_payment_maestro","mobile_payment_mastercard","mobile_payment_visa","paypal","rollover","self_service","shop","standard_toilet","wifi","manned"],"distance":102.73478136019999,"driving_distance":null,"driving_duration":null,"website_url":"https://www.shell.at/tanken/shell-tankstellensuche/standorte.html/10022964-klagenfurt-viktringerring","mdm_site_category":"Conventional Fuel Site","formatted_address":"VIKTRINGERRING 57\nKLAGENFURT, Kärnten, 9020","site_category":"conventional_fuel_site"},{"id":"10022961","name":"KLAGENFURT KOSCHATSTRASSE 116 NORD.","lat":46.623314,"lng":14.283785,"brand":"Shell","inactive":false,"type":2,"country_code":"AT","address":"KOSCHATSTRASSE 116 NORD","city":"KLAGENFURT","state":"Kärnten","postcode":"9020","telephone":"+43 463 515988","country":"Austria","amenities":["adblue_pack","air_and_water","apple_pay","b2b_shell_card_ota","bakery_shop","billa_unterwegs","carwash","credit_card","credit_card_american_express","credit_card_mastercard","credit_card_visa","fleet_card_dkv","go_plus","google_pay","hgv_lane","loyalty_cards","loyalty_program","mobile_payment","mobile_payment_amex","mobile_payment_maestro","mobile_payment_mastercard","mobile_payment_visa","paypal","rollover","rollover_and_jet","self_service","shell_card","standard_toilet","wifi","manned"],"distance":103.96822067209,"driving_distance":null,"driving_duration":null,"website_url":"https://www.shell.at/tanken/shell-tankstellensuche/standorte.html/10022961-klagenfurt-koschatstrasse-116-nord","mdm_site_category":"Conventional Fuel Site","formatted_address":"KOSCHATSTRASSE 116 NORD\nKLAGENFURT, Kärnten, 9020","site_category":"conventional_fuel_site"},{"id":"13016121","name":"EV TESCO ZALAEGERSZEG","lat":46.843196,"lng":16.859942,"brand":"Shell","inactive":false,"type":0,"country_code":"HU","address":"SPORT U. 1.","city":"ZALAEGERSZEG","state":"Zala","postcode":"8900","telephone":"","country":"Hungary","amenities":["credit_card","credit_card_general","touchless_pay","twenty_four_hour_ev_service","manned"],"distance":105.76269256967001,"driving_distance":null,"driving_duration":null,"website_url":"https://find.shell.com/hu/fuel/13016121-ev-tesco-zalaegerszeg/de_AT","mdm_site_category":"Destination Charging (EV)","formatted_address":"SPORT U. 1.\nZALAEGERSZEG, Zala, 8900","site_category":"destination_charging_ev"},{"id":"10202761","name":"ZALAEGERSZEG II.","lat":46.844628,"lng":16.864809,"brand":"Shell","inactive":false,"type":2,"country_code":"HU","address":"BALATONI U. 8/A","city":"ZALAEGERSZEG","state":"Zala","postcode":"8900","telephone":"+36 92 596 618","country":"Hungary","amenities":["adblue_pack","adblue_truck","air_and_water","austrian_highway_sticker","b2b_shell_card_ota","bakery_shop","credit_card","credit_card_general","fast_food","fleet_card_general","food_offerings","full_service","go_plus","hgv_lane","high_speed_diesel_pump","hungarian_highway_sticker","loyalty_cards","loyalty_program","mobile_payment","other_loyalty_cards","shop","standard_toilet","twenty_four_hour","twenty_four_hour_ev_service","type_of_parking","wifi","manned"],"distance":106.08758738488,"driving_distance":null,"driving_duration":null,"website_url":"https://find.shell.com/hu/fuel/10202761-zalaegerszeg-ii/de_AT","mdm_site_category":"Conventional Fuel Site with EV","formatted_address":"BALATONI U. 8/A\nZALAEGERSZEG, Zala, 8900","site_category":"conventional_fuel_site_with_ev"},{"id":"10203196","name":"SOPRON","lat":47.69303,"lng":16.582047,"brand":"Shell","inactive":false,"type":0,"country_code":"HU","address":"LACKNER KRISTÓF UTCA 60.","city":"SOPRON","state":"Gyor-Moson-Sopron","postcode":"9400","telephone":"+36 99 505 946","country":"Hungary","amenities":["adblue_pack","air_and_water","austrian_highway_sticker","b2b_shell_card_ota","bakery_shop","credit_card","credit_card_general","fast_food","fleet_card_general","food_offerings","full_service","go_plus","hungarian_highway_sticker","loyalty_cards","loyalty_program","mobile_payment","other_loyalty_cards","others","shop","standard_toilet","type_of_parking","wifi","manned"],"distance":108.40580393388,"driving_distance":null,"driving_duration":null,"website_url":"https://find.shell.com/hu/fuel/10203196-sopron/de_AT","mdm_site_category":"Conventional Fuel Site","formatted_address":"LACKNER KRISTÓF UTCA 60.\nSOPRON, Gyor-Moson-Sopron, 9400","site_category":"conventional_fuel_site"},{"id":"11367868","name":"SOPRON II 550","lat":47.671131,"lng":16.612501,"brand":"Shell","inactive":false,"type":0,"country_code":"HU","address":"IPAR KRT. 32","city":"SOPRON","state":"Gyor-Moson-Sopron","postcode":"9400","telephone":"+36 99 702 103","country":"Hungary","amenities":["adblue_pack","air_and_water","austrian_highway_sticker","b2b_shell_card_ota","full_service","go_plus","hungarian_highway_sticker","loyalty_cards","loyalty_program","mobile_payment","other_loyalty_cards","pet_friendly","shop","wifi","manned"],"distance":108.58839528991999,"driving_distance":null,"driving_duration":null,"website_url":"https://find.shell.com/hu/fuel/11367868-sopron-ii-550/de_AT","mdm_site_category":"Conventional Fuel Site","formatted_address":"IPAR KRT. 32\nSOPRON, Gyor-Moson-Sopron, 9400","site_category":"conventional_fuel_site"},{"id":"10022916","name":"LIEZEN SALZBURGERSTRASSE.","lat":47.563747,"lng":14.242293,"brand":"Shell","inactive":false,"type":2,"country_code":"AT","address":"SALZBURGERSTRASSE 6","city":"LIEZEN","state":"Steiermark","postcode":"8940","telephone":"+43 3612 22701","country":"Austria","amenities":["adblue_pack","air_and_water","apple_pay","austrian_highway_sticker","b2b_shell_card_ota","bakery_shop","billa_unterwegs","carwash","credit_card","credit_card_american_express","credit_card_mastercard","credit_card_visa","disabled_facilities","fleet_card_dkv","fleet_card_uta","go_plus","google_pay","hgv_lane","high_speed_diesel_pump","loyalty_cards","loyalty_program","mobile_payment","mobile_payment_amex","mobile_payment_maestro","mobile_payment_mastercard","mobile_payment_visa","paypal","rollover","self_service","shell_card","standard_toilet","type_of_parking","vacuum","wifi","manned"],"distance":110.70429598081999,"driving_distance":null,"driving_duration":null,"website_url":"https://www.shell.at/tanken/shell-tankstellensuche/standorte.html/10022916-liezen-salzburgerstrasse","mdm_site_category":"Conventional Fuel Site","formatted_address":"SALZBURGERSTRASSE 6\nLIEZEN, Steiermark, 8940","site_category":"conventional_fuel_site"},{"id":"10203344","name":"SÁRVÁR.","lat":47.25803,"lng":16.93817,"brand":"Shell","inactive":false,"type":2,"country_code":"HU","address":"DEÁK FERENC UT.16. 520/16 HRSZ 83","city":"SÁRVÁR","state":"Vas","postcode":"9600","telephone":"+36 95 325 200","country":"Hungary","amenities":["adblue_pack","air_and_water","austrian_highway_sticker","b2b_shell_card_ota","bakery_shop","carwash","credit_card","credit_card_general","fast_food","fleet_card_general","food_offerings","full_service","go_plus","hgv_lane","high_speed_diesel_pump","hungarian_highway_sticker","loyalty_cards","loyalty_program","mobile_payment","other_loyalty_cards","other_third_party_rental","others","rollover","shop","standard_toilet","twenty_four_hour","type_of_parking","wifi","manned"],"distance":111.17985768653999,"driving_distance":null,"driving_duration":null,"website_url":"https://find.shell.com/hu/fuel/10203344-sarvar/de_AT","mdm_site_category":"Conventional Fuel Site","formatted_address":"DEÁK FERENC UT.16. 520/16 HRSZ 83\nSÁRVÁR, Vas, 9600","site_category":"conventional_fuel_site"},{"id":"10022958","name":"FELDKIRCHEN DR.ARTHUR LEMISCHSTRAS.","lat":46.726883,"lng":14.090068,"brand":"Shell","inactive":false,"type":0,"country_code":"AT","address":"DR.ARTHUR LEMISCHSTRASSE 16","city":"FELDKIRCHEN","state":"Kärnten","postcode":"9560","telephone":"+43 4276 2331","country":"Austria","amenities":["adblue_pack","air_and_water","apple_pay","b2b_shell_card_ota","bakery_shop","billa_unterwegs","carwash","credit_card","credit_card_american_express","credit_card_mastercard","credit_card_visa","full_service","go_plus","google_pay","high_speed_diesel_pump","loyalty_cards","loyalty_program","mobile_payment","mobile_payment_amex","mobile_payment_maestro","mobile_payment_mastercard","mobile_payment_visa","paypal","rollover","shell_card","standard_toilet","vacuum","wifi","manned"],"distance":113.00669021083999,"driving_distance":null,"driving_duration":null,"website_url":"https://www.shell.at/tanken/shell-tankstellensuche/standorte.html/10022958-feldkirchen-dr-arthur-lemischstras","mdm_site_category":"Conventional Fuel Site","formatted_address":"DR.ARTHUR LEMISCHSTRASSE 16\nFELDKIRCHEN, Kärnten, 9560","site_category":"conventional_fuel_site"},{"id":"10022936","name":"TRAUTENFELS NUMMER.","lat":47.522739,"lng":14.083277,"brand":"Shell","inactive":false,"type":2,"country_code":"AT","address":"NUMMER 46","city":"TRAUTENFELS","state":"Steiermark","postcode":"8951","telephone":"+43 3682 22234","country":"Austria","amenities":["adblue_pack","air_and_water","apple_pay","austrian_highway_sticker","b2b_shell_card_ota","bakery_shop","credit_card","credit_card_general","fleet_card_dkv","fleet_card_uta","go_plus","google_pay","hgv_lane","high_speed_diesel_pump","loyalty_cards","loyalty_program","mobile_payment","mobile_payment_amex","mobile_payment_maestro","mobile_payment_mastercard","mobile_payment_visa","paypal","self_service","shop","standard_toilet","twenty_four_hour","twenty_four_hour_ev_service","type_of_parking","wifi","manned"],"distance":119.08662199298,"driving_distance":null,"driving_duration":null,"website_url":"https://www.shell.at/tanken/shell-tankstellensuche/standorte.html/10022936-trautenfels-nummer","mdm_site_category":"Conventional Fuel Site with EV","formatted_address":"NUMMER 46\nTRAUTENFELS, Steiermark, 8951","site_category":"conventional_fuel_site_with_ev"},{"id":"10022827","name":"TAMSWEG ZINSGASSE.","lat":47.131671,"lng":13.807775,"brand":"Shell","inactive":false,"type":0,"country_code":"AT","address":"ZINSGASSE 20","city":"TAMSWEG","state":"Salzburg","postcode":"5580","telephone":"+43 6474 2286","country":"Austria","amenities":["adblue_pack","air_and_water","apple_pay","b2b_shell_card_ota","bakery_shop","billa_unterwegs","carwash","credit_card","credit_card_general","fleet_card_dkv","fleet_card_uta","go_plus","google_pay","loyalty_cards","loyalty_program","mobile_payment","mobile_payment_amex","mobile_payment_maestro","mobile_payment_mastercard","mobile_payment_visa","paypal","rollover","self_service","standard_toilet","wifi","manned"],"distance":128.43024673787,"driving_distance":null,"driving_duration":null,"website_url":"https://www.shell.at/tanken/shell-tankstellensuche/standorte.html/10022827-tamsweg-zinsgasse","mdm_site_category":"Conventional Fuel Site","formatted_address":"ZINSGASSE 20\nTAMSWEG, Salzburg, 5580","site_category":"conventional_fuel_site"},{"id":"10022966","name":"DROBOLLACH EGGER SEEUFERSTRASSE.","lat":46.578083,"lng":13.936256,"brand":"Shell","inactive":false,"type":0,"country_code":"AT","address":"EGGER SEEUFERSTRASSE 85","city":"DROBOLLACH","state":"Kärnten","postcode":"9580","telephone":"+43 4254 20110","country":"Austria","amenities":["adblue_pack","air_and_water","credit_card","credit_card_general","full_service","shell_card","shop","standard_toilet","manned"],"distance":130.05158175668998,"driving_distance":null,"driving_duration":null,"website_url":"https://www.shell.at/tanken/shell-tankstellensuche/standorte.html/10022966-drobollach-egger-seeuferstrasse","mdm_site_category":"Conventional Fuel Site","formatted_address":"EGGER SEEUFERSTRASSE 85\nDROBOLLACH, Kärnten, 9580","site_category":"conventional_fuel_site"},{"id":"12661876","name":"SHELL JESENICE","lat":46.444186,"lng":14.026966,"brand":"Shell","inactive":false,"type":2,"country_code":"SI","address":"SPODNJI PLAVŽ 6B","city":"JESENICE","state":"Jesenice","postcode":"4270","telephone":"+386 1 514 05 00","country":"Slovenia","amenities":["adblue_truck","hgv_lane","high_speed_diesel_pump","pay_at_pump","shell_card","twenty_four_hour","unmanned"],"distance":130.89560550807,"driving_distance":null,"driving_duration":null,"website_url":"https://find.shell.com/si/fuel/12661876-shell-jesenice/de_AT","mdm_site_category":"Conventional Fuel Site","formatted_address":"SPODNJI PLAVŽ 6B\nJESENICE, Jesenice, 4270","site_category":"conventional_fuel_site"},{"id":"10202630","name":"NAGYKANIZSA I.","lat":46.462175,"lng":17.009867,"brand":"Shell","inactive":false,"type":2,"country_code":"HU","address":"BALATONI ÚT 1839/13","city":"NAGYKANIZSA","state":"Zala","postcode":"8800","telephone":"+36 93 310 599","country":"Hungary","amenities":["adblue_pack","air_and_water","austrian_highway_sticker","b2b_shell_card_ota","credit_card","credit_card_general","fleet_card_general","full_service","go_plus","hgv_lane","high_speed_diesel_pump","hungarian_highway_sticker","loyalty_cards","loyalty_program","mobile_payment","other_loyalty_cards","shop","standard_toilet","twenty_four_hour","twenty_four_hour_ev_service","type_of_parking","wifi","manned"],"distance":132.29342955062,"driving_distance":null,"driving_duration":null,"website_url":"https://find.shell.com/hu/fuel/10202630-nagykanizsa-i/de_AT","mdm_site_category":"Conventional Fuel Site with EV","formatted_address":"BALATONI ÚT 1839/13\nNAGYKANIZSA, Zala, 8800","site_category":"conventional_fuel_site_with_ev"},{"id":"11367854","name":"NAGYKAN. III 555","lat":46.463074,"lng":17.012396,"brand":"Shell","inactive":false,"type":0,"country_code":"HU","address":"BOSZORKÁNY UTCA 2","city":"NAGYKANIZSA","state":"Zala","postcode":"8800","telephone":"+36 93 516 320","country":"Hungary","amenities":["adblue_pack","air_and_water","b2b_shell_card_ota","clubsmart_card","full_service","go_plus","loyalty_cards","loyalty_program","mobile_payment","other_loyalty_cards","shop","standard_toilet","wifi","manned"],"distance":132.41082541219,"driving_distance":null,"driving_duration":null,"website_url":"https://find.shell.com/hu/fuel/11367854-nagykan-iii-555/de_AT","mdm_site_category":"Conventional Fuel Site","formatted_address":"BOSZORKÁNY UTCA 2\nNAGYKANIZSA, Zala, 8800","site_category":"conventional_fuel_site"},{"id":"13016117","name":"EV TESCO NAGYKANIZSA","lat":46.464193,"lng":17.013717,"brand":"Shell","inactive":false,"type":0,"country_code":"HU","address":"BOSZORKANY U. 2.","city":"NAGYKANIZSA","state":"Zala","postcode":"8800","telephone":"","country":"Hungary","amenities":["credit_card","credit_card_general","fleet_card_general","shop","twenty_four_hour_ev_service","manned"],"distance":132.43611085808,"driving_distance":null,"driving_duration":null,"website_url":"https://find.shell.com/hu/fuel/13016117-ev-tesco-nagykanizsa/de_AT","mdm_site_category":"Destination Charging (EV)","formatted_address":"BOSZORKANY U. 2.\nNAGYKANIZSA, Zala, 8800","site_category":"destination_charging_ev"},{"id":"10202292","name":"SÜMEG","lat":46.98566,"lng":17.283937,"brand":"Shell","inactive":false,"type":0,"country_code":"HU","address":"84-ES FŐÚT","city":"SÜMEG","state":"Veszprem","postcode":"8330","telephone":"+36 87 550 035","country":"Hungary","amenities":["adblue_pack","air_and_water","austrian_highway_sticker","b2b_shell_card_ota","bakery_shop","food_offerings","full_service","go_plus","high_speed_diesel_pump","hungarian_highway_sticker","loyalty_cards","loyalty_program","mobile_payment","other_loyalty_cards","others","pet_friendly","shop","standard_toilet","wifi","manned"],"distance":135.42561437443,"driving_distance":null,"driving_duration":null,"website_url":"https://find.shell.com/hu/fuel/10202292-sumeg/de_AT","mdm_site_category":"Conventional Fuel Site","formatted_address":"84-ES FŐÚT\nSÜMEG, Veszprem, 8330","site_category":"conventional_fuel_site"},{"id":"13040789","name":"EV TESCO KESZTHELY","lat":46.778415,"lng":17.261237,"brand":"Shell","inactive":false,"type":0,"country_code":"HU","address":"Csapas u. 27.","city":"Keszthely","state":"Zala","postcode":"8360","telephone":"","country":"Hungary","amenities":["credit_card","credit_card_general","shop","touchless_pay","twenty_four_hour_ev_service","manned"],"distance":137.14039794090002,"driving_distance":null,"driving_duration":null,"website_url":"https://find.shell.com/hu/fuel/13040789-ev-tesco-keszthely/de_AT","mdm_site_category":"Destination Charging (EV)","formatted_address":"Csapas u. 27.\nKeszthely, Zala, 8360","site_category":"destination_charging_ev"},{"id":"11368447","name":"KESZTHELY II 578","lat":46.77824,"lng":17.262596,"brand":"Shell","inactive":false,"type":0,"country_code":"HU","address":"CSAPÁS UTCA 27","city":"KESZTHELY","state":"Zala","postcode":"8360","telephone":"+36 83 510 178","country":"Hungary","amenities":["adblue_pack","air_and_water","b2b_shell_card_ota","credit_card","credit_card_general","fleet_card_general","full_service","go_plus","loyalty_cards","loyalty_program","mobile_payment","other_loyalty_cards","pet_friendly","shop","type_of_parking","wifi","manned"],"distance":137.24557991498,"driving_distance":null,"driving_duration":null,"website_url":"https://find.shell.com/hu/fuel/11368447-keszthely-ii-578/de_AT","mdm_site_category":"Conventional Fuel Site","formatted_address":"CSAPÁS UTCA 27\nKESZTHELY, Zala, 8360","site_category":"conventional_fuel_site"},{"id":"10022968","name":"FUERNITZ KAERNTNERSTRASSE.","lat":46.566415,"lng":13.808604,"brand":"Shell","inactive":false,"type":2,"country_code":"AT","address":"KAERNTNERSTRASSE 7","city":"FUERNITZ","state":"Kärnten","postcode":"9586","telephone":"+43 4257 2340","country":"Austria","amenities":["adblue_pack","adblue_truck","air_and_water","apple_pay","austrian_highway_sticker","b2b_shell_card_ota","bakery_shop","carwash","credit_card","credit_card_general","deli2go","disabled_facilities","fleet_card_dkv","fleet_card_uta","go_plus","google_pay","hgv_lane","high_speed_diesel_pump","loyalty_cards","loyalty_program","mobile_payment","mobile_payment_amex","mobile_payment_maestro","mobile_payment_mastercard","mobile_payment_visa","parking_lanes","paypal","rollover","self_service","shell_machine_rollover","shop","shower","standard_toilet","truck_parking","twenty_four_hour","twenty_four_hour_ev_service","type_of_parking","vacuum","wifi","manned"],"distance":139.50231326802,"driving_distance":null,"driving_duration":null,"website_url":"https://www.shell.at/tanken/shell-tankstellensuche/standorte.html/10022968-fuernitz-kaerntnerstrasse","mdm_site_category":"Conventional Fuel Site with EV","formatted_address":"KAERNTNERSTRASSE 7\nFUERNITZ, Kärnten, 9586","site_category":"conventional_fuel_site_with_ev"},{"id":"10022826","name":"ST.MICHAEL AUSTRASSE.","lat":47.094838,"lng":13.636179,"brand":"Shell","inactive":false,"type":0,"country_code":"AT","address":"AUSTRASSE 21","city":"ST.MICHAEL","state":"Salzburg","postcode":"5582","telephone":"+43 6477 8400","country":"Austria","amenities":["air_and_water","carwash","credit_card","credit_card_general","fleet_card_general","self_service","shop","standard_toilet","manned"],"distance":141.23559277527,"driving_distance":null,"driving_duration":null,"website_url":"https://www.shell.at/tanken/shell-tankstellensuche/standorte.html/10022826-st-michael-austrasse","mdm_site_category":"Conventional Fuel Site","formatted_address":"AUSTRASSE 21\nST.MICHAEL, Salzburg, 5582","site_category":"conventional_fuel_site"},{"id":"10022928","name":"SCHLADMING SALZBURGERSTRASSE.","lat":47.391451,"lng":13.682166,"brand":"Shell","inactive":false,"type":0,"country_code":"AT","address":"SALZBURGERSTRASSE 674","city":"SCHLADMING","state":"Steiermark","postcode":"8970","telephone":"+43 3687 22689","country":"Austria","amenities":["adblue_pack","air_and_water","apple_pay","b2b_shell_card_ota","bakery_shop","carwash","credit_card","credit_card_american_express","credit_card_mastercard","credit_card_visa","deli2go","fleet_card_dkv","fleet_card_general","fleet_card_uta","go_plus","google_pay","high_speed_diesel_pump","loyalty_cards","loyalty_program","mobile_payment","mobile_payment_amex","mobile_payment_maestro","mobile_payment_mastercard","mobile_payment_visa","paypal","rollover","self_service","shop","standard_toilet","vacuum","wifi","manned"],"distance":142.43426639756998,"driving_distance":null,"driving_duration":null,"website_url":"https://www.shell.at/tanken/shell-tankstellensuche/standorte.html/10022928-schladming-salzburgerstrasse","mdm_site_category":"Conventional Fuel Site","formatted_address":"SALZBURGERSTRASSE 674\nSCHLADMING, Steiermark, 8970","site_category":"conventional_fuel_site"},{"id":"10022883","name":"BAD AUSSEE BAHNHOFSTRASSE.","lat":47.604535,"lng":13.782447,"brand":"Shell","inactive":false,"type":0,"country_code":"AT","address":"BAHNHOFSTRASSE 309","city":"BAD AUSSEE","state":"Steiermark","postcode":"8990","telephone":"+43 3622 52580","country":"Austria","amenities":["adblue_pack","air_and_water","apple_pay","austrian_highway_sticker","b2b_shell_card_ota","bakery_shop","carwash","credit_card","credit_card_general","fleet_card_general","go_plus","google_pay","high_speed_diesel_pump","loyalty_cards","loyalty_program","mobile_payment","mobile_payment_amex","mobile_payment_maestro","mobile_payment_mastercard","mobile_payment_visa","paypal","rollover","self_service","shop","standard_toilet","vacuum","wifi","manned"],"distance":143.38165274602,"driving_distance":null,"driving_duration":null,"website_url":"https://www.shell.at/tanken/shell-tankstellensuche/standorte.html/10022883-bad-aussee-bahnhofstrasse","mdm_site_category":"Conventional Fuel Site","formatted_address":"BAHNHOFSTRASSE 309\nBAD AUSSEE, Steiermark, 8990","site_category":"conventional_fuel_site"},{"id":"10203175","name":"CSORNA","lat":47.610512,"lng":17.239812,"brand":"Shell","inactive":false,"type":2,"country_code":"HU","address":"SOPRONI UT 66/E.","city":"CSORNA","state":"Gyor-Moson-Sopron","postcode":"9300","telephone":"+36 96 593 072","country":"Hungary","amenities":["adblue_pack","air_and_water","austrian_highway_sticker","b2b_shell_card_ota","bakery_shop","credit_card","credit_card_general","fast_food","fleet_card_general","food_offerings","full_service","go_plus","hgv_lane","high_speed_diesel_pump","hungarian_highway_sticker","loyalty_cards","loyalty_program","mobile_payment","other_loyalty_cards","others","shop","standard_toilet","twenty_four_hour","type_of_parking","wifi","manned"],"distance":145.17523670178,"driving_distance":null,"driving_duration":null,"website_url":"https://find.shell.com/hu/fuel/10203175-csorna/de_AT","mdm_site_category":"Conventional Fuel Site","formatted_address":"SOPRONI UT 66/E.\nCSORNA, Gyor-Moson-Sopron, 9300","site_category":"conventional_fuel_site"},{"id":"13101279","name":"EV TESCO CSORNA","lat":47.607958000000004,"lng":17.243473,"brand":"Shell","inactive":false,"type":0,"country_code":"HU","address":"Bartók Béla u. 3/c","city":"Csorna","state":"Gyor-Moson-Sopron","postcode":"9300","telephone":"","country":"Hungary","amenities":["credit_card","credit_card_general","shop","touchless_pay","twenty_four_hour_ev_service","manned"],"distance":145.30586004537,"driving_distance":null,"driving_duration":null,"website_url":"https://find.shell.com/hu/fuel/13101279-ev-tesco-csorna/de_AT","mdm_site_category":"Destination Charging (EV)","formatted_address":"Bartók Béla u. 3/c\nCsorna, Gyor-Moson-Sopron, 9300","site_category":"destination_charging_ev"},{"id":"11063742","name":"M7 BALATONKERESZTÚR B","lat":46.683486,"lng":17.37886,"brand":"Shell","inactive":false,"type":2,"country_code":"HU","address":"M7 AUTÓPÁLYA 167 KM. BAL OLDAL","city":"BALATONKERESZTÚR","state":"Somogy","postcode":"8648","telephone":"+36 85 702 019","country":"Hungary","amenities":["adblue_pack","adblue_truck","air_and_water","b2b_shell_card_ota","bakery_shop","food_offerings","full_service","go_plus","hgv_lane","high_speed_diesel_pump","hot_food","loyalty_cards","loyalty_program","mobile_payment","other_loyalty_cards","others","pet_friendly","shop","shower","standard_toilet","twenty_four_hour","twenty_four_hour_ev_service","wifi","manned"],"distance":148.53405777929999,"driving_distance":null,"driving_duration":null,"website_url":"https://find.shell.com/hu/fuel/11063742-m7-balatonkeresztur-b/de_AT","mdm_site_category":"Conventional Fuel Site with EV","formatted_address":"M7 AUTÓPÁLYA 167 KM. BAL OLDAL\nBALATONKERESZTÚR, Somogy, 8648","site_category":"conventional_fuel_site_with_ev"},{"id":"11063730","name":"M7 BALATONKERESZTÚR A","lat":46.685359,"lng":17.380161,"brand":"Shell","inactive":false,"type":2,"country_code":"HU","address":"M7 AUTÓPÁLYA 167 KM. JOBB OLDAL","city":"BALATONKERESZTÚR","state":"Somogy","postcode":"8648","telephone":"+36 85 702 041","country":"Hungary","amenities":["adblue_pack","adblue_truck","air_and_water","austrian_highway_sticker","b2b_shell_card_ota","bakery_shop","food_offerings","full_service","go_plus","hgv_lane","high_speed_diesel_pump","hungarian_highway_sticker","loyalty_cards","loyalty_program","mobile_payment","other_loyalty_cards","others","pet_friendly","shop","shower","standard_toilet","twenty_four_hour","twenty_four_hour_ev_service","wifi","manned"],"distance":148.56980240504998,"driving_distance":null,"driving_duration":null,"website_url":"https://find.shell.com/hu/fuel/11063730-m7-balatonkeresztur-a/de_AT","mdm_site_category":"Conventional Fuel Site with EV","formatted_address":"M7 AUTÓPÁLYA 167 KM. JOBB OLDAL\nBALATONKERESZTÚR, Somogy, 8648","site_category":"conventional_fuel_site_with_ev"},{"id":"11367892","name":"TAPOLCA 558","lat":46.8793,"lng":17.45493,"brand":"Shell","inactive":false,"type":0,"country_code":"HU","address":"VESZPRÉMI ÚT 5","city":"TAPOLCA","state":"Veszprem","postcode":"8300","telephone":"+36 87 709 009","country":"Hungary","amenities":["adblue_pack","air_and_water","b2b_shell_card_ota","credit_card","credit_card_general","fleet_card_general","full_service","go_plus","loyalty_cards","loyalty_program","mobile_payment","other_loyalty_cards","pet_friendly","shop","standard_toilet","type_of_parking","wifi","manned"],"distance":149.55520655363998,"driving_distance":null,"driving_duration":null,"website_url":"https://find.shell.com/hu/fuel/11367892-tapolca-558/de_AT","mdm_site_category":"Conventional Fuel Site","formatted_address":"VESZPRÉMI ÚT 5\nTAPOLCA, Veszprem, 8300","site_category":"conventional_fuel_site"},{"id":"13101796","name":"EV TESCO TAPOLCA","lat":46.880598,"lng":17.455893,"brand":"Shell","inactive":false,"type":0,"country_code":"HU","address":"Veszprémi út 5.","city":"Tapolca","state":"Veszprem","postcode":"8300","telephone":"","country":"Hungary","amenities":["credit_card","credit_card_general","shop","touchless_pay","twenty_four_hour_ev_service","manned"],"distance":149.60766408748,"driving_distance":null,"driving_duration":null,"website_url":"https://find.shell.com/hu/fuel/13101796-ev-tesco-tapolca/de_AT","mdm_site_category":"Destination Charging (EV)","formatted_address":"Veszprémi út 5.\nTapolca, Veszprem, 8300","site_category":"destination_charging_ev"},{"id":"10022959","name":"GMUEND UNTERE VORSTADT.","lat":46.90593,"lng":13.531642,"brand":"Shell","inactive":false,"type":2,"country_code":"AT","address":"UNTERE VORSTADT 27 A","city":"GMUEND","state":"Kärnten","postcode":"9853","telephone":"+43 4732 2169","country":"Austria","amenities":["adblue_pack","air_and_water","apple_pay","austrian_highway_sticker","b2b_shell_card_ota","bakery_shop","carwash","credit_card","credit_card_american_express","credit_card_general","credit_card_mastercard","credit_card_visa","deli2go","disabled_facilities","fleet_card_dkv","fleet_card_esso","fleet_card_uta","go_plus","google_pay","hgv_lane","high_speed_diesel_pump","loyalty_cards","loyalty_program","mobile_payment","mobile_payment_amex","mobile_payment_maestro","mobile_payment_mastercard","mobile_payment_visa","paypal","rollover","selectshop","self_service","service_bay","shell_card","standard_toilet","type_of_parking","vacuum","wifi","manned"],"distance":150.18445575728,"driving_distance":null,"driving_duration":null,"website_url":"https://www.shell.at/tanken/shell-tankstellensuche/standorte.html/10022959-gmuend-untere-vorstadt","mdm_site_category":"Conventional Fuel Site","formatted_address":"UNTERE VORSTADT 27 A\nGMUEND, Kärnten, 9853","site_category":"conventional_fuel_site"},{"id":"11367891","name":"PÁPA III 556","lat":47.321658,"lng":17.447239,"brand":"Shell","inactive":false,"type":0,"country_code":"HU","address":"CELLI ÚT 92","city":"PÁPA","state":"Veszprem","postcode":"8500","telephone":"+36 20 413 6347","country":"Hungary","amenities":["adblue_pack","air_and_water","austrian_highway_sticker","b2b_shell_card_ota","full_service","go_plus","hungarian_highway_sticker","loyalty_cards","loyalty_program","mobile_payment","other_loyalty_cards","shop","wifi","manned"],"distance":150.21826618749,"driving_distance":null,"driving_duration":null,"website_url":"https://find.shell.com/hu/fuel/11367891-papa-iii-556/de_AT","mdm_site_category":"Conventional Fuel Site","formatted_address":"CELLI ÚT 92\nPÁPA, Veszprem, 8500","site_category":"conventional_fuel_site"},{"id":"13040794","name":"EV TESCO PAPA","lat":47.321495,"lng":17.448532,"brand":"Shell","inactive":false,"type":0,"country_code":"HU","address":"Cellei ut 92.","city":"Papa","state":"Veszprem","postcode":"8500","telephone":"","country":"Hungary","amenities":["credit_card","credit_card_general","touchless_pay","twenty_four_hour_ev_service","manned"],"distance":150.31055749965,"driving_distance":null,"driving_duration":null,"website_url":"https://find.shell.com/hu/fuel/13040794-ev-tesco-papa/de_AT","mdm_site_category":"Destination Charging (EV)","formatted_address":"Cellei ut 92.\nPapa, Veszprem, 8500","site_category":"destination_charging_ev"},{"id":"10022813","name":"MANDLING MANDLINGSTRASSE.","lat":47.403949,"lng":13.571991,"brand":"Shell","inactive":false,"type":0,"country_code":"AT","address":"MANDLINGSTRASSE 8","city":"MANDLING","state":"Salzburg","postcode":"8974","telephone":"+43 6454 7221","country":"Austria","amenities":["air_and_water","credit_card","credit_card_general","fleet_card_general","pay_at_pump","self_service","shop","standard_toilet","manned"],"distance":150.80947199944,"driving_distance":null,"driving_duration":null,"website_url":"https://www.shell.at/tanken/shell-tankstellensuche/standorte.html/10022813-mandling-mandlingstrasse","mdm_site_category":"Conventional Fuel Site","formatted_address":"MANDLINGSTRASSE 8\nMANDLING, Salzburg, 8974","site_category":"conventional_fuel_site"},{"id":"10202437","name":"PÁPA II.","lat":47.32932,"lng":17.46,"brand":"Shell","inactive":false,"type":0,"country_code":"HU","address":"CELLI U. 6","city":"PAPA","state":"Veszprem","postcode":"8500","telephone":"+36 89 511 290","country":"Hungary","amenities":["adblue_pack","air_and_water","b2b_shell_card_ota","credit_card","credit_card_general","fleet_card_general","full_service","go_plus","hungarian_highway_sticker","loyalty_cards","loyalty_program","mobile_payment","other_loyalty_cards","shop","standard_toilet","type_of_parking","wifi","manned"],"distance":151.32502780052002,"driving_distance":null,"driving_duration":null,"website_url":"https://find.shell.com/hu/fuel/10202437-papa-ii/de_AT","mdm_site_category":"Conventional Fuel Site","formatted_address":"CELLI U. 6\nPAPA, Veszprem, 8500","site_category":"conventional_fuel_site"},{"id":"13101802","name":"EV TESCO MARCALI","lat":46.605981,"lng":17.404531,"brand":"Shell","inactive":false,"type":0,"country_code":"HU","address":"Noszlopy u. 177.","city":"Marcali","state":"Somogy","postcode":"8700","telephone":"","country":"Hungary","amenities":["atm","atm_in","credit_card","credit_card_general","fleet_card_general","free_toilet","no_of_shop_seats","parking_lanes","shop","touchless_pay","twenty_four_hour_ev_service","type_of_parking","manned"],"distance":153.07023055455002,"driving_distance":null,"driving_duration":null,"website_url":"https://find.shell.com/hu/fuel/13101802-ev-tesco-marcali/de_AT","mdm_site_category":"Destination Charging (EV)","formatted_address":"Noszlopy u. 177.\nMarcali, Somogy, 8700","site_category":"destination_charging_ev"}],"clusters":[]}